$GPVTG,216.2,T,203.0,M,006.2,N,011.5,K*49
$GPGGA,011441.459,3238.7331,N,11721.3997,W,3,05,1.4,015.1,M,036.4,M,,*7D
$GPGXP,011441,3238.7331,N,11721.3997,W*50
$GPVTG,183.4,T,170.2,M,005.9,N,011.0,K*48
$GPGGA,011456.459,3238.7080,N,11721.4074,W,3,05,1.4,015.7,M,036.4,M,,*77
$GPGXP,011456,3238.7080,N,11721.4074,W*5C
$GPVTG,198.3,T,185.1,M,006.0,N,011.1,K*47
$GPGGA,011511.459,3238.6832,N,11721.4161,W,3,05,1.4,016.0,M,036.4,M,,*74
$GPGXP,011511,3238.6832,N,11721.4161,W*5B
$GPVTG,193.7,T,180.5,M,006.0,N,011.1,K*49
$GPGGA,011526.458,3238.6577,N,11721.4242,W,3,05,1.4,013.6,M,036.4,M,,*7C
$GPGXP,011526,3238.6577,N,11721.4242,W*51
$GPVTG,191.1,T,177.9,M,006.0,N,011.0,K*48
$GPGGA,011541.458,3238.6334,N,11721.4318,W,3,05,1.4,015.1,M,036.4,M,,*73
$GPGXP,011541,3238.6334,N,11721.4318,W*5F
$GPVTG,208.4,T,195.2,M,006.7,N,012.3,K*4E
$GPGGA,011556.458,3238.6087,N,11721.4406,W,3,05,1.4,018.1,M,036.4,M,,*7B
$GPGXP,011556,3238.6087,N,11721.4406,W*5A
$GPVTG,193.0,T,179.8,M,006.1,N,011.3,K*46
$GPGGA,011611.458,3238.5842,N,11721.4480,W,3,05,1.4,017.4,M,036.4,M,,*7D
$GPGXP,011611,3238.5842,N,11721.4480,W*56
$GPVTG,186.5,T,173.3,M,006.2,N,011.6,K*40
$GPGGA,011626.458,3238.5592,N,11721.4565,W,3,05,1.4,017.2,M,036.4,M,,*75
$GPGXP,011626,3238.5592,N,11721.4565,W*58
$GPVTG,188.1,T,174.9,M,006.0,N,011.2,K*41
$GPGGA,011641.458,3238.5352,N,11721.4651,W,3,05,1.4,016.8,M,036.4,M,,*71
$GPGXP,011641,3238.5352,N,11721.4651,W*57
$GPVTG,212.9,T,199.7,M,006.1,N,011.3,K*44
$GPGGA,011916.458,3238.2787,N,11721.5548,W,3,05,1.3,023.2,M,036.4,M,,*76
$GPGXP,011916,3238.2787,N,11721.5548,W*5B
$GPVTG,187.2,T,174.0,M,006.6,N,012.2,K*41
$GPGGA,011931.458,3238.2549,N,11721.5615,W,3,05,1.3,016.8,M,036.4,M,,*74
$GPGXP,011931,3238.2549,N,11721.5615,W*55
$GPVTG,201.8,T,188.6,M,006.0,N,011.1,K*45
$GPGGA,011946.458,3238.2300,N,11721.5728,W,3,05,1.3,027.5,M,036.4,M,,*7F
$GPGXP,011946,3238.2300,N,11721.5728,W*51
$GPVTG,188.7,T,175.5,M,006.5,N,012.0,K*4E
$GPGGA,012001.458,3238.2054,N,11721.5815,W,3,05,1.3,027.4,M,036.4,M,,*74
$GPGXP,012001,3238.2054,N,11721.5815,W*5B
$GPVTG,196.3,T,183.1,M,006.4,N,011.8,K*42
$GPGGA,012016.458,3238.1808,N,11721.5903,W,3,05,1.3,025.8,M,036.4,M,,*78
$GPGXP,012016,3238.1808,N,11721.5903,W*59
$GPVTG,198.0,T,184.8,M,006.3,N,011.6,K*48
$GPGGA,012031.458,3238.1557,N,11721.5994,W,3,05,1.3,023.9,M,036.4,M,,*73
$GPGXP,012031,3238.1557,N,11721.5994,W*55
$GPVTG,194.4,T,181.2,M,006.3,N,011.7,K*4E
$GPGGA,012046.458,3238.1302,N,11721.6083,W,3,05,1.3,025.7,M,036.4,M,,*71
$GPGXP,012046,3238.1302,N,11721.6083,W*5F
$GPVTG,210.4,T,197.2,M,006.8,N,012.6,K*4F
$GPGGA,012101.458,3238.1049,N,11721.6173,W,3,05,1.3,027.4,M,036.4,M,,*70
$GPGXP,012101,3238.1049,N,11721.6173,W*5F
$GPVTG,195.8,T,182.6,M,006.0,N,011.0,K*40
$GPGGA,012116.458,3238.0801,N,11721.6257,W,3,05,1.3,027.2,M,036.4,M,,*70
$GPGXP,012116,3238.0801,N,11721.6257,W*59
$GPVTG,210.7,T,197.5,M,006.4,N,011.8,K*4A
$GPGGA,012131.458,3238.0554,N,11721.6354,W,3,05,1.3,028.4,M,036.4,M,,*73
$GPGXP,012131,3238.0554,N,11721.6354,W*53
$GPVTG,205.4,T,192.2,M,005.5,N,010.2,K*46
$GPGGA,012146.458,3238.0302,N,11721.6438,W,3,05,1.3,028.4,M,036.4,M,,*7B
$GPGXP,012146,3238.0302,N,11721.6438,W*5B
$GPVTG,201.8,T,188.6,M,006.8,N,012.7,K*48
$GPGGA,012201.458,3238.0040,N,11721.6503,W,3,05,1.5,007.9,M,036.4,M,,*71
$GPGXP,012201,3238.0040,N,11721.6503,W*57
$GPVTG,192.5,T,179.3,M,006.2,N,011.6,K*4F
$GPGGA,012216.458,3237.9802,N,11721.6600,W,3,05,1.3,027.7,M,036.4,M,,*75
$GPGXP,012216,3237.9802,N,11721.6600,W*59
$GPVTG,197.4,T,184.2,M,005.8,N,010.7,K*41
$GPGGA,012442.458,3237.7402,N,11721.7469,W,3,05,1.4,006.5,M,036.4,M,,*7A
$GPGXP,012442,3237.7402,N,11721.7469,W*50
$GPVTG,183.0,T,169.8,M,006.2,N,011.5,K*43
$GPGGA,012457.458,3237.7150,N,11721.7558,W,3,05,1.4,007.0,M,036.4,M,,*7B
$GPGXP,012457,3237.7150,N,11721.7558,W*55
$GPVTG,192.7,T,179.5,M,006.0,N,011.1,K*4E
$GPGGA,012512.458,3237.6903,N,11721.7648,W,3,05,1.4,006.0,M,036.4,M,,*77
$GPGXP,012512,3237.6903,N,11721.7648,W*58
$GPVTG,213.6,T,200.4,M,006.2,N,011.6,K*4C
$GPGGA,012527.458,3237.6650,N,11721.7732,W,3,05,1.4,006.5,M,036.4,M,,*71
$GPGXP,012527,3237.6650,N,11721.7732,W*5B
$GPVTG,184.8,T,171.6,M,006.5,N,012.1,K*4B
$GPGGA,012542.458,3237.6406,N,11721.7806,W,3,05,1.4,006.3,M,036.4,M,,*7D
$GPGXP,012542,3237.6406,N,11721.7806,W*51
$GPVTG,192.5,T,179.3,M,006.1,N,011.3,K*49
$GPGGA,012557.458,3237.6162,N,11721.7895,W,3,05,1.4,006.3,M,036.4,M,,*74
$GPGXP,012557,3237.6162,N,11721.7895,W*58
$GPVTG,174.0,T,160.8,M,007.6,N,014.1,K*46
$GPGGA,012612.458,3237.5910,N,11721.7972,W,3,05,1.4,006.3,M,036.4,M,,*70
$GPGXP,012612,3237.5910,N,11721.7972,W*5C
$GPVTG,201.8,T,188.6,M,006.5,N,012.0,K*42
$GPGGA,012627.458,3237.5677,N,11721.8066,W,3,05,1.4,006.1,M,036.4,M,,*79
$GPGXP,012627,3237.5677,N,11721.8066,W*57
$GPVTG,197.8,T,184.6,M,005.4,N,009.9,K*43
$GPGGA,012642.458,3237.5438,N,11721.8146,W,3,05,1.4,006.2,M,036.4,M,,*73
$GPGXP,012642,3237.5438,N,11721.8146,W*5E
$GPVTG,176.8,T,163.6,M,007.2,N,013.3,K*40
$GPGGA,012657.458,3237.5191,N,11721.8225,W,3,05,1.4,006.1,M,036.4,M,,*74
$GPGXP,012657,3237.5191,N,11721.8225,W*5A
$GPVTG,187.6,T,174.4,M,006.5,N,012.1,K*41
$GPGGA,012712.458,3237.4952,N,11721.8307,W,3,05,1.4,005.0,M,036.4,M,,*71
$GPGXP,012712,3237.4952,N,11721.8307,W*5D
$GPVTG,223.0,T,209.8,M,005.8,N,010.7,K*45
$GPGGA,012727.458,3237.4714,N,11721.8396,W,3,05,1.4,005.3,M,036.4,M,,*70
$GPGXP,012727,3237.4714,N,11721.8396,W*5F
$GPVTG,182.3,T,169.1,M,006.1,N,011.4,K*4A
$GPGGA,012742.458,3237.4480,N,11721.8460,W,3,05,1.4,004.4,M,036.4,M,,*75
$GPGXP,012742,3237.4480,N,11721.8460,W*5C
$GPVTG,186.0,T,172.8,M,005.8,N,010.7,K*46
$GPGGA,012757.458,3237.4239,N,11721.8545,W,3,05,1.4,006.1,M,036.4,M,,*74
$GPGXP,012757,3237.4239,N,11721.8545,W*5A
$GPVTG,190.8,T,177.6,M,006.3,N,011.6,K*4A
$GPGGA,012812.458,3237.4000,N,11721.8623,W,3,05,1.4,005.3,M,036.4,M,,*70
$GPGXP,012812,3237.4000,N,11721.8623,W*5F
$GPVTG,192.4,T,179.1,M,006.4,N,011.9,K*45
$GPGGA,012827.458,3237.3761,N,11721.8701,W,3,05,1.4,006.8,M,036.4,M,,*78
$GPGXP,012827,3237.3761,N,11721.8701,W*5F
$GPVTG,198.8,T,185.6,M,005.6,N,010.4,K*4A
$GPGGA,012842.458,3237.3535,N,11721.8792,W,3,05,1.4,004.8,M,036.4,M,,*70
$GPGXP,012842,3237.3535,N,11721.8792,W*55
$GPVTG,208.8,T,195.6,M,006.0,N,011.2,K*43
$GPGGA,012857.458,3237.3302,N,11721.8879,W,3,05,1.4,006.0,M,036.4,M,,*76
$GPGXP,012857,3237.3302,N,11721.8879,W*59
$GPVTG,211.1,T,197.9,M,006.5,N,012.1,K*4A
$GPGGA,012912.458,3237.3062,N,11721.8969,W,3,05,1.4,005.0,M,036.4,M,,*70
$GPGXP,012912,3237.3062,N,11721.8969,W*5C
$GPVTG,210.2,T,197.0,M,006.2,N,011.5,K*41
$GPGGA,012927.458,3237.2823,N,11721.9049,W,3,05,1.4,005.1,M,036.4,M,,*71
$GPGXP,012927,3237.2823,N,11721.9049,W*5C
$GPVTG,184.4,T,171.1,M,006.4,N,011.8,K*4B
$GPGGA,012942.458,3237.2576,N,11721.9119,W,3,05,1.4,006.7,M,036.4,M,,*7E
$GPGXP,012942,3237.2576,N,11721.9119,W*56
$GPVTG,204.3,T,191.1,M,006.0,N,011.1,K*44
$GPGGA,012957.458,3237.2334,N,11721.9197,W,3,05,1.4,006.1,M,036.4,M,,*7A
$GPGXP,012957,3237.2334,N,11721.9197,W*54
$GPVTG,206.8,T,193.6,M,005.7,N,010.5,K*49
$GPGGA,013012.458,3237.2097,N,11721.9254,W,3,05,1.4,005.6,M,036.4,M,,*71
$GPGXP,013012,3237.2097,N,11721.9254,W*5B
$GPVTG,194.1,T,180.9,M,006.2,N,011.4,K*43
$GPGGA,013027.458,3237.1840,N,11721.9285,W,3,05,1.4,008.4,M,036.4,M,,*75
$GPGXP,013027,3237.1840,N,11721.9285,W*50
$GPVTG,159.4,T,146.2,M,006.8,N,012.6,K*4D
$GPGGA,013042.458,3237.1590,N,11721.9284,W,3,05,1.4,007.4,M,036.4,M,,*78
$GPGXP,013042,3237.1590,N,11721.9284,W*52
$GPVTG,189.6,T,176.3,M,006.2,N,011.5,K*4A
$GPGGA,013057.458,3237.1335,N,11721.9296,W,3,05,1.4,007.4,M,036.4,M,,*76
$GPGXP,013057,3237.1335,N,11721.9296,W*5C
$GPVTG,199.2,T,186.0,M,006.2,N,011.5,K*43
$GPGGA,013112.458,3237.1082,N,11721.9314,W,3,05,1.4,008.0,M,036.4,M,,*79
$GPGXP,013112,3237.1082,N,11721.9314,W*58
$GPVTG,182.1,T,168.9,M,006.1,N,011.3,K*46
$GPGGA,013127.458,3237.0827,N,11721.9334,W,3,05,1.4,009.6,M,036.4,M,,*7C
$GPGXP,013127,3237.0827,N,11721.9334,W*5A
$GPVTG,182.6,T,169.4,M,006.2,N,011.6,K*4B
$GPGGA,013142.458,3237.0582,N,11721.9373,W,3,05,1.4,008.2,M,036.4,M,,*7B
$GPGXP,013142,3237.0582,N,11721.9373,W*58
$GPVTG,205.3,T,192.1,M,006.1,N,011.4,K*42
$GPGGA,013157.458,3237.0334,N,11721.9413,W,3,05,1.4,007.5,M,036.4,M,,*7D
$GPGXP,013157,3237.0334,N,11721.9413,W*56
$GPVTG,181.9,T,168.7,M,006.2,N,011.4,K*47
$GPGGA,013212.458,3237.0079,N,11721.9436,W,3,05,1.4,008.0,M,036.4,M,,*78
$GPGXP,013212,3237.0079,N,11721.9436,W*59
$GPVTG,188.1,T,174.9,M,006.1,N,011.3,K*41
$GPGGA,013227.458,3236.9826,N,11721.9472,W,3,05,1.4,008.3,M,036.4,M,,*77
$GPGXP,013227,3236.9826,N,11721.9472,W*55
$GPVTG,188.1,T,174.9,M,006.3,N,011.7,K*47
$GPGGA,013242.458,3236.9572,N,11721.9502,W,3,05,1.4,009.2,M,036.4,M,,*7E
$GPGXP,013242,3236.9572,N,11721.9502,W*5C
$GPVTG,188.1,T,174.9,M,006.3,N,011.6,K*46
$GPGGA,013257.458,3236.9320,N,11721.9530,W,3,05,1.4,009.5,M,036.4,M,,*7D
$GPGXP,013257,3236.9320,N,11721.9530,W*58
$GPVTG,201.2,T,188.0,M,006.0,N,011.1,K*49
$GPGGA,013312.458,3236.9066,N,11721.9565,W,3,05,1.4,009.8,M,036.4,M,,*71
$GPGXP,013312,3236.9066,N,11721.9565,W*59
$GPVTG,202.4,T,189.2,M,005.9,N,010.9,K*4C
$GPGGA,013327.458,3236.8817,N,11721.9599,W,3,05,1.4,008.5,M,036.4,M,,*77
$GPGXP,013327,3236.8817,N,11721.9599,W*53
$GPVTG,186.9,T,173.7,M,005.8,N,010.8,K*4E
$GPGGA,013342.458,3236.8565,N,11721.9658,W,3,05,1.4,007.1,M,036.4,M,,*79
$GPGXP,013342,3236.8565,N,11721.9658,W*56
$GPVTG,211.8,T,198.6,M,005.9,N,010.9,K*46
$GPGGA,013357.458,3236.8339,N,11721.9742,W,3,05,1.4,012.0,M,036.4,M,,*7D
$GPGXP,013357,3236.8339,N,11721.9742,W*57
$GPVTG,193.0,T,179.7,M,005.9,N,010.9,K*49
$GPGGA,013412.458,3236.8096,N,11721.9805,W,3,05,1.4,012.8,M,036.4,M,,*79
$GPGXP,013412,3236.8096,N,11721.9805,W*5B
$GPVTG,204.0,T,190.8,M,006.2,N,011.4,K*48
$GPGGA,013427.458,3236.7857,N,11721.9879,W,3,05,1.4,011.8,M,036.4,M,,*7D
$GPGXP,013427,3236.7857,N,11721.9879,W*5C
$GPVTG,197.6,T,184.4,M,005.8,N,010.8,K*4A
$GPGGA,013442.458,3236.7617,N,11721.9940,W,3,05,1.4,011.7,M,036.5,M,,*71
$GPGXP,013442,3236.7617,N,11721.9940,W*5E
$GPVTG,187.2,T,174.0,M,005.8,N,010.8,K*44
$GPGGA,013457.458,3236.7374,N,11722.0005,W,3,05,1.4,012.1,M,036.5,M,,*72
$GPGXP,013457,3236.7374,N,11722.0005,W*58
$GPVTG,192.9,T,179.7,M,006.3,N,011.7,K*47
$GPGGA,013512.458,3236.7127,N,11722.0068,W,3,05,1.4,011.8,M,036.5,M,,*77
$GPGXP,013512,3236.7127,N,11722.0068,W*57
$GPVTG,198.0,T,184.8,M,006.4,N,011.9,K*40
$GPGGA,013527.458,3236.6883,N,11722.0131,W,3,05,1.4,011.7,M,036.5,M,,*75
$GPGXP,013527,3236.6883,N,11722.0131,W*5A
$GPVTG,201.0,T,187.8,M,006.3,N,011.6,K*48
$GPGGA,013542.458,3236.6643,N,11722.0199,W,3,05,1.4,012.5,M,036.5,M,,*77
$GPGXP,013542,3236.6643,N,11722.0199,W*59
$GPVTG,190.3,T,177.1,M,006.3,N,011.6,K*46
$GPGGA,013557.458,3236.6401,N,11722.0262,W,3,05,1.4,012.0,M,036.5,M,,*75
$GPGXP,013557,3236.6401,N,11722.0262,W*5E
$GPVTG,199.3,T,186.1,M,005.8,N,010.8,K*46
$GPGGA,013612.458,3236.6157,N,11722.0334,W,3,05,1.4,010.9,M,036.5,M,,*78
$GPGXP,013612,3236.6157,N,11722.0334,W*58
$GPVTG,207.9,T,194.7,M,005.4,N,010.0,K*49
$GPGGA,013627.458,3236.5916,N,11722.0403,W,3,05,1.4,011.5,M,036.5,M,,*7E
$GPGXP,013627,3236.5916,N,11722.0403,W*53
$GPVTG,193.8,T,180.6,M,006.1,N,011.2,K*47
$GPGGA,013642.458,3236.5674,N,11722.0475,W,3,05,1.4,011.6,M,036.5,M,,*74
$GPGXP,013642,3236.5674,N,11722.0475,W*5A
$GPVTG,187.2,T,174.0,M,006.0,N,011.1,K*47
$GPGGA,013657.458,3236.5430,N,11722.0544,W,3,05,1.4,011.9,M,036.5,M,,*7E
$GPGXP,013657,3236.5430,N,11722.0544,W*5F
$GPVTG,197.7,T,184.5,M,005.8,N,010.8,K*4A
$GPGGA,013712.458,3236.5190,N,11722.0618,W,3,05,1.4,011.8,M,036.5,M,,*7A
$GPGXP,013712,3236.5190,N,11722.0618,W*5A
$GPVTG,193.0,T,179.8,M,006.1,N,011.3,K*46
$GPGGA,013727.458,3236.4943,N,11722.0689,W,3,05,1.4,011.1,M,036.5,M,,*7A
$GPGXP,013727,3236.4943,N,11722.0689,W*53
$GPVTG,173.3,T,160.0,M,007.1,N,013.1,K*4A
$GPGGA,013742.458,3236.4697,N,11722.0748,W,3,05,1.4,012.0,M,036.5,M,,*71
$GPGXP,013742,3236.4697,N,11722.0748,W*5A
$GPVTG,186.6,T,173.4,M,005.9,N,010.9,K*42
$GPGGA,013757.458,3236.4457,N,11722.0827,W,3,05,1.4,011.6,M,036.5,M,,*78
$GPGXP,013757,3236.4457,N,11722.0827,W*56
$GPVTG,213.7,T,200.5,M,006.5,N,012.1,K*4F
$GPGGA,013812.457,3236.4218,N,11722.0906,W,3,05,1.4,012.3,M,036.5,M,,*70
$GPGXP,013812,3236.4218,N,11722.0906,W*57
$GPVTG,179.9,T,166.7,M,006.1,N,011.4,K*4D
$GPGGA,013827.457,3236.3975,N,11722.0964,W,3,05,1.4,012.7,M,036.5,M,,*71
$GPGXP,013827,3236.3975,N,11722.0964,W*52
$GPVTG,194.0,T,180.8,M,006.1,N,011.3,K*47
$GPGGA,013842.457,3236.3735,N,11722.1043,W,3,05,1.4,011.5,M,036.5,M,,*74
$GPGXP,013842,3236.3735,N,11722.1043,W*56
$GPVTG,186.4,T,173.2,M,006.2,N,011.5,K*43
$GPGGA,013857.457,3236.3499,N,11722.1118,W,3,05,1.4,011.7,M,036.5,M,,*78
$GPGXP,013857,3236.3499,N,11722.1118,W*58
$GPVTG,197.5,T,184.3,M,006.1,N,011.3,K*4E
$GPGGA,013912.457,3236.3258,N,11722.1192,W,3,05,1.4,011.9,M,036.5,M,,*7F
$GPGXP,013912,3236.3258,N,11722.1192,W*51
$GPVTG,207.6,T,194.4,M,005.7,N,010.6,K*40
$GPGGA,013927.457,3236.3015,N,11722.1261,W,3,05,1.4,011.5,M,036.5,M,,*71
$GPGXP,013927,3236.3015,N,11722.1261,W*53
$GPVTG,192.2,T,179.0,M,006.3,N,011.6,K*4A
$GPGGA,013942.457,3236.2767,N,11722.1325,W,3,05,1.4,011.2,M,036.5,M,,*77
$GPGXP,013942,3236.2767,N,11722.1325,W*52
$GPVTG,196.1,T,182.9,M,006.2,N,011.4,K*43
$GPGGA,013957.457,3236.2524,N,11722.1388,W,3,05,1.4,012.2,M,036.5,M,,*72
$GPGXP,013957,3236.2524,N,11722.1388,W*54
$GPVTG,178.9,T,165.7,M,006.3,N,011.7,K*4E
$GPGGA,014012.457,3236.2260,N,11722.1460,W,3,05,1.4,026.4,M,036.5,M,,*7A
$GPGXP,014012,3236.2260,N,11722.1460,W*5D
$GPVTG,186.2,T,173.0,M,006.3,N,011.6,K*45
$GPGGA,014027.457,3236.2009,N,11722.1532,W,3,05,1.4,026.1,M,036.5,M,,*72
$GPGXP,014027,3236.2009,N,11722.1532,W*50
$GPVTG,188.8,T,175.6,M,005.8,N,010.8,K*46
$GPGGA,014042.457,3236.1767,N,11722.1594,W,3,05,1.4,026.4,M,036.5,M,,*74
$GPGXP,014042,3236.1767,N,11722.1594,W*53
$GPVTG,196.1,T,182.9,M,006.3,N,011.8,K*4E
$GPGGA,014057.457,3236.1522,N,11722.1673,W,3,05,1.4,027.0,M,036.5,M,,*7C
$GPGXP,014057,3236.1522,N,11722.1673,W*5E
$GPVTG,194.0,T,180.8,M,006.0,N,011.1,K*44
$GPGGA,014112.457,3236.1281,N,11722.1752,W,3,05,1.4,025.7,M,036.5,M,,*75
$GPGXP,014112,3236.1281,N,11722.1752,W*52
$GPVTG,192.2,T,179.0,M,006.6,N,012.1,K*4B
$GPGGA,014127.457,3236.1034,N,11722.1823,W,3,05,1.4,019.7,M,036.5,M,,*79
$GPGXP,014127,3236.1034,N,11722.1823,W*51
$GPVTG,188.6,T,175.4,M,006.1,N,011.3,K*4A
$GPGGA,014142.457,3236.0787,N,11722.1897,W,3,05,1.4,020.0,M,036.5,M,,*76
$GPGXP,014142,3236.0787,N,11722.1897,W*53
$GPVTG,195.7,T,182.5,M,005.7,N,010.6,K*4F
$GPGGA,014157.457,3236.0539,N,11722.1969,W,3,05,1.4,019.3,M,036.5,M,,*7C
$GPGXP,014157,3236.0539,N,11722.1969,W*50
$GPVTG,180.8,T,167.6,M,006.1,N,011.3,K*4D
$GPGGA,014212.457,3236.0285,N,11722.2044,W,3,05,1.4,020.5,M,036.5,M,,*77
$GPGXP,014212,3236.0285,N,11722.2044,W*57
$GPVTG,198.2,T,185.0,M,005.9,N,011.0,K*4C
$GPGGA,014227.457,3236.0042,N,11722.2130,W,3,05,1.4,020.5,M,036.5,M,,*7A
$GPGXP,014227,3236.0042,N,11722.2130,W*5A
$GPVTG,205.6,T,192.4,M,006.0,N,011.1,K*46
$GPGGA,014242.457,3235.9796,N,11722.2205,W,3,05,1.4,020.0,M,036.5,M,,*7D
$GPGXP,014242,3235.9796,N,11722.2205,W*58
$GPVTG,204.8,T,191.6,M,006.0,N,011.1,K*48
$GPGGA,014257.457,3235.9552,N,11722.2280,W,3,05,1.4,020.0,M,036.5,M,,*7E
$GPGXP,014257,3235.9552,N,11722.2280,W*5B
$GPVTG,195.5,T,182.3,M,006.2,N,011.5,K*4F
$GPGGA,014312.457,3235.9304,N,11722.2356,W,3,05,1.4,020.6,M,036.5,M,,*77
$GPGXP,014312,3235.9304,N,11722.2356,W*54
$GPVTG,188.5,T,175.3,M,006.0,N,011.1,K*4D
$GPGGA,014327.457,3235.9059,N,11722.2426,W,3,05,1.4,021.1,M,036.5,M,,*7C
$GPGXP,014327,3235.9059,N,11722.2426,W*59
$GPVTG,179.8,T,166.6,M,006.8,N,012.5,K*46
$GPGGA,014342.457,3235.8805,N,11722.2489,W,3,05,1.4,021.0,M,036.5,M,,*7B
$GPGXP,014342,3235.8805,N,11722.2489,W*5F
$GPVTG,181.6,T,168.4,M,006.0,N,011.1,K*4C
$GPGGA,014357.457,3235.8557,N,11722.2558,W,3,05,1.4,021.5,M,036.5,M,,*7D
$GPGXP,014357,3235.8557,N,11722.2558,W*5C
$GPVTG,216.0,T,202.8,M,006.4,N,011.9,K*48
$GPGGA,014412.457,3235.8311,N,11722.2638,W,3,05,1.4,020.6,M,036.5,M,,*78
$GPGXP,014412,3235.8311,N,11722.2638,W*5B
$GPVTG,208.3,T,195.1,M,005.8,N,010.7,K*40
$GPGGA,014427.457,3235.8068,N,11722.2721,W,3,05,1.4,021.6,M,036.5,M,,*7B
$GPGXP,014427,3235.8068,N,11722.2721,W*59
$GPVTG,191.5,T,178.3,M,006.0,N,011.1,K*48
$GPGGA,014442.457,3235.7833,N,11722.2802,W,3,05,1.3,008.1,M,036.5,M,,*74
$GPGXP,014442,3235.7833,N,11722.2802,W*5D
$GPVTG,205.6,T,192.4,M,005.8,N,010.7,K*4A
$GPGGA,014457.457,3235.7598,N,11722.2901,W,3,05,1.3,007.1,M,036.5,M,,*71
$GPGXP,014457,3235.7598,N,11722.2901,W*57
$GPVTG,201.2,T,188.0,M,005.9,N,011.0,K*42
$GPGGA,014512.457,3235.7358,N,11722.2988,W,3,05,1.3,006.6,M,036.5,M,,*7C
$GPGXP,014512,3235.7358,N,11722.2988,W*5C
$GPVTG,207.2,T,194.0,M,006.1,N,011.3,K*41
$GPGGA,014527.457,3235.7116,N,11722.3080,W,3,05,1.3,006.6,M,036.5,M,,*72
$GPGXP,014527,3235.7116,N,11722.3080,W*52
$GPVTG,206.8,T,193.6,M,006.6,N,012.2,K*4E
$GPGGA,014542.457,3235.6870,N,11722.3167,W,3,05,1.3,006.9,M,036.5,M,,*7E
$GPGXP,014542,3235.6870,N,11722.3167,W*51
$GPVTG,201.5,T,188.3,M,005.7,N,010.6,K*4F
$GPGGA,014557.457,3235.6631,N,11722.3255,W,3,05,1.3,006.4,M,036.5,M,,*7E
$GPGXP,014557,3235.6631,N,11722.3255,W*5C
$GPVTG,183.5,T,170.3,M,006.9,N,012.7,K*4F
$GPGGA,014612.457,3235.6386,N,11722.3343,W,3,05,1.3,007.1,M,036.5,M,,*77
$GPGXP,014612,3235.6386,N,11722.3343,W*51
$GPVTG,213.9,T,200.7,M,006.5,N,012.0,K*42
$GPGGA,014627.457,3235.6148,N,11722.3443,W,3,05,1.3,006.3,M,036.5,M,,*75
$GPGXP,014627,3235.6148,N,11722.3443,W*50
$GPVTG,195.0,T,181.8,M,006.0,N,011.2,K*47
$GPGGA,014642.457,3235.5904,N,11722.3535,W,3,05,1.3,007.0,M,036.5,M,,*77
$GPGXP,014642,3235.5904,N,11722.3535,W*50
$GPVTG,210.4,T,197.2,M,005.8,N,010.8,K*40
$GPGGA,014657.457,3235.5666,N,11722.3629,W,3,05,1.3,007.4,M,036.5,M,,*72
$GPGXP,014657,3235.5666,N,11722.3629,W*51
$GPVTG,190.1,T,176.9,M,006.2,N,011.6,K*4C
$GPGGA,014712.457,3235.5426,N,11722.3720,W,3,05,1.3,007.0,M,036.5,M,,*78
$GPGXP,014712,3235.5426,N,11722.3720,W*5F
$GPVTG,189.8,T,176.6,M,006.2,N,011.5,K*41
$GPGGA,014727.457,3235.5192,N,11722.3822,W,3,05,1.3,007.2,M,036.5,M,,*7B
$GPGXP,014727,3235.5192,N,11722.3822,W*5E
$GPVTG,193.3,T,180.1,M,005.9,N,010.9,K*4A
$GPGGA,014742.457,3235.4947,N,11722.3916,W,3,05,1.3,007.1,M,036.5,M,,*7C
$GPGXP,014742,3235.4947,N,11722.3916,W*5A
$GPVTG,197.4,T,184.2,M,006.4,N,011.8,K*40
$GPGGA,014757.457,3235.4702,N,11722.4010,W,3,05,1.3,007.4,M,036.5,M,,*7A
$GPGXP,014757,3235.4702,N,11722.4010,W*59
$GPVTG,220.6,T,207.4,M,006.0,N,011.2,K*4D
$GPGGA,014812.457,3235.4464,N,11722.4099,W,3,05,1.3,006.7,M,036.5,M,,*74
$GPGXP,014812,3235.4464,N,11722.4099,W*55
$GPVTG,187.1,T,173.9,M,006.3,N,011.7,K*4F
$GPGGA,014827.457,3235.4220,N,11722.4180,W,3,05,1.3,007.1,M,036.5,M,,*7A
$GPGXP,014827,3235.4220,N,11722.4180,W*5C
$GPVTG,183.4,T,170.2,M,006.7,N,012.4,K*42
$GPGGA,014842.457,3235.3983,N,11722.4276,W,3,05,1.3,007.5,M,036.5,M,,*72
$GPGXP,014842,3235.3983,N,11722.4276,W*50
$GPVTG,200.9,T,187.7,M,005.6,N,010.4,K*4A
$GPGGA,014857.457,3235.3748,N,11722.4371,W,3,05,1.3,007.4,M,036.5,M,,*78
$GPGXP,014857,3235.3748,N,11722.4371,W*5B
$GPVTG,191.0,T,177.8,M,006.0,N,011.2,K*4A
$GPGGA,014912.457,3235.3507,N,11722.4456,W,3,05,1.3,006.1,M,036.5,M,,*77
$GPGXP,014912,3235.3507,N,11722.4456,W*50
$GPVTG,195.8,T,182.6,M,006.1,N,011.3,K*42
$GPGGA,014927.457,3235.3263,N,11722.4545,W,3,05,1.3,005.9,M,036.5,M,,*7C
$GPGXP,014927,3235.3263,N,11722.4545,W*50
$GPVTG,207.6,T,194.4,M,006.4,N,011.9,K*4E
$GPGGA,014942.457,3235.3026,N,11722.4618,W,3,05,1.3,003.4,M,036.5,M,,*7C
$GPGXP,014942,3235.3026,N,11722.4618,W*5B
$GPVTG,185.0,T,171.8,M,006.3,N,011.6,K*4E
$GPGGA,014957.457,3235.2765,N,11722.4636,W,3,05,1.3,006.6,M,036.5,M,,*72
$GPGXP,014957,3235.2765,N,11722.4636,W*52
$GPVTG,156.4,T,143.2,M,006.9,N,012.8,K*48
$GPGGA,015012.457,3235.2505,N,11722.4605,W,3,05,1.3,007.6,M,036.5,M,,*7E
$GPGXP,015012,3235.2505,N,11722.4605,W*5F
$GPVTG,150.9,T,137.7,M,006.1,N,011.4,K*42
$GPGGA,015027.457,3235.2258,N,11722.4527,W,3,05,1.3,007.8,M,036.5,M,,*7A
$GPGXP,015027,3235.2258,N,11722.4527,W*55
$GPVTG,156.5,T,143.3,M,006.1,N,011.3,K*48
$GPGGA,015042.457,3235.2027,N,11722.4389,W,3,05,1.3,007.0,M,036.5,M,,*79
$GPGXP,015042,3235.2027,N,11722.4389,W*5E
$GPVTG,137.4,T,124.2,M,006.2,N,011.4,K*4A
$GPGGA,015057.457,3235.1831,N,11722.4189,W,3,05,1.3,006.6,M,036.5,M,,*74
$GPGXP,015057,3235.1831,N,11722.4189,W*54
$GPVTG,118.1,T,104.9,M,005.7,N,010.6,K*4E
$GPGGA,015112.457,3235.1673,N,11722.3970,W,3,05,1.3,006.7,M,036.5,M,,*74
$GPGXP,015112,3235.1673,N,11722.3970,W*55
$GPVTG,112.9,T,099.7,M,005.6,N,010.3,K*43
$GPGGA,015127.457,3235.1569,N,11722.3718,W,3,05,1.3,007.2,M,036.5,M,,*7E
$GPGXP,015127,3235.1569,N,11722.3718,W*5B
$GPVTG,094.7,T,081.5,M,005.5,N,010.2,K*4B
$GPGGA,015142.457,3235.1529,N,11722.3449,W,3,05,1.3,009.5,M,036.5,M,,*77
$GPGXP,015142,3235.1529,N,11722.3449,W*5B
$GPVTG,090.7,T,077.5,M,005.7,N,010.6,K*40
$GPGGA,015157.457,3235.1521,N,11722.3177,W,3,05,1.3,008.4,M,036.5,M,,*73
$GPGXP,015157,3235.1521,N,11722.3177,W*5F
$GPVTG,075.9,T,062.7,M,005.3,N,009.7,K*4E
$GPGGA,015212.457,3235.1551,N,11722.2905,W,3,05,1.3,007.2,M,036.5,M,,*73
$GPGXP,015212,3235.1551,N,11722.2905,W*56
$GPVTG,082.9,T,069.7,M,005.9,N,010.8,K*40
$GPGGA,015227.457,3235.1617,N,11722.2641,W,3,05,1.3,005.9,M,036.5,M,,*72
$GPGXP,015227,3235.1617,N,11722.2641,W*5E
$GPVTG,071.7,T,058.5,M,005.6,N,010.4,K*41
$GPGGA,015242.457,3235.1682,N,11722.2378,W,3,05,1.3,005.7,M,036.5,M,,*7C
$GPGXP,015242,3235.1682,N,11722.2378,W*5E
$GPVTG,073.9,T,060.7,M,006.0,N,011.1,K*45
$GPGGA,015257.457,3235.1756,N,11722.2102,W,3,05,1.3,004.1,M,036.5,M,,*78
$GPGXP,015257,3235.1756,N,11722.2102,W*5D
$GPVTG,070.4,T,057.2,M,005.5,N,010.2,K*4E
$GPGGA,015312.457,3235.1844,N,11722.1837,W,3,05,1.3,009.1,M,036.5,M,,*75
$GPGXP,015312,3235.1844,N,11722.1837,W*5D
$GPVTG,065.9,T,052.7,M,005.9,N,011.0,K*48
$GPGGA,015327.457,3235.1925,N,11722.1563,W,3,05,1.3,010.7,M,036.5,M,,*77
$GPGXP,015327,3235.1925,N,11722.1563,W*51
$GPVTG,062.6,T,049.4,M,005.9,N,010.9,K*41
$GPGGA,015342.457,3235.2014,N,11722.1287,W,3,05,1.3,010.1,M,036.5,M,,*77
$GPGXP,015342,3235.2014,N,11722.1287,W*57
$GPVTG,072.2,T,059.0,M,005.9,N,011.0,K*49
$GPGGA,015357.457,3235.2093,N,11722.1015,W,3,05,1.3,009.3,M,036.5,M,,*7F
$GPGXP,015357,3235.2093,N,11722.1015,W*55
$GPVTG,071.3,T,058.1,M,006.0,N,011.0,K*41
$GPGGA,015412.457,3235.2182,N,11722.0741,W,3,05,1.3,008.2,M,036.5,M,,*7F
$GPGXP,015412,3235.2182,N,11722.0741,W*55
$GPVTG,051.7,T,038.5,M,005.9,N,010.8,K*46
$GPGGA,015427.457,3235.2287,N,11722.0479,W,3,05,1.3,009.4,M,036.5,M,,*70
$GPGXP,015427,3235.2287,N,11722.0479,W*5D
$GPVTG,067.0,T,053.8,M,005.9,N,011.0,K*4D
$GPGGA,015442.457,3235.2377,N,11722.0212,W,3,05,1.3,011.0,M,036.5,M,,*7B
$GPGXP,015442,3235.2377,N,11722.0212,W*5B
$GPVTG,062.4,T,049.2,M,005.7,N,010.5,K*47
$GPGGA,015457.457,3235.2472,N,11721.9950,W,3,05,1.3,010.5,M,036.5,M,,*7E
$GPGXP,015457,3235.2472,N,11721.9950,W*5A
$GPVTG,057.3,T,044.1,M,005.7,N,010.5,K*48
$GPGGA,015512.457,3235.2584,N,11721.9701,W,3,05,1.3,010.3,M,036.5,M,,*7A
$GPGXP,015512,3235.2584,N,11721.9701,W*58
$GPVTG,061.7,T,048.5,M,005.7,N,010.6,K*42
$GPGGA,015527.457,3235.2696,N,11721.9452,W,3,05,1.3,012.3,M,036.5,M,,*7B
$GPGXP,015527,3235.2696,N,11721.9452,W*5B
$GPVTG,066.5,T,053.3,M,005.5,N,010.2,K*4D
$GPGGA,015542.457,3235.2787,N,11721.9190,W,3,05,1.3,010.7,M,036.5,M,,*74
$GPGXP,015542,3235.2787,N,11721.9190,W*52
$GPVTG,069.3,T,056.1,M,005.7,N,010.6,K*45
$GPGGA,015557.457,3235.2865,N,11721.8915,W,3,05,1.3,009.3,M,036.5,M,,*7B
$GPGXP,015557,3235.2865,N,11721.8915,W*51
$GPVTG,077.4,T,064.2,M,006.0,N,011.1,K*4D
$GPGGA,015612.457,3235.2950,N,11721.8644,W,3,05,1.3,009.3,M,036.5,M,,*75
$GPGXP,015612,3235.2950,N,11721.8644,W*5F
$GPVTG,064.8,T,051.6,M,005.7,N,010.6,K*43
$GPGGA,015627.457,3235.3036,N,11721.8375,W,3,05,1.3,009.3,M,036.5,M,,*7C
$GPGXP,015627,3235.3036,N,11721.8375,W*56
$GPVTG,072.5,T,059.3,M,006.1,N,011.3,K*45
$GPGGA,015642.457,3235.3121,N,11721.8101,W,3,05,1.4,008.9,M,036.5,M,,*75
$GPGXP,015642,3235.3121,N,11721.8101,W*53
$GPVTG,080.4,T,067.2,M,006.0,N,011.1,K*46
$GPGGA,015657.457,3235.3212,N,11721.7831,W,3,05,1.4,010.5,M,036.5,M,,*72
$GPGXP,015657,3235.3212,N,11721.7831,W*51
$GPVTG,076.1,T,062.9,M,006.0,N,011.1,K*44
$GPGGA,015712.457,3235.3297,N,11721.7560,W,3,05,1.4,008.6,M,036.5,M,,*7C
$GPGXP,015712,3235.3297,N,11721.7560,W*55
$GPVTG,074.8,T,061.6,M,006.2,N,011.5,K*45
$GPGGA,015727.457,3235.3385,N,11721.7287,W,3,05,1.4,009.2,M,036.5,M,,*73
$GPGXP,015727,3235.3385,N,11721.7287,W*5F
$GPVTG,067.4,T,054.2,M,006.0,N,011.2,K*4C
$GPGGA,015742.457,3235.3469,N,11721.7010,W,3,05,1.4,009.1,M,036.5,M,,*7A
$GPGXP,015742,3235.3469,N,11721.7010,W*55
$GPVTG,066.1,T,052.9,M,006.0,N,011.1,K*46
$GPGGA,015757.457,3235.3557,N,11721.6738,W,3,05,1.4,008.9,M,036.5,M,,*77
$GPGXP,015757,3235.3557,N,11721.6738,W*51
$GPVTG,062.7,T,049.5,M,005.8,N,010.7,K*4E
$GPGGA,015812.457,3235.3646,N,11721.6466,W,3,05,1.4,009.1,M,036.5,M,,*7B
$GPGXP,015812,3235.3646,N,11721.6466,W*54
$GPVTG,064.6,T,051.5,M,005.7,N,010.6,K*4E
$GPGGA,015827.457,3235.3727,N,11721.6189,W,3,05,1.4,009.0,M,036.5,M,,*7E
$GPGXP,015827,3235.3727,N,11721.6189,W*50
$GPVTG,063.5,T,050.3,M,005.7,N,010.5,K*4E
$GPGGA,015842.457,3235.3818,N,11721.5919,W,3,05,1.4,009.2,M,036.5,M,,*7E
$GPGXP,015842,3235.3818,N,11721.5919,W*52
$GPVTG,058.2,T,045.0,M,005.8,N,010.7,K*4B
$GPGGA,015857.457,3235.3901,N,11721.5647,W,3,05,1.4,008.2,M,036.5,M,,*76
$GPGXP,015857,3235.3901,N,11721.5647,W*5B
$GPVTG,066.5,T,053.3,M,005.9,N,010.9,K*4A
$GPGGA,015912.457,3235.3988,N,11721.5377,W,3,05,1.4,008.8,M,036.5,M,,*7B
$GPGXP,015912,3235.3988,N,11721.5377,W*5C
$GPVTG,062.3,T,049.1,M,005.6,N,010.4,K*43
$GPGGA,015927.457,3235.4068,N,11721.5103,W,3,05,1.4,008.0,M,036.5,M,,*74
$GPGXP,015927,3235.4068,N,11721.5103,W*5B
$GPVTG,068.5,T,055.3,M,005.9,N,010.9,K*42
$GPGGA,015942.457,3235.4152,N,11721.4827,W,3,05,1.4,009.4,M,036.5,M,,*74
$GPGXP,015942,3235.4152,N,11721.4827,W*5E
$GPVTG,068.7,T,055.5,M,005.8,N,010.8,K*46
$GPGGA,015957.457,3235.4237,N,11721.4554,W,3,05,1.4,008.9,M,036.5,M,,*75
$GPGXP,015957,3235.4237,N,11721.4554,W*53
$GPVTG,060.7,T,047.5,M,005.5,N,010.1,K*49
$GPGGA,020012.457,3235.4327,N,11721.4281,W,3,05,1.4,008.8,M,036.5,M,,*75
$GPGXP,020012,3235.4327,N,11721.4281,W*52
$GPVTG,073.9,T,060.7,M,005.6,N,010.4,K*44
$GPGGA,020027.457,3235.4406,N,11721.4011,W,3,05,1.4,008.9,M,036.5,M,,*7D
$GPGXP,020027,3235.4406,N,11721.4011,W*5B
$GPVTG,070.4,T,057.2,M,005.6,N,010.3,K*4C
$GPGGA,020042.457,3235.4493,N,11721.3742,W,3,05,1.4,008.7,M,036.5,M,,*7A
$GPGXP,020042,3235.4493,N,11721.3742,W*52
$GPVTG,067.7,T,054.5,M,005.6,N,010.4,K*4A
$GPGGA,020057.456,3235.4575,N,11721.3473,W,3,05,1.4,008.8,M,036.5,M,,*78
$GPGXP,020057,3235.4575,N,11721.3473,W*5E
$GPVTG,078.7,T,065.5,M,005.7,N,010.6,K*45
$GPGGA,020112.456,3235.4659,N,11721.3209,W,3,05,1.4,009.4,M,036.5,M,,*73
$GPGXP,020112,3235.4659,N,11721.3209,W*58
$GPVTG,063.4,T,050.2,M,005.5,N,010.1,K*48
$GPGGA,020127.456,3235.4744,N,11721.2944,W,3,05,1.4,009.2,M,036.5,M,,*7D
$GPGXP,020127,3235.4744,N,11721.2944,W*50
$GPVTG,074.7,T,061.5,M,006.0,N,011.1,K*4F
$GPGGA,020142.456,3235.4820,N,11721.2677,W,3,05,1.4,009.1,M,036.5,M,,*7F
$GPGXP,020142,3235.4820,N,11721.2677,W*51
$GPVTG,067.7,T,054.5,M,005.7,N,010.6,K*49
$GPGGA,020157.456,3235.4899,N,11721.2415,W,3,05,1.4,009.8,M,036.5,M,,*76
$GPGXP,020157,3235.4899,N,11721.2415,W*51
$GPVTG,065.5,T,052.3,M,006.2,N,011.5,K*4D
$GPGGA,020212.456,3235.4978,N,11721.2151,W,3,05,1.4,008.4,M,036.5,M,,*72
$GPGXP,020212,3235.4978,N,11721.2151,W*58
$GPVTG,075.3,T,062.1,M,005.7,N,010.6,K*4F
$GPGGA,020227.456,3235.5055,N,11721.1888,W,3,05,1.4,009.2,M,036.5,M,,*7A
$GPGXP,020227,3235.5055,N,11721.1888,W*57
$GPVTG,075.8,T,062.6,M,005.8,N,010.7,K*4D
$GPGGA,020242.456,3235.5136,N,11721.1622,W,3,05,1.4,009.0,M,036.5,M,,*71
$GPGXP,020242,3235.5136,N,11721.1622,W*5E
$GPVTG,074.4,T,061.2,M,005.8,N,010.8,K*48
$GPGGA,020257.456,3235.5218,N,11721.1350,W,3,05,1.4,011.6,M,036.5,M,,*75
$GPGXP,020257,3235.5218,N,11721.1350,W*55
$GPVTG,067.6,T,054.4,M,005.7,N,010.5,K*4A
$GPGGA,020312.456,3235.5273,N,11721.1068,W,3,05,1.4,009.1,M,036.5,M,,*7E
$GPGXP,020312,3235.5273,N,11721.1068,W*50
$GPVTG,084.7,T,071.5,M,006.2,N,011.4,K*46
$GPGGA,020327.456,3235.5332,N,11721.0789,W,3,05,1.4,011.3,M,036.5,M,,*7E
$GPGXP,020327,3235.5332,N,11721.0789,W*5B
$GPVTG,087.9,T,074.7,M,006.2,N,011.5,K*4D
$GPGGA,020342.456,3235.5384,N,11721.0503,W,3,05,1.4,009.8,M,036.5,M,,*72
$GPGXP,020342,3235.5384,N,11721.0503,W*55
$GPVTG,067.8,T,054.6,M,005.7,N,010.6,K*45
$GPGGA,020357.456,3235.5457,N,11721.0230,W,3,05,1.4,011.5,M,036.5,M,,*7C
$GPGXP,020357,3235.5457,N,11721.0230,W*5F
$GPVTG,074.2,T,061.0,M,005.8,N,010.8,K*4C
$GPGGA,020412.456,3235.5521,N,11720.9948,W,3,05,1.4,012.1,M,036.5,M,,*71
$GPGXP,020412,3235.5521,N,11720.9948,W*55
$GPVTG,071.2,T,058.0,M,005.6,N,010.3,K*46
$GPGGA,020427.456,3235.5591,N,11720.9676,W,3,05,1.4,012.8,M,036.5,M,,*77
$GPGXP,020427,3235.5591,N,11720.9676,W*5A
$GPVTG,075.0,T,061.8,M,005.7,N,010.6,K*46
$GPGGA,020442.456,3235.5656,N,11720.9391,W,3,05,1.4,010.5,M,036.5,M,,*7F
$GPGXP,020442,3235.5656,N,11720.9391,W*5D
$GPVTG,074.0,T,060.8,M,006.1,N,011.4,K*40
$GPGGA,020457.456,3235.5715,N,11720.9106,W,3,05,1.4,009.0,M,036.5,M,,*7C
$GPGXP,020457,3235.5715,N,11720.9106,W*53
$GPVTG,079.3,T,066.1,M,005.8,N,010.8,K*46
$GPGGA,020512.456,3235.5776,N,11720.8832,W,3,05,1.4,010.4,M,036.5,M,,*7A
$GPGXP,020512,3235.5776,N,11720.8832,W*59
$GPVTG,083.5,T,070.3,M,005.9,N,011.0,K*48
$GPGGA,020527.456,3235.5844,N,11720.8547,W,3,05,1.4,011.6,M,036.5,M,,*7E
$GPGXP,020527,3235.5844,N,11720.8547,W*5E
$GPVTG,074.7,T,061.5,M,005.7,N,010.5,K*4E
$GPGGA,020542.456,3235.5912,N,11720.8274,W,3,05,1.4,011.5,M,036.5,M,,*7B
$GPGXP,020542,3235.5912,N,11720.8274,W*58
$GPVTG,074.7,T,061.5,M,005.9,N,010.9,K*4C
$GPGGA,020557.456,3235.5969,N,11720.7991,W,3,05,1.4,011.6,M,036.5,M,,*7F
$GPGXP,020557,3235.5969,N,11720.7991,W*5F
$GPVTG,080.1,T,066.9,M,005.8,N,010.7,K*45
$GPGGA,020612.456,3235.6008,N,11720.7706,W,3,05,1.4,011.1,M,036.5,M,,*77
$GPGXP,020612,3235.6008,N,11720.7706,W*50
$GPVTG,084.3,T,071.1,M,006.1,N,011.2,K*43
$GPGGA,020627.456,3235.6041,N,11720.7418,W,3,05,1.4,010.2,M,036.5,M,,*72
$GPGXP,020627,3235.6041,N,11720.7418,W*57
$GPVTG,078.1,T,064.9,M,006.0,N,011.0,K*4D
$GPGGA,020642.456,3235.6073,N,11720.7125,W,3,05,1.4,010.7,M,036.5,M,,*7E
$GPGXP,020642,3235.6073,N,11720.7125,W*5E
$GPVTG,081.4,T,068.3,M,006.2,N,011.5,K*4F
$GPGGA,020657.456,3235.6109,N,11720.6830,W,3,05,1.4,010.6,M,036.5,M,,*7B
$GPGXP,020657,3235.6109,N,11720.6830,W*5A
$GPVTG,087.9,T,074.7,M,006.1,N,011.4,K*4F
$GPGGA,020712.456,3235.6139,N,11720.6564,W,3,05,1.4,026.3,M,036.5,M,,*74
$GPGXP,020712,3235.6139,N,11720.6564,W*55
$GPVTG,089.2,T,076.0,M,005.9,N,011.0,K*40
$GPGGA,020727.456,3235.6132,N,11720.6264,W,3,05,1.4,025.7,M,036.5,M,,*79
$GPGXP,020727,3235.6132,N,11720.6264,W*5F
$GPVTG,094.7,T,081.5,M,006.3,N,011.7,K*4A
$GPGGA,020742.456,3235.6101,N,11720.5961,W,3,05,1.4,026.4,M,036.5,M,,*77
$GPGXP,020742,3235.6101,N,11720.5961,W*51
$GPVTG,105.6,T,092.4,M,006.3,N,011.6,K*40
$GPGGA,020757.456,3235.6032,N,11720.5666,W,3,05,1.4,023.6,M,036.5,M,,*7D
$GPGXP,020757,3235.6032,N,11720.5666,W*5C
$GPVTG,106.9,T,093.7,M,006.4,N,011.8,K*47
$GPGGA,020812.456,3235.5968,N,11720.5368,W,3,05,1.4,025.0,M,036.5,M,,*7D
$GPGXP,020812,3235.5968,N,11720.5368,W*5C
$GPVTG,115.4,T,102.2,M,006.5,N,012.0,K*4E
$GPGGA,020827.456,3235.5883,N,11720.5083,W,3,05,1.4,025.7,M,036.5,M,,*7E
$GPGXP,020827,3235.5883,N,11720.5083,W*58
$GPVTG,113.2,T,0100.0,M,006.4,N,011.9,K*75
$GPGGA,020842.456,3235.5776,N,11720.4765,W,3,05,1.4,009.3,M,036.5,M,,*7C
$GPGXP,020842,3235.5776,N,11720.4765,W*50
$GPVTG,119.7,T,106.5,M,006.6,N,012.3,K*42
$GPGGA,020857.456,3235.5677,N,11720.4506,W,3,05,1.4,024.6,M,036.5,M,,*75
$GPGXP,020857,3235.5677,N,11720.4506,W*53
$GPVTG,111.0,T,097.8,M,006.2,N,011.5,K*48
$GPGGA,020912.456,3235.5558,N,11720.4223,W,3,05,1.4,024.6,M,036.5,M,,*7B
$GPGXP,020912,3235.5558,N,11720.4223,W*5D
$GPVTG,114.7,T,101.5,M,006.4,N,011.8,K*42
$GPGGA,020927.456,3235.5432,N,11720.3947,W,3,05,1.4,025.7,M,036.5,M,,*7E
$GPGXP,020927,3235.5432,N,11720.3947,W*58
$GPVTG,118.8,T,105.7,M,006.4,N,011.9,K*46
$GPGGA,020942.456,3235.5306,N,11720.3656,W,3,05,1.4,021.6,M,036.5,M,,*77
$GPGXP,020942,3235.5306,N,11720.3656,W*54
$GPVTG,112.5,T,099.3,M,006.3,N,011.6,K*49
$GPGGA,020957.456,3235.5197,N,11720.3377,W,3,05,1.4,026.3,M,036.5,M,,*7D
$GPGXP,020957,3235.5197,N,11720.3377,W*5C
$GPVTG,109.7,T,096.5,M,006.3,N,011.6,K*48
$GPGGA,021012.456,3235.5104,N,11720.3078,W,3,05,1.4,023.2,M,036.5,M,,*76
$GPGXP,021012,3235.5104,N,11720.3078,W*53
$GPVTG,103.9,T,090.7,M,006.3,N,011.6,K*48
$GPGGA,021027.456,3235.5031,N,11720.2777,W,3,05,1.4,023.3,M,036.5,M,,*7F
$GPGXP,021027,3235.5031,N,11720.2777,W*5B
$GPVTG,104.1,T,090.9,M,006.1,N,011.4,K*49
$GPGGA,021042.456,3235.4956,N,11720.2482,W,3,05,1.4,023.0,M,036.5,M,,*7F
$GPGXP,021042,3235.4956,N,11720.2482,W*58
$GPVTG,106.7,T,093.5,M,006.5,N,012.0,K*41
$GPGGA,021057.456,3235.4895,N,11720.2186,W,3,05,1.4,024.9,M,036.5,M,,*7A
$GPGXP,021057,3235.4895,N,11720.2186,W*53
$GPVTG,106.1,T,092.9,M,006.5,N,012.1,K*4B
$GPGGA,021112.456,3235.4834,N,11720.1886,W,3,05,1.4,025.9,M,036.5,M,,*7A
$GPGXP,021112,3235.4834,N,11720.1886,W*52
$GPVTG,106.2,T,093.0,M,006.4,N,011.8,K*4B
$GPGGA,021127.456,3235.4774,N,11720.1585,W,3,05,1.4,025.2,M,036.5,M,,*72
$GPGXP,021127,3235.4774,N,11720.1585,W*51
$GPVTG,105.0,T,091.8,M,006.3,N,011.6,K*49
$GPGGA,021142.456,3235.4714,N,11720.1282,W,3,05,1.4,025.9,M,036.5,M,,*7C
$GPGXP,021142,3235.4714,N,11720.1282,W*54
$GPVTG,105.6,T,092.4,M,006.5,N,012.0,K*43
$GPGGA,021157.456,3235.4659,N,11720.0979,W,3,05,1.4,026.1,M,036.5,M,,*75
$GPGXP,021157,3235.4659,N,11720.0979,W*56
$GPVTG,104.8,T,091.6,M,006.5,N,012.0,K*4D
$GPGGA,021212.456,3235.4587,N,11720.0669,W,3,05,1.4,024.3,M,036.5,M,,*79
$GPGXP,021212,3235.4587,N,11720.0669,W*5A
$GPVTG,105.9,T,092.7,M,006.0,N,011.2,K*4B
$GPGGA,021227.456,3235.4533,N,11720.0369,W,3,05,1.4,024.9,M,036.5,M,,*7F
$GPGXP,021227,3235.4533,N,11720.0369,W*56
$GPVTG,101.0,T,087.8,M,006.3,N,011.8,K*44
$GPGGA,021242.456,3235.4497,N,11720.0066,W,3,05,1.4,025.3,M,036.5,M,,*74
$GPGXP,021242,3235.4497,N,11720.0066,W*56
$GPVTG,089.7,T,076.5,M,005.9,N,011.0,K*40
$GPGGA,021257.456,3235.4487,N,11719.9768,W,3,05,1.4,025.3,M,036.5,M,,*7B
$GPGXP,021257,3235.4487,N,11719.9768,W*59
$GPVTG,076.3,T,063.1,M,005.7,N,010.5,K*4E
$GPGGA,021312.456,3235.4529,N,11719.9483,W,3,05,1.4,026.1,M,036.5,M,,*79
$GPGXP,021312,3235.4529,N,11719.9483,W*5A
$GPVTG,067.1,T,053.9,M,005.5,N,010.1,K*41
$GPGGA,021327.456,3235.4599,N,11719.9233,W,3,05,1.4,025.9,M,036.5,M,,*72
$GPGXP,021327,3235.4599,N,11719.9233,W*5A
$GPVTG,039.7,T,026.5,M,005.0,N,009.2,K*4C
$GPGGA,021342.456,3235.4718,N,11719.9020,W,3,05,1.4,029.0,M,036.5,M,,*7F
$GPGXP,021342,3235.4718,N,11719.9020,W*52
$GPVTG,037.4,T,024.2,M,004.9,N,009.2,K*4C
$GPGGA,021357.456,3235.4854,N,11719.8835,W,3,05,1.4,027.6,M,036.5,M,,*79
$GPGXP,021357,3235.4854,N,11719.8835,W*5C
$GPVTG,033.5,T,020.3,M,004.6,N,008.5,K*45
$GPGGA,021412.456,3235.4968,N,11719.8657,W,3,05,1.4,021.1,M,036.5,M,,*7A
$GPGXP,021412,3235.4968,N,11719.8657,W*5E
$GPVTG,048.2,T,035.0,M,005.3,N,009.9,K*40
$GPGGA,021427.456,3235.5164,N,11719.8551,W,3,05,1.4,028.7,M,036.4,M,,*72
$GPGXP,021427,3235.5164,N,11719.8551,W*58
$GPVTG,036.5,T,023.3,M,004.5,N,008.3,K*46
$GPGGA,021442.456,3235.5346,N,11719.8474,W,3,05,1.4,031.5,M,036.4,M,,*7F
$GPGXP,021442,3235.5346,N,11719.8474,W*5F
$GPVTG,354.0,T,340.8,M,004.8,N,008.9,K*4E
$GPGGA,021457.456,3235.5513,N,11719.8392,W,3,05,1.4,022.3,M,036.4,M,,*76
$GPGXP,021457,3235.5513,N,11719.8392,W*52
$GPVTG,352.6,T,339.4,M,004.2,N,007.8,K*48
$GPGGA,021512.456,3235.5706,N,11719.8352,W,3,05,1.4,025.4,M,036.4,M,,*7C
$GPGXP,021512,3235.5706,N,11719.8352,W*58
$GPVTG,346.9,T,333.7,M,006.5,N,012.0,K*42
$GPGGA,021527.456,3235.5910,N,11719.8312,W,3,05,1.4,023.4,M,036.4,M,,*71
$GPGXP,021527,3235.5910,N,11719.8312,W*53
$GPVTG,000.9,T,347.8,M,004.9,N,009.0,K*4B
$GPGGA,021542.456,3235.6041,N,11719.8224,W,3,05,1.7,007.3,M,036.4,M,,*7A
$GPGXP,021542,3235.6041,N,11719.8224,W*5A
$GPVTG,029.5,T,016.3,M,004.8,N,008.9,K*49
$GPGGA,021557.456,3235.6285,N,11719.8194,W,3,05,1.4,027.4,M,036.4,M,,*7A
$GPGXP,021557,3235.6285,N,11719.8194,W*5C
$GPVTG,041.8,T,028.6,M,005.6,N,010.4,K*49
$GPGGA,021612.456,3235.6472,N,11719.8106,W,3,05,1.4,027.3,M,036.4,M,,*7A
$GPGXP,021612,3235.6472,N,11719.8106,W*5B
$GPVTG,036.1,T,022.9,M,005.3,N,009.7,K*4B
$GPGGA,021627.456,3235.6653,N,11719.8003,W,3,05,1.4,029.8,M,036.4,M,,*7C
$GPGXP,021627,3235.6653,N,11719.8003,W*58
$GPVTG,032.4,T,019.2,M,006.0,N,011.2,K*45
$GPGGA,021642.456,3235.6804,N,11719.7852,W,3,05,1.4,021.7,M,036.4,M,,*77
$GPGXP,021642,3235.6804,N,11719.7852,W*54
$GPVTG,015.7,T,002.5,M,005.6,N,010.3,K*4B
$GPGGA,021657.456,3235.7015,N,11719.7744,W,3,05,1.4,026.8,M,036.4,M,,*7A
$GPGXP,021657,3235.7015,N,11719.7744,W*51
$GPVTG,024.8,T,011.7,M,005.3,N,009.8,K*40
$GPGGA,021712.456,3235.7194,N,11719.7597,W,3,05,1.4,028.2,M,036.4,M,,*7A
$GPGXP,021712,3235.7194,N,11719.7597,W*55
$GPVTG,061.9,T,048.7,M,005.8,N,010.8,K*4F
$GPGGA,021727.456,3235.7353,N,11719.7425,W,3,05,1.4,029.6,M,036.4,M,,*78
$GPGXP,021727,3235.7353,N,11719.7425,W*52
$GPVTG,050.9,T,037.7,M,005.3,N,009.8,K*46
$GPGGA,021742.456,3235.7509,N,11719.7247,W,3,05,1.4,030.4,M,036.4,M,,*7A
$GPGXP,021742,3235.7509,N,11719.7247,W*5A
$GPVTG,029.1,T,016.0,M,005.4,N,0010.0,K*73
$GPGGA,021757.456,3235.7656,N,11719.7047,W,3,05,1.4,026.3,M,036.4,M,,*75
$GPGXP,021757,3235.7656,N,11719.7047,W*55
$GPVTG,031.6,T,018.4,M,005.0,N,009.3,K*48
$GPGGA,021812.456,3235.7814,N,11719.6870,W,3,05,1.4,030.8,M,036.4,M,,*72
$GPGXP,021812,3235.7814,N,11719.6870,W*5E
$GPVTG,042.5,T,029.3,M,005.0,N,009.2,K*4B
$GPGGA,021827.456,3235.7958,N,11719.6699,W,3,05,1.4,026.0,M,036.4,M,,*7B
$GPGXP,021827,3235.7958,N,11719.6699,W*58
$GPVTG,017.9,T,004.7,M,004.5,N,008.3,K*48
$GPGGA,021842.456,3235.8138,N,11719.6604,W,3,05,1.4,028.9,M,036.4,M,,*7A
$GPGXP,021842,3235.8138,N,11719.6604,W*5E
$GPVTG,357.1,T,343.9,M,004.8,N,008.8,K*4F
$GPGGA,021857.456,3235.8322,N,11719.6551,W,3,05,1.4,027.2,M,036.4,M,,*70
$GPGXP,021857,3235.8322,N,11719.6551,W*50
$GPVTG,350.3,T,337.1,M,003.8,N,007.1,K*40
$GPGGA,021912.456,3235.8488,N,11719.6530,W,3,05,1.4,022.3,M,036.4,M,,*74
$GPGXP,021912,3235.8488,N,11719.6530,W*50
$GPVTG,353.5,T,340.3,M,004.0,N,007.4,K*4D
$GPGGA,021927.456,3235.8670,N,11719.6549,W,3,05,1.4,025.0,M,036.4,M,,*7D
$GPGXP,021927,3235.8670,N,11719.6549,W*5D
$GPVTG,356.8,T,343.6,M,004.4,N,008.2,K*4E
$GPGGA,021942.456,3235.8860,N,11719.6557,W,3,05,1.4,028.7,M,036.4,M,,*74
$GPGXP,021942,3235.8860,N,11719.6557,W*5E
$GPVTG,021.2,T,008.0,M,004.9,N,009.1,K*42
$GPGGA,021957.456,3235.9055,N,11719.6540,W,3,05,1.4,029.2,M,036.4,M,,*7D
$GPGXP,021957,3235.9055,N,11719.6540,W*53
$GPVTG,002.3,T,349.1,M,004.7,N,008.7,K*4C
$GPGGA,022012.456,3235.9242,N,11719.6504,W,3,05,1.4,025.3,M,036.4,M,,*7F
$GPGXP,022012,3235.9242,N,11719.6504,W*5C
$GPVTG,028.3,T,015.1,M,004.5,N,008.3,K*48
$GPGGA,022027.456,3235.9435,N,11719.6431,W,3,05,1.4,027.9,M,036.4,M,,*70
$GPGXP,022027,3235.9435,N,11719.6431,W*5B
$GPVTG,049.2,T,036.0,M,005.4,N,010.0,K*44
$GPGGA,022042.456,3235.9616,N,11719.6330,W,3,05,1.4,031.9,M,036.4,M,,*71
$GPGXP,022042,3235.9616,N,11719.6330,W*5D
$GPVTG,027.1,T,013.9,M,004.8,N,008.8,K*4D
$GPGGA,022057.456,3235.9790,N,11719.6209,W,3,05,1.4,027.7,M,036.4,M,,*78
$GPGXP,022057,3235.9790,N,11719.6209,W*5D
$GPVTG,021.9,T,008.7,M,004.7,N,008.7,K*47
$GPGGA,022112.456,3235.9975,N,11719.6105,W,3,05,1.4,028.5,M,036.4,M,,*7F
$GPGXP,022112,3235.9975,N,11719.6105,W*57
$GPVTG,024.4,T,011.3,M,005.1,N,009.4,K*46
$GPGGA,022127.456,3236.0170,N,11719.6036,W,3,05,1.4,039.7,M,036.4,M,,*7D
$GPGXP,022127,3236.0170,N,11719.6036,W*57
$GPVTG,001.6,T,348.4,M,004.8,N,008.8,K*4E
$GPGGA,022142.456,3236.0354,N,11719.5980,W,3,05,1.5,041.4,M,036.4,M,,*70
$GPGXP,022142,3236.0354,N,11719.5980,W*57
$GPVTG,015.9,T,002.7,M,004.5,N,008.3,K*4C
$GPGGA,022157.456,3236.0540,N,11719.5937,W,3,05,1.5,041.8,M,036.4,M,,*77
$GPGXP,022157,3236.0540,N,11719.5937,W*5C
$GPVTG,012.3,T,359.1,M,004.7,N,008.7,K*4C
$GPGGA,022212.456,3236.0749,N,11719.5894,W,3,05,1.5,042.7,M,036.4,M,,*7A
$GPGXP,022212,3236.0749,N,11719.5894,W*5D
$GPVTG,0010.0,T,356.8,M,004.7,N,008.8,K*74
$GPGGA,022227.456,3236.0927,N,11719.5802,W,3,05,1.5,039.5,M,036.4,M,,*7B
$GPGXP,022227,3236.0927,N,11719.5802,W*52
$GPVTG,044.1,T,030.9,M,005.1,N,009.4,K*4C
$GPGGA,022242.456,3236.1101,N,11719.5675,W,3,05,1.5,038.2,M,036.4,M,,*7D
$GPGXP,022242,3236.1101,N,11719.5675,W*52
$GPVTG,024.5,T,011.3,M,004.5,N,008.3,K*44
$GPGGA,022257.456,3236.1288,N,11719.5571,W,3,05,1.5,038.5,M,036.4,M,,*7B
$GPGXP,022257,3236.1288,N,11719.5571,W*53
$GPVTG,007.6,T,354.4,M,004.3,N,008.0,K*46
$GPGGA,022312.456,3236.1476,N,11719.5479,W,3,05,1.5,040.2,M,036.4,M,,*7D
$GPGXP,022312,3236.1476,N,11719.5479,W*5D
$GPVTG,022.9,T,009.7,M,005.0,N,009.2,K*47
$GPGGA,022327.456,3236.1667,N,11719.5402,W,3,05,1.5,040.6,M,036.4,M,,*71
$GPGXP,022327,3236.1667,N,11719.5402,W*55
$GPVTG,023.9,T,010.7,M,004.9,N,009.1,K*45
$GPGGA,022342.456,3236.1864,N,11719.5343,W,3,05,1.5,043.8,M,036.4,M,,*70
$GPGXP,022342,3236.1864,N,11719.5343,W*59
$GPVTG,022.0,T,008.8,M,005.1,N,009.4,K*47
$GPGGA,022357.456,3236.2051,N,11719.5269,W,3,05,1.5,040.9,M,036.4,M,,*72
$GPGXP,022357,3236.2051,N,11719.5269,W*59
$GPVTG,023.2,T,010.0,M,005.2,N,009.7,K*45
$GPGGA,022412.455,3236.2240,N,11719.5193,W,3,05,1.5,041.7,M,036.4,M,,*7C
$GPGXP,022412,3236.2240,N,11719.5193,W*5B
$GPVTG,027.5,T,014.4,M,005.0,N,009.3,K*40
$GPGGA,022427.455,3236.2430,N,11719.5102,W,3,05,1.5,041.2,M,036.4,M,,*76
$GPGXP,022427,3236.2430,N,11719.5102,W*54
$GPVTG,028.2,T,015.0,M,004.9,N,009.1,K*47
$GPGGA,022442.455,3236.2617,N,11719.5014,W,3,05,1.5,040.2,M,036.4,M,,*75
$GPGXP,022442,3236.2617,N,11719.5014,W*56
$GPVTG,021.9,T,008.7,M,004.8,N,008.9,K*46
$GPGGA,022457.455,3236.2812,N,11719.4930,W,3,05,1.5,041.0,M,036.4,M,,*77
$GPGXP,022457,3236.2812,N,11719.4930,W*57
$GPVTG,034.3,T,021.1,M,005.1,N,009.4,K*41
$GPGGA,022512.455,3236.3000,N,11719.4837,W,3,05,1.5,041.4,M,036.4,M,,*7F
$GPGXP,022512,3236.3000,N,11719.4837,W*5B
$GPVTG,036.9,T,023.7,M,005.5,N,010.1,K*44
$GPGGA,022527.455,3236.3192,N,11719.4742,W,3,05,1.5,041.5,M,036.4,M,,*7F
$GPGXP,022527,3236.3192,N,11719.4742,W*5A
$GPVTG,009.5,T,356.3,M,005.2,N,009.7,K*48
$GPGGA,022542.455,3236.3380,N,11719.4665,W,3,05,1.5,042.3,M,036.4,M,,*7C
$GPGXP,022542,3236.3380,N,11719.4665,W*5C
$GPVTG,018.0,T,004.8,M,004.8,N,008.9,K*46
$GPGGA,022557.455,3236.3560,N,11719.4580,W,3,05,1.5,042.3,M,036.4,M,,*78
$GPGXP,022557,3236.3560,N,11719.4580,W*58
$GPVTG,041.7,T,028.5,M,005.3,N,009.7,K*4B
$GPGGA,022612.455,3236.3737,N,11719.4490,W,3,05,1.5,042.6,M,036.4,M,,*7F
$GPGXP,022612,3236.3737,N,11719.4490,W*5A
$GPVTG,029.9,T,016.7,M,004.6,N,008.6,K*40
$GPGGA,022627.455,3236.3918,N,11719.4417,W,3,05,1.5,042.9,M,036.4,M,,*7A
$GPGXP,022627,3236.3918,N,11719.4417,W*50
$GPVTG,023.9,T,010.7,M,005.0,N,009.2,K*4E
$GPGGA,022642.455,3236.4102,N,11719.4337,W,3,05,1.5,043.1,M,036.4,M,,*71
$GPGXP,022642,3236.4102,N,11719.4337,W*52
$GPVTG,011.2,T,358.0,M,004.9,N,009.0,K*46
$GPGGA,022657.455,3236.4288,N,11719.4257,W,3,05,1.5,043.1,M,036.4,M,,*73
$GPGXP,022657,3236.4288,N,11719.4257,W*50
$GPVTG,004.8,T,351.6,M,005.0,N,009.2,K*4D
$GPGGA,022712.455,3236.4471,N,11719.4166,W,3,05,1.5,041.2,M,036.4,M,,*73
$GPGXP,022712,3236.4471,N,11719.4166,W*51
$GPVTG,005.1,T,351.9,M,004.6,N,008.6,K*48
$GPGGA,022727.455,3236.4655,N,11719.4074,W,3,05,1.5,042.2,M,036.4,M,,*70
$GPGXP,022727,3236.4655,N,11719.4074,W*51
$GPVTG,029.7,T,016.5,M,004.5,N,008.4,K*4D
$GPGGA,022742.455,3236.4838,N,11719.3980,W,3,05,1.5,042.6,M,036.4,M,,*77
$GPGXP,022742,3236.4838,N,11719.3980,W*52
$GPVTG,040.1,T,026.9,M,005.5,N,010.2,K*45
$GPGGA,022757.455,3236.5022,N,11719.3889,W,3,05,1.5,042.8,M,036.4,M,,*77
$GPGXP,022757,3236.5022,N,11719.3889,W*5C
$GPVTG,005.3,T,352.1,M,004.6,N,008.5,K*42
$GPGGA,022812.455,3236.5206,N,11719.3804,W,3,05,1.5,042.3,M,036.4,M,,*73
$GPGXP,022812,3236.5206,N,11719.3804,W*53
$GPVTG,029.9,T,016.7,M,005.2,N,009.6,K*44
$GPGGA,022827.455,3236.5387,N,11719.3705,W,3,05,1.5,042.1,M,036.4,M,,*71
$GPGXP,022827,3236.5387,N,11719.3705,W*53
$GPVTG,028.5,T,015.3,M,005.2,N,009.6,K*4E
$GPGGA,022842.455,3236.5570,N,11719.3607,W,3,05,1.5,041.8,M,036.4,M,,*75
$GPGXP,022842,3236.5570,N,11719.3607,W*5D
$GPVTG,038.4,T,025.2,M,004.9,N,009.1,K*41
$GPGGA,022857.455,3236.5751,N,11719.3509,W,3,05,1.5,042.4,M,036.4,M,,*72
$GPGXP,022857,3236.5751,N,11719.3509,W*55
$GPVTG,014.3,T,001.1,M,004.5,N,008.4,K*45
$GPGGA,022912.455,3236.5935,N,11719.3421,W,3,05,1.5,043.4,M,036.4,M,,*74
$GPGXP,022912,3236.5935,N,11719.3421,W*52
$GPVTG,008.1,T,354.9,M,004.5,N,008.4,K*41
$GPGGA,022927.455,3236.6118,N,11719.3332,W,3,05,1.5,042.2,M,036.4,M,,*74
$GPGXP,022927,3236.6118,N,11719.3332,W*55
$GPVTG,021.0,T,007.8,M,004.9,N,009.2,K*44
$GPGGA,022942.455,3236.6297,N,11719.3235,W,3,05,1.5,042.1,M,036.4,M,,*76
$GPGXP,022942,3236.6297,N,11719.3235,W*54
$GPVTG,018.5,T,005.3,M,005.3,N,009.8,K*43
$GPGGA,022957.455,3236.6476,N,11719.3136,W,3,05,1.5,040.7,M,036.4,M,,*7F
$GPGXP,022957,3236.6476,N,11719.3136,W*59
$GPVTG,036.9,T,023.7,M,004.7,N,008.6,K*49
$GPGGA,023012.455,3236.6652,N,11719.3031,W,3,05,1.5,041.8,M,036.4,M,,*7A
$GPGXP,023012,3236.6652,N,11719.3031,W*52
$GPVTG,031.5,T,018.3,M,004.7,N,008.7,K*4F
$GPGGA,023027.455,3236.6831,N,11719.2928,W,3,05,1.5,041.7,M,036.4,M,,*78
$GPGXP,023027,3236.6831,N,11719.2928,W*5F
$GPVTG,021.0,T,007.8,M,004.5,N,008.4,K*4F
$GPGGA,023042.455,3236.7005,N,11719.2828,W,3,05,1.5,041.1,M,036.4,M,,*72
$GPGXP,023042,3236.7005,N,11719.2828,W*53
$GPVTG,029.2,T,016.0,M,005.4,N,009.9,K*41
$GPGGA,023057.455,3236.7186,N,11719.2721,W,3,05,1.5,041.3,M,036.4,M,,*78
$GPGXP,023057,3236.7186,N,11719.2721,W*5B
$GPVTG,032.9,T,019.7,M,005.1,N,009.4,K*40
$GPGGA,023112.455,3236.7364,N,11719.2616,W,3,05,1.5,040.7,M,036.4,M,,*76
$GPGXP,023112,3236.7364,N,11719.2616,W*50
$GPVTG,027.0,T,013.8,M,004.8,N,009.0,K*44
$GPGGA,023127.455,3236.7547,N,11719.2510,W,3,05,1.5,042.7,M,036.4,M,,*70
$GPGXP,023127,3236.7547,N,11719.2510,W*54
$GPVTG,033.3,T,020.1,M,004.9,N,009.0,K*4A
$GPGGA,023142.455,3236.7728,N,11719.2407,W,3,05,1.5,042.2,M,036.4,M,,*7A
$GPGXP,023142,3236.7728,N,11719.2407,W*5B
$GPVTG,041.0,T,027.8,M,005.2,N,009.6,K*4E
$GPGGA,023157.455,3236.7908,N,11719.2298,W,3,05,1.5,042.2,M,036.4,M,,*72
$GPGXP,023157,3236.7908,N,11719.2298,W*53
$GPVTG,047.3,T,034.1,M,004.8,N,008.9,K*45
$GPGGA,023212.455,3236.8091,N,11719.2195,W,3,05,1.5,042.7,M,036.4,M,,*7D
$GPGXP,023212,3236.8091,N,11719.2195,W*59
$GPVTG,036.1,T,022.9,M,004.8,N,008.9,K*4E
$GPGGA,023227.455,3236.8275,N,11719.2092,W,3,05,1.5,043.4,M,036.4,M,,*77
$GPGXP,023227,3236.8275,N,11719.2092,W*51
$GPVTG,027.5,T,014.3,M,005.0,N,009.2,K*46
$GPGGA,023242.455,3236.8457,N,11719.1992,W,3,05,1.5,041.3,M,036.4,M,,*7D
$GPGXP,023242,3236.8457,N,11719.1992,W*5E
$GPVTG,037.2,T,024.0,M,005.0,N,009.2,K*40
$GPGGA,023257.455,3236.8636,N,11719.1888,W,3,05,1.5,041.8,M,036.4,M,,*7D
$GPGXP,023257,3236.8636,N,11719.1888,W*55
$GPVTG,037.5,T,024.3,M,004.4,N,008.1,K*43
$GPGGA,023312.455,3236.8817,N,11719.1789,W,3,05,1.5,041.4,M,036.4,M,,*72
$GPGXP,023312,3236.8817,N,11719.1789,W*56
$GPVTG,032.9,T,019.7,M,004.2,N,007.8,K*40
$GPGGA,023327.455,3236.8995,N,11719.1687,W,3,05,1.5,041.6,M,036.4,M,,*72
$GPGXP,023327,3236.8995,N,11719.1687,W*54
$GPVTG,018.1,T,004.9,M,004.7,N,008.7,K*47
$GPGGA,023342.455,3236.9177,N,11719.1592,W,3,05,1.5,041.7,M,036.4,M,,*72
$GPGXP,023342,3236.9177,N,11719.1592,W*55
$GPVTG,013.6,T,000.4,M,005.0,N,009.2,K*40
$GPGGA,023357.455,3236.9357,N,11719.1500,W,3,05,1.6,042.3,M,036.4,M,,*79
$GPGXP,023357,3236.9357,N,11719.1500,W*5A
$GPVTG,019.8,T,006.6,M,005.0,N,009.2,K*40
$GPGGA,023412.455,3236.9527,N,11719.1394,W,3,05,1.5,028.3,M,036.4,M,,*7A
$GPGXP,023412,3236.9527,N,11719.1394,W*56
$GPVTG,018.9,T,005.8,M,004.0,N,007.4,K*44
$GPGGA,023427.455,3236.9707,N,11719.1297,W,3,05,1.5,030.8,M,036.4,M,,*7C
$GPGXP,023427,3236.9707,N,11719.1297,W*52
$GPVTG,017.4,T,004.2,M,004.9,N,009.0,K*4E
$GPGGA,023442.455,3236.9892,N,11719.1190,W,3,05,1.5,029.0,M,036.4,M,,*78
$GPGXP,023442,3236.9892,N,11719.1190,W*56
$GPVTG,010.1,T,356.9,M,004.8,N,008.9,K*4A
$GPGGA,023457.455,3237.0069,N,11719.1092,W,3,05,1.5,025.3,M,036.4,M,,*74
$GPGXP,023457,3237.0069,N,11719.1092,W*55
$GPVTG,031.5,T,018.3,M,004.7,N,008.6,K*4E
$GPGGA,023512.455,3237.0250,N,11719.0991,W,3,05,1.5,026.8,M,036.4,M,,*7F
$GPGXP,023512,3237.0250,N,11719.0991,W*56
$GPVTG,007.0,T,353.8,M,005.0,N,009.3,K*4B
$GPGGA,023527.455,3237.0436,N,11719.0902,W,3,05,1.5,027.4,M,036.4,M,,*78
$GPGXP,023527,3237.0436,N,11719.0902,W*5C
$GPVTG,358.4,T,345.2,M,005.2,N,009.6,K*4C
$GPGGA,023542.455,3237.0618,N,11719.0800,W,3,05,1.5,028.8,M,036.4,M,,*75
$GPGXP,023542,3237.0618,N,11719.0800,W*52
$GPVTG,018.9,T,005.7,M,005.2,N,009.6,K*44
$GPGGA,023557.455,3237.0800,N,11719.0692,W,3,05,1.5,032.3,M,036.4,M,,*73
$GPGXP,023557,3237.0800,N,11719.0692,W*54
$GPVTG,031.8,T,018.6,M,004.8,N,008.9,K*46
$GPGGA,023612.455,3237.0988,N,11719.0590,W,3,05,1.5,026.8,M,036.4,M,,*7F
$GPGXP,023612,3237.0988,N,11719.0590,W*56
$GPVTG,025.0,T,011.8,M,005.3,N,009.9,K*47
$GPGGA,023627.455,3237.1173,N,11719.0484,W,3,05,1.5,025.7,M,036.4,M,,*7C
$GPGXP,023627,3237.1173,N,11719.0484,W*59
$GPVTG,018.0,T,004.8,M,005.1,N,009.4,K*42
$GPGGA,023642.455,3237.1363,N,11719.0386,W,3,05,1.5,026.6,M,036.4,M,,*7B
$GPGXP,023642,3237.1363,N,11719.0386,W*5C
$GPVTG,040.9,T,027.7,M,005.4,N,009.9,K*40
$GPGGA,023657.455,3237.1552,N,11719.0278,W,3,05,1.5,026.8,M,036.4,M,,*75
$GPGXP,023657,3237.1552,N,11719.0278,W*5C
$GPVTG,022.6,T,009.4,M,004.9,N,009.1,K*40
$GPGGA,023712.455,3237.1741,N,11719.0181,W,3,05,1.5,024.6,M,036.4,M,,*7C
$GPGXP,023712,3237.1741,N,11719.0181,W*59
$GPVTG,004.8,T,351.6,M,005.2,N,009.7,K*4A
$GPGGA,023727.455,3237.1932,N,11719.0086,W,3,05,1.5,024.3,M,036.4,M,,*73
$GPGXP,023727,3237.1932,N,11719.0086,W*53
$GPVTG,041.1,T,027.9,M,005.4,N,0010.0,K*76
$GPGGA,023742.455,3237.2120,N,11718.9984,W,3,05,1.5,024.5,M,036.4,M,,*7D
$GPGXP,023742,3237.2120,N,11718.9984,W*5B
$GPVTG,030.4,T,017.2,M,005.7,N,010.6,K*48
$GPGGA,023757.455,3237.2317,N,11718.9900,W,3,05,1.5,027.4,M,036.4,M,,*71
$GPGXP,023757,3237.2317,N,11718.9900,W*55
$GPVTG,021.5,T,008.3,M,005.2,N,009.7,K*4A
$GPGGA,023812.455,3237.2504,N,11718.9804,W,3,05,1.5,024.0,M,036.4,M,,*79
$GPGXP,023812,3237.2504,N,11718.9804,W*5A
$GPVTG,017.3,T,004.1,M,005.3,N,009.7,K*46
$GPGGA,023827.455,3237.2697,N,11718.9706,W,3,05,1.5,025.2,M,036.4,M,,*78
$GPGXP,023827,3237.2697,N,11718.9706,W*58
$GPVTG,028.6,T,015.4,M,005.4,N,0010.0,K*72
$GPGGA,023842.455,3237.2889,N,11718.9601,W,3,05,1.6,026.7,M,036.4,M,,*79
$GPGXP,023842,3237.2889,N,11718.9601,W*5C
$GPVTG,023.1,T,009.9,M,004.7,N,008.8,K*4D
$GPGGA,023857.455,3237.3078,N,11718.9497,W,3,05,1.6,023.7,M,036.4,M,,*72
$GPGXP,023857,3237.3078,N,11718.9497,W*52
$GPVTG,034.8,T,021.6,M,004.9,N,009.1,K*41
$GPGGA,023912.455,3237.3267,N,11718.9399,W,3,05,1.6,022.8,M,036.4,M,,*79
$GPGXP,023912,3237.3267,N,11718.9399,W*57
$GPVTG,021.0,T,007.8,M,004.6,N,008.5,K*4D
$GPGGA,023927.455,3237.3455,N,11718.9300,W,3,05,1.6,024.5,M,036.4,M,,*73
$GPGXP,023927,3237.3455,N,11718.9300,W*56
$GPVTG,019.6,T,006.4,M,004.7,N,008.8,K*41
$GPGGA,023942.455,3237.3648,N,11718.9211,W,3,05,1.6,023.5,M,036.4,M,,*78
$GPGXP,023942,3237.3648,N,11718.9211,W*5A
$GPVTG,014.2,T,001.0,M,004.8,N,008.9,K*45
$GPGGA,023957.455,3237.3843,N,11718.9110,W,3,05,1.6,024.3,M,036.4,M,,*7A
$GPGXP,023957,3237.3843,N,11718.9110,W*59
$GPVTG,030.5,T,017.3,M,005.3,N,009.7,K*45
$GPGGA,024012.455,3237.4031,N,11718.9006,W,3,05,1.6,024.8,M,036.4,M,,*72
$GPGXP,024012,3237.4031,N,11718.9006,W*5A
$GPVTG,034.4,T,021.2,M,005.2,N,009.6,K*44
$GPGGA,024027.455,3237.4222,N,11718.8900,W,3,05,1.6,023.9,M,036.4,M,,*7C
$GPGXP,024027,3237.4222,N,11718.8900,W*52
$GPVTG,009.5,T,356.3,M,004.9,N,009.1,K*44
$GPGGA,024042.455,3237.4410,N,11718.8797,W,3,05,1.6,024.7,M,036.4,M,,*71
$GPGXP,024042,3237.4410,N,11718.8797,W*56
$GPVTG,022.8,T,009.6,M,005.2,N,009.7,K*40
$GPGGA,024057.455,3237.4605,N,11718.8698,W,3,05,1.6,022.9,M,036.4,M,,*75
$GPGXP,024057,3237.4605,N,11718.8698,W*5A
$GPVTG,025.5,T,012.3,M,004.9,N,009.1,K*49
$GPGGA,024112.455,3237.4794,N,11718.8619,W,3,05,1.6,024.3,M,036.4,M,,*79
$GPGXP,024112,3237.4794,N,11718.8619,W*5A
$GPVTG,023.8,T,010.6,M,004.8,N,008.9,K*4D
$GPGGA,024127.455,3237.4987,N,11718.8537,W,3,05,1.6,023.3,M,036.4,M,,*7B
$GPGXP,024127,3237.4987,N,11718.8537,W*5F
$GPVTG,003.5,T,350.3,M,004.9,N,009.1,K*48
$GPGGA,024142.455,3237.5179,N,11718.8461,W,3,05,1.6,025.6,M,036.4,M,,*71
$GPGXP,024142,3237.5179,N,11718.8461,W*56
$GPVTG,017.9,T,004.7,M,005.0,N,009.3,K*4D
$GPGGA,024157.455,3237.5377,N,11718.8379,W,3,05,1.6,020.8,M,036.4,M,,*7C
$GPGXP,024157,3237.5377,N,11718.8379,W*50
$GPVTG,014.1,T,000.9,M,004.8,N,008.9,K*4E
$GPGGA,024212.455,3237.5572,N,11718.8304,W,3,05,1.6,020.7,M,036.3,M,,*7F
$GPGXP,024212,3237.5572,N,11718.8304,W*5B
$GPVTG,348.9,T,335.7,M,005.0,N,009.2,K*44
$GPGGA,024227.455,3237.5764,N,11718.8232,W,3,05,1.6,019.7,M,036.3,M,,*72
$GPGXP,024227,3237.5764,N,11718.8232,W*5C
$GPVTG,019.5,T,006.3,M,004.9,N,009.0,K*42
$GPGGA,024242.455,3237.5958,N,11718.8147,W,3,05,1.6,021.9,M,036.3,M,,*74
$GPGXP,024242,3237.5958,N,11718.8147,W*5F
$GPVTG,026.7,T,013.5,M,005.0,N,009.3,K*45
$GPGGA,024257.455,3237.6153,N,11718.8073,W,3,05,1.6,022.1,M,036.3,M,,*7D
$GPGXP,024257,3237.6153,N,11718.8073,W*5D
$GPVTG,019.0,T,005.8,M,005.0,N,009.3,K*44
$GPGGA,024312.455,3237.6351,N,11718.7993,W,3,05,1.6,022.3,M,036.3,M,,*77
$GPGXP,024312,3237.6351,N,11718.7993,W*55
$GPVTG,044.6,T,031.4,M,005.3,N,009.8,K*49
$GPGGA,024327.455,3237.6540,N,11718.7909,W,3,05,1.6,021.6,M,036.3,M,,*72
$GPGXP,024327,3237.6540,N,11718.7909,W*56
$GPVTG,018.7,T,005.5,M,005.0,N,009.3,K*4F
$GPGGA,024342.455,3237.6736,N,11718.7832,W,3,05,1.6,020.4,M,036.3,M,,*78
$GPGXP,024342,3237.6736,N,11718.7832,W*5F
$GPVTG,006.7,T,353.5,M,005.0,N,009.2,K*41
$GPGGA,024357.455,3237.6932,N,11718.7761,W,3,05,1.6,021.9,M,036.3,M,,*73
$GPGXP,024357,3237.6932,N,11718.7761,W*58
$GPVTG,351.6,T,338.4,M,005.1,N,009.4,K*4A
$GPGGA,024412.455,3237.7126,N,11718.7684,W,3,05,1.6,021.1,M,036.3,M,,*7B
$GPGXP,024412,3237.7126,N,11718.7684,W*58
$GPVTG,016.0,T,002.8,M,004.9,N,009.1,K*46
$GPGGA,024427.455,3237.7318,N,11718.7606,W,3,05,1.6,023.1,M,036.3,M,,*7A
$GPGXP,024427,3237.7318,N,11718.7606,W*5B
$GPVTG,019.8,T,006.6,M,005.3,N,009.8,K*49
$GPGGA,024442.455,3237.7515,N,11718.7531,W,3,05,1.6,021.2,M,036.3,M,,*74
$GPGXP,024442,3237.7515,N,11718.7531,W*54
$GPVTG,023.0,T,009.9,M,005.3,N,009.8,K*48
$GPGGA,024457.455,3237.7710,N,11718.7455,W,3,05,1.6,019.7,M,036.3,M,,*7A
$GPGXP,024457,3237.7710,N,11718.7455,W*54
$GPVTG,030.4,T,017.2,M,004.8,N,009.0,K*48
$GPGGA,024512.455,3237.7902,N,11718.7384,W,3,05,1.6,019.4,M,036.3,M,,*7F
$GPGXP,024512,3237.7902,N,11718.7384,W*52
$GPVTG,005.3,T,352.1,M,004.8,N,008.9,K*40
$GPGGA,024527.455,3237.8098,N,11718.7309,W,3,05,1.6,019.8,M,036.3,M,,*75
$GPGXP,024527,3237.8098,N,11718.7309,W*54
$GPVTG,012.2,T,359.0,M,004.7,N,008.8,K*43
$GPGGA,024542.455,3237.8293,N,11718.7224,W,3,05,1.6,021.5,M,036.3,M,,*77
$GPGXP,024542,3237.8293,N,11718.7224,W*50
$GPVTG,022.9,T,009.7,M,005.2,N,009.7,K*40
$GPGGA,024557.455,3237.8483,N,11718.7142,W,3,05,1.6,019.0,M,036.3,M,,*79
$GPGXP,024557,3237.8483,N,11718.7142,W*50
$GPVTG,012.0,T,358.8,M,004.8,N,008.9,K*46
$GPGGA,024612.455,3237.8676,N,11718.7058,W,3,05,1.6,018.5,M,036.3,M,,*7D
$GPGXP,024612,3237.8676,N,11718.7058,W*50
$GPVTG,016.9,T,003.7,M,005.1,N,009.4,K*4D
$GPGGA,024627.455,3237.8870,N,11718.6973,W,3,05,1.6,018.2,M,036.3,M,,*75
$GPGXP,024627,3237.8870,N,11718.6973,W*5F
$GPVTG,026.6,T,013.4,M,004.8,N,008.9,K*47
$GPGGA,024642.455,3237.9059,N,11718.6872,W,3,05,1.6,024.5,M,036.3,M,,*7C
$GPGXP,024642,3237.9059,N,11718.6872,W*5E
$GPVTG,021.7,T,008.5,M,005.1,N,009.5,K*4F
$GPGGA,024657.455,3237.9251,N,11718.6778,W,3,05,1.6,027.4,M,036.3,M,,*75
$GPGXP,024657,3237.9251,N,11718.6778,W*55
$GPVTG,023.3,T,010.1,M,005.2,N,009.7,K*45
$GPGGA,024712.455,3237.9438,N,11718.6669,W,3,05,1.6,019.8,M,036.3,M,,*7C
$GPGXP,024712,3237.9438,N,11718.6669,W*5D
$GPVTG,022.0,T,008.8,M,005.1,N,009.4,K*47
$GPGGA,024727.455,3237.9623,N,11718.6566,W,3,05,1.6,018.6,M,036.3,M,,*71
$GPGXP,024727,3237.9623,N,11718.6566,W*5F
$GPVTG,031.6,T,018.4,M,005.1,N,009.4,K*4E
$GPGGA,024742.455,3237.9809,N,11718.6472,W,3,05,1.6,019.8,M,036.3,M,,*7F
$GPGXP,024742,3237.9809,N,11718.6472,W*5E
$GPVTG,015.7,T,002.5,M,004.9,N,009.0,K*4E
$GPGGA,024757.455,3237.9982,N,11718.6375,W,3,05,1.6,017.5,M,036.3,M,,*7A
$GPGXP,024757,3237.9982,N,11718.6375,W*58
$GPVTG,021.1,T,007.9,M,005.0,N,009.2,K*4C
$GPGGA,024812.455,3238.0171,N,11718.6278,W,3,05,1.6,018.7,M,036.3,M,,*77
$GPGXP,024812,3238.0171,N,11718.6278,W*58
$GPVTG,018.9,T,005.7,M,005.0,N,009.3,K*43
$GPGGA,024827.455,3238.0366,N,11718.6181,W,3,05,1.6,018.7,M,036.3,M,,*70
$GPGXP,024827,3238.0366,N,11718.6181,W*5F
$GPVTG,347.6,T,334.4,M,005.5,N,010.1,K*48
$GPGGA,024842.454,3238.0554,N,11718.6096,W,3,05,1.6,017.6,M,036.3,M,,*7C
$GPGXP,024842,3238.0554,N,11718.6096,W*5C
$GPVTG,016.8,T,003.6,M,005.0,N,009.3,K*4B
$GPGGA,024857.454,3238.0739,N,11718.6008,W,3,05,1.6,019.6,M,036.3,M,,*78
$GPGXP,024857,3238.0739,N,11718.6008,W*56
$GPVTG,032.1,T,018.9,M,004.9,N,009.1,K*4B
$GPGGA,024912.454,3238.0920,N,11718.5946,W,3,05,1.6,020.5,M,036.3,M,,*77
$GPGXP,024912,3238.0920,N,11718.5946,W*50
$GPVTG,015.6,T,002.4,M,004.7,N,008.7,K*46
$GPGGA,024927.454,3238.1116,N,11718.5917,W,3,05,1.6,019.5,M,036.3,M,,*73
$GPGXP,024927,3238.1116,N,11718.5917,W*5E
$GPVTG,350.0,T,336.8,M,004.7,N,008.6,K*4B
$GPGGA,024942.454,3238.1309,N,11718.5912,W,3,05,1.6,017.1,M,036.3,M,,*73
$GPGXP,024942,3238.1309,N,11718.5912,W*54
$GPVTG,340.2,T,327.0,M,004.3,N,008.0,K*42
$GPGGA,024957.454,3238.1501,N,11718.5937,W,3,05,1.6,014.0,M,036.3,M,,*7C
$GPGXP,024957,3238.1501,N,11718.5937,W*59
$GPVTG,341.8,T,328.6,M,004.4,N,008.2,K*45
$GPGGA,025012.454,3238.1686,N,11718.5972,W,3,05,1.6,013.3,M,036.3,M,,*7C
$GPGXP,025012,3238.1686,N,11718.5972,W*5D
$GPVTG,344.2,T,331.0,M,004.5,N,008.3,K*44
$GPGGA,025027.454,3238.1875,N,11718.5995,W,3,05,1.6,015.8,M,036.3,M,,*7C
$GPGXP,025027,3238.1875,N,11718.5995,W*50
$GPVTG,344.9,T,331.7,M,005.0,N,009.3,K*4D
$GPGGA,025042.454,3238.2066,N,11718.6022,W,3,05,1.6,015.1,M,036.3,M,,*79
$GPGXP,025042,3238.2066,N,11718.6022,W*5C
$GPVTG,358.3,T,345.1,M,004.8,N,008.8,K*4C
$GPGGA,025057.454,3238.2259,N,11718.6037,W,3,05,1.6,015.1,M,036.3,M,,*77
$GPGXP,025057,3238.2259,N,11718.6037,W*52
$GPVTG,353.3,T,340.1,M,004.9,N,009.2,K*48
$GPGGA,025112.454,3238.2458,N,11718.6052,W,3,05,1.6,016.4,M,036.3,M,,*75
$GPGXP,025112,3238.2458,N,11718.6052,W*56
$GPVTG,355.7,T,342.4,M,004.9,N,009.0,K*4F
$GPGGA,025127.454,3238.2658,N,11718.6068,W,3,05,1.6,016.0,M,036.3,M,,*7C
$GPGXP,025127,3238.2658,N,11718.6068,W*5B
$GPVTG,353.9,T,340.7,M,004.7,N,008.7,K*4E
$GPGGA,025142.454,3238.2851,N,11718.6085,W,3,05,1.6,014.8,M,036.3,M,,*71
$GPGXP,025142,3238.2851,N,11718.6085,W*5C
$GPVTG,004.4,T,351.2,M,004.5,N,008.3,K*41
$GPGGA,025157.454,3238.3047,N,11718.6106,W,3,05,1.6,014.3,M,036.3,M,,*7A
$GPGXP,025157,3238.3047,N,11718.6106,W*5C
$GPVTG,336.9,T,323.7,M,004.9,N,009.0,K*40
$GPGGA,025212.454,3238.3244,N,11718.6133,W,3,05,1.6,015.5,M,036.3,M,,*78
$GPGXP,025212,3238.3244,N,11718.6133,W*59
$GPVTG,336.3,T,323.1,M,005.2,N,009.6,K*40
$GPGGA,025227.454,3238.3440,N,11718.6154,W,3,05,1.6,014.9,M,036.3,M,,*70
$GPGXP,025227,3238.3440,N,11718.6154,W*5C
$GPVTG,016.7,T,003.5,M,005.1,N,009.4,K*41
$GPGGA,025242.454,3238.3628,N,11718.6171,W,3,05,1.6,016.4,M,036.3,M,,*77
$GPGXP,025242,3238.3628,N,11718.6171,W*54
$GPVTG,001.2,T,348.0,M,004.6,N,008.4,K*4C
$GPGGA,025257.454,3238.3819,N,11718.6199,W,3,05,1.6,016.8,M,036.3,M,,*75
$GPGXP,025257,3238.3819,N,11718.6199,W*5A
$GPVTG,335.8,T,322.6,M,004.5,N,008.4,K*4B
$GPGGA,025312.454,3238.4012,N,11718.6224,W,3,05,1.5,016.2,M,036.3,M,,*7D
$GPGXP,025312,3238.4012,N,11718.6224,W*5B
$GPVTG,351.5,T,338.3,M,004.7,N,008.8,K*44
$GPGGA,025327.454,3238.4204,N,11718.6244,W,3,05,1.5,016.1,M,036.3,M,,*7B
$GPGXP,025327,3238.4204,N,11718.6244,W*5E
$GPVTG,345.1,T,331.9,M,005.1,N,009.4,K*4C
$GPGGA,025342.454,3238.4399,N,11718.6262,W,3,05,1.5,015.4,M,036.3,M,,*7F
$GPGXP,025342,3238.4399,N,11718.6262,W*5C
$GPVTG,352.1,T,338.9,M,005.0,N,009.3,K*45
$GPGGA,025357.454,3238.4592,N,11718.6294,W,3,05,1.5,014.6,M,036.3,M,,*7C
$GPGXP,025357,3238.4592,N,11718.6294,W*5C
$GPVTG,326.4,T,313.2,M,005.0,N,009.2,K*40
$GPGGA,025412.454,3238.4784,N,11718.6342,W,3,05,1.5,013.5,M,036.3,M,,*71
$GPGXP,025412,3238.4784,N,11718.6342,W*55
$GPVTG,331.3,T,318.1,M,004.7,N,008.7,K*4B
$GPGGA,025427.454,3238.4963,N,11718.6402,W,3,05,1.5,019.1,M,036.3,M,,*7D
$GPGXP,025427,3238.4963,N,11718.6402,W*57
