$GPVTG,331.9,T,318.7,M,004.1,N,007.6,K*4F
$GPGGA,185810.344,3236.5168,N,11719.1979,W,3,05,1.4,020.4,M,036.4,M,,*7A
$GPGXP,185810,3236.5168,N,11719.1979,W*5F
$GPVTG,327.1,T,313.9,M,004.5,N,008.3,K*4B
$GPGGA,185825.344,3236.5336,N,11719.2066,W,3,05,1.4,019.8,M,036.4,M,,*77
$GPGXP,185825,3236.5336,N,11719.2066,W*54
$GPVTG,344.4,T,331.2,M,004.2,N,007.7,K*4C
$GPGGA,185840.344,3236.5506,N,11719.2147,W,3,05,1.4,019.4,M,036.4,M,,*7F
$GPGXP,185840,3236.5506,N,11719.2147,W*50
$GPVTG,345.4,T,332.2,M,004.5,N,008.4,K*45
$GPGGA,185855.344,3236.5677,N,11719.2228,W,3,05,1.4,020.5,M,036.4,M,,*7F
$GPGXP,185855,3236.5677,N,11719.2228,W*5B
$GPVTG,343.0,T,329.8,M,004.6,N,008.5,K*45
$GPGGA,185910.344,3236.5850,N,11719.2309,W,3,05,1.4,020.1,M,036.4,M,,*72
$GPGXP,185910,3236.5850,N,11719.2309,W*52
$GPVTG,332.6,T,319.4,M,005.1,N,009.4,K*4C
$GPGGA,185925.344,3236.6024,N,11719.2393,W,3,05,1.4,021.2,M,036.4,M,,*7D
$GPGXP,185925,3236.6024,N,11719.2393,W*5F
$GPVTG,351.1,T,337.9,M,004.7,N,008.7,K*4A
$GPGGA,185940.344,3236.6196,N,11719.2464,W,3,05,1.4,020.4,M,036.4,M,,*7E
$GPGXP,185940,3236.6196,N,11719.2464,W*5B
$GPVTG,352.2,T,339.0,M,004.0,N,007.5,K*47
$GPGGA,185955.344,3236.6368,N,11719.2548,W,3,05,1.4,020.2,M,036.4,M,,*70
$GPGXP,185955,3236.6368,N,11719.2548,W*53
$GPVTG,350.5,T,337.3,M,004.4,N,008.2,K*43
$GPGGA,190010.344,3236.6540,N,11719.2622,W,3,05,1.4,018.2,M,036.4,M,,*74
$GPGXP,190010,3236.6540,N,11719.2622,W*5C
$GPVTG,355.2,T,342.0,M,004.6,N,008.4,K*44
$GPGGA,190025.344,3236.6710,N,11719.2707,W,3,05,1.4,019.4,M,036.4,M,,*74
$GPGXP,190025,3236.6710,N,11719.2707,W*5B
$GPVTG,322.9,T,309.7,M,004.1,N,007.6,K*4D
$GPGGA,190040.344,3236.6880,N,11719.2791,W,3,05,1.4,018.3,M,036.4,M,,*78
$GPGXP,190040,3236.6880,N,11719.2791,W*51
$GPVTG,333.0,T,319.8,M,005.0,N,009.2,K*40
$GPGGA,190055.344,3236.7051,N,11719.2873,W,3,05,1.4,019.7,M,036.4,M,,*7F
$GPGXP,190055,3236.7051,N,11719.2873,W*53
$GPVTG,333.2,T,320.0,M,004.7,N,008.7,K*42
$GPGGA,190110.344,3236.7225,N,11719.2948,W,3,05,1.4,018.0,M,036.4,M,,*71
$GPGXP,190110,3236.7225,N,11719.2948,W*5B
$GPVTG,333.9,T,320.7,M,004.7,N,008.8,K*41
$GPGGA,190125.344,3236.7402,N,11719.3020,W,3,05,1.4,017.7,M,036.4,M,,*7A
$GPGXP,190125,3236.7402,N,11719.3020,W*58
$GPVTG,341.8,T,328.6,M,004.4,N,008.1,K*46
$GPGGA,190140.344,3236.7580,N,11719.3087,W,3,05,1.4,018.5,M,036.4,M,,*72
$GPGXP,190140,3236.7580,N,11719.3087,W*5D
$GPVTG,355.7,T,342.5,M,004.7,N,008.7,K*46
$GPGGA,190155.344,3236.7760,N,11719.3153,W,3,05,1.4,017.1,M,036.4,M,,*79
$GPGXP,190155,3236.7760,N,11719.3153,W*5D
$GPVTG,345.1,T,331.9,M,004.4,N,008.1,K*4C
$GPGGA,190210.344,3236.7942,N,11719.3219,W,3,05,1.4,019.9,M,036.4,M,,*7E
$GPGXP,190210,3236.7942,N,11719.3219,W*5C
$GPVTG,347.3,T,334.1,M,004.2,N,007.8,K*41
$GPGGA,190225.344,3236.8131,N,11719.3262,W,3,05,1.4,017.2,M,036.4,M,,*72
$GPGXP,190225,3236.8131,N,11719.3262,W*55
$GPVTG,356.9,T,343.7,M,004.7,N,008.6,K*49
$GPGGA,190240.344,3236.8319,N,11719.3299,W,3,05,1.4,017.6,M,036.4,M,,*79
$GPGXP,190240,3236.8319,N,11719.3299,W*5A
$GPVTG,356.0,T,342.8,M,004.6,N,008.5,K*4C
$GPGGA,190255.344,3236.8505,N,11719.3342,W,3,05,1.4,017.7,M,036.4,M,,*70
$GPGXP,190255,3236.8505,N,11719.3342,W*52
$GPVTG,343.9,T,330.7,M,004.4,N,008.1,K*4D
$GPGGA,190310.344,3236.8692,N,11719.3400,W,3,05,1.4,017.8,M,036.4,M,,*73
$GPGXP,190310,3236.8692,N,11719.3400,W*5E
$GPVTG,352.0,T,338.8,M,005.0,N,009.2,K*44
$GPGGA,190325.344,3236.8878,N,11719.3455,W,3,05,1.4,017.3,M,036.4,M,,*74
$GPGXP,190325,3236.8878,N,11719.3455,W*52
$GPVTG,334.4,T,321.2,M,004.9,N,009.0,K*48
$GPGGA,190340.344,3236.9059,N,11719.3512,W,3,05,1.4,015.4,M,036.4,M,,*7A
$GPGXP,190340,3236.9059,N,11719.3512,W*59
$GPVTG,358.4,T,345.2,M,004.9,N,009.1,K*41
$GPGGA,190355.344,3236.9248,N,11719.3563,W,3,05,1.4,015.5,M,036.4,M,,*7B
$GPGXP,190355,3236.9248,N,11719.3563,W*59
$GPVTG,353.8,T,340.6,M,006.0,N,011.0,K*44
$GPGGA,190410.344,3236.9429,N,11719.3620,W,3,05,1.4,016.7,M,036.4,M,,*79
$GPGXP,190410,3236.9429,N,11719.3620,W*5A
$GPVTG,344.2,T,331.0,M,004.6,N,008.6,K*42
$GPGGA,190425.344,3236.9612,N,11719.3672,W,3,05,1.4,015.6,M,036.4,M,,*70
$GPGXP,190425,3236.9612,N,11719.3672,W*51
$GPVTG,001.4,T,348.2,M,004.5,N,008.3,K*4C
$GPGGA,190440.344,3236.9798,N,11719.3707,W,3,05,1.4,013.3,M,036.4,M,,*70
$GPGXP,190440,3236.9798,N,11719.3707,W*52
$GPVTG,343.4,T,330.2,M,004.9,N,009.1,K*49
$GPGGA,190455.344,3236.9989,N,11719.3743,W,3,05,1.4,016.2,M,036.4,M,,*7E
$GPGXP,190455,3236.9989,N,11719.3743,W*58
$GPVTG,002.1,T,348.9,M,004.6,N,008.5,K*44
$GPGGA,190510.344,3237.0179,N,11719.3774,W,3,05,1.4,016.1,M,036.4,M,,*76
$GPGXP,190510,3237.0179,N,11719.3774,W*53
$GPVTG,000.8,T,347.6,M,004.7,N,008.8,K*43
$GPGGA,190525.344,3237.0363,N,11719.3822,W,3,05,1.4,014.6,M,036.4,M,,*70
$GPGXP,190525,3237.0363,N,11719.3822,W*50
$GPVTG,331.9,T,318.7,M,005.0,N,009.3,K*44
$GPGGA,190540.344,3237.0543,N,11719.3860,W,3,05,1.4,014.8,M,036.4,M,,*7F
$GPGXP,190540,3237.0543,N,11719.3860,W*51
$GPVTG,356.0,T,342.8,M,004.7,N,008.6,K*4E
$GPGGA,190555.344,3237.0730,N,11719.3901,W,3,05,1.4,013.2,M,036.4,M,,*76
$GPGXP,190555,3237.0730,N,11719.3901,W*55
$GPVTG,347.4,T,334.2,M,004.3,N,007.9,K*45
$GPGGA,190610.344,3237.0913,N,11719.3947,W,3,05,1.4,016.3,M,036.4,M,,*7D
$GPGXP,190610,3237.0913,N,11719.3947,W*5A
$GPVTG,356.8,T,343.6,M,005.1,N,009.4,K*4D
$GPGGA,190625.344,3237.1099,N,11719.3988,W,3,05,1.4,015.7,M,036.4,M,,*75
$GPGXP,190625,3237.1099,N,11719.3988,W*55
$GPVTG,001.6,T,348.4,M,004.7,N,008.6,K*4F
$GPGGA,190640.344,3237.1277,N,11719.4023,W,3,05,1.4,014.3,M,036.4,M,,*7E
$GPGXP,190640,3237.1277,N,11719.4023,W*5B
$GPVTG,342.5,T,329.3,M,004.5,N,008.4,K*48
$GPGGA,190655.344,3237.1466,N,11719.4067,W,3,05,1.4,013.8,M,036.4,M,,*70
$GPGXP,190655,3237.1466,N,11719.4067,W*59
$GPVTG,344.4,T,331.2,M,004.4,N,008.1,K*43
$GPGGA,190710.344,3237.1653,N,11719.4108,W,3,05,1.4,015.6,M,036.4,M,,*74
$GPGXP,190710,3237.1653,N,11719.4108,W*55
$GPVTG,001.2,T,348.0,M,004.6,N,008.6,K*4E
$GPGGA,190725.344,3237.1840,N,11719.4143,W,3,05,1.4,014.4,M,036.4,M,,*72
$GPGXP,190725,3237.1840,N,11719.4143,W*50
$GPVTG,004.5,T,351.3,M,004.6,N,008.5,K*44
$GPGGA,190740.344,3237.2026,N,11719.4169,W,3,05,1.4,013.6,M,036.4,M,,*77
$GPGXP,190740,3237.2026,N,11719.4169,W*50
$GPVTG,342.8,T,329.6,M,003.9,N,007.3,K*43
$GPGGA,190755.344,3237.2208,N,11719.4209,W,3,05,1.4,016.8,M,036.4,M,,*73
$GPGXP,190755,3237.2208,N,11719.4209,W*5F
$GPVTG,332.6,T,319.4,M,004.9,N,009.2,K*43
$GPGGA,190810.344,3237.2399,N,11719.4253,W,3,05,1.4,014.5,M,036.4,M,,*74
$GPGXP,190810,3237.2399,N,11719.4253,W*57
$GPVTG,336.8,T,323.6,M,004.2,N,007.7,K*42
$GPGGA,190825.344,3237.2577,N,11719.4304,W,3,05,1.4,015.3,M,036.4,M,,*70
$GPGXP,190825,3237.2577,N,11719.4304,W*54
$GPVTG,342.8,T,329.6,M,004.4,N,008.2,K*47
$GPGGA,190840.344,3237.2753,N,11719.4352,W,3,05,1.4,014.8,M,036.4,M,,*7E
$GPGXP,190840,3237.2753,N,11719.4352,W*50
$GPVTG,016.2,T,003.0,M,004.4,N,008.2,K*42
$GPGGA,190855.344,3237.2934,N,11719.4389,W,3,05,1.4,014.2,M,036.4,M,,*79
$GPGXP,190855,3237.2934,N,11719.4389,W*5D
$GPVTG,336.8,T,323.6,M,004.3,N,008.1,K*4A
$GPGGA,190910.344,3237.3117,N,11719.4437,W,3,05,1.4,014.4,M,036.4,M,,*75
$GPGXP,190910,3237.3117,N,11719.4437,W*57
$GPVTG,354.4,T,341.2,M,004.2,N,007.7,K*4A
$GPGGA,190925.344,3237.3298,N,11719.4480,W,3,05,1.4,014.5,M,036.4,M,,*7A
$GPGXP,190925,3237.3298,N,11719.4480,W*59
$GPVTG,330.3,T,317.1,M,004.2,N,007.8,K*40
$GPGGA,190940.344,3237.3463,N,11719.4523,W,3,05,1.4,013.3,M,036.4,M,,*72
$GPGXP,190940,3237.3463,N,11719.4523,W*50
$GPVTG,325.3,T,312.1,M,004.1,N,007.6,K*4C
$GPGGA,190955.344,3237.3617,N,11719.4563,W,3,05,1.4,014.3,M,036.4,M,,*74
$GPGXP,190955,3237.3617,N,11719.4563,W*51
$GPVTG,341.8,T,328.6,M,003.5,N,006.4,K*4B
$GPGGA,191010.344,3237.3759,N,11719.4592,W,3,05,1.4,011.5,M,036.4,M,,*7B
$GPGXP,191010,3237.3759,N,11719.4592,W*5D
$GPVTG,002.6,T,349.4,M,003.4,N,006.3,K*42
$GPGGA,191025.344,3237.3887,N,11719.4628,W,3,05,1.4,014.8,M,036.4,M,,*7B
$GPGXP,191025,3237.3887,N,11719.4628,W*55
$GPVTG,356.8,T,343.6,M,002.8,N,005.2,K*49
$GPGGA,191040.344,3237.3998,N,11719.4654,W,3,05,1.4,014.7,M,036.4,M,,*73
$GPGXP,191040,3237.3998,N,11719.4654,W*52
$GPVTG,340.4,T,327.2,M,002.4,N,004.4,K*4F
$GPGGA,191055.344,3237.4092,N,11719.4685,W,3,05,1.4,015.0,M,036.4,M,,*79
$GPGXP,191055,3237.4092,N,11719.4685,W*5E
$GPVTG,357.3,T,344.1,M,001.7,N,003.1,K*4A
$GPGGA,191110.344,3237.4160,N,11719.4707,W,3,05,1.4,019.8,M,036.4,M,,*7A
$GPGXP,191110,3237.4160,N,11719.4707,W*59
$GPVTG,283.0,T,269.8,M,002.1,N,003.9,K*4B
$GPGGA,191125.344,3237.4238,N,11719.4780,W,3,05,1.4,016.6,M,036.4,M,,*7C
$GPGXP,191125,3237.4238,N,11719.4780,W*5E
$GPVTG,279.3,T,266.1,M,002.0,N,003.6,K*45
$GPGGA,191140.344,3237.4290,N,11719.4845,W,3,05,1.4,014.9,M,036.4,M,,*76
$GPGXP,191140,3237.4290,N,11719.4845,W*59
$GPVTG,309.6,T,296.4,M,001.2,N,002.3,K*49
$GPGGA,191155.344,3237.4336,N,11719.4898,W,3,05,1.4,017.2,M,036.4,M,,*77
$GPGXP,191155,3237.4336,N,11719.4898,W*50
$GPVTG,333.5,T,320.3,M,001.4,N,002.5,K*48
$GPGGA,191210.344,3237.4376,N,11719.4957,W,3,05,1.4,017.2,M,036.4,M,,*73
$GPGXP,191210,3237.4376,N,11719.4957,W*54
$GPVTG,330.2,T,317.0,M,001.5,N,002.7,K*48
$GPGGA,191225.344,3237.4412,N,11719.5019,W,3,05,1.4,018.0,M,036.4,M,,*7F
$GPGXP,191225,3237.4412,N,11719.5019,W*55
$GPVTG,359.0,T,345.8,M,001.5,N,002.8,K*45
$GPGGA,191240.344,3237.4449,N,11719.5070,W,3,05,1.4,017.7,M,036.4,M,,*75
$GPGXP,191240,3237.4449,N,11719.5070,W*57
$GPVTG,281.9,T,268.7,M,002.0,N,003.7,K*41
$GPGGA,191255.344,3237.4479,N,11719.5121,W,3,05,1.4,016.5,M,036.4,M,,*74
$GPGXP,191255,3237.4479,N,11719.5121,W*55
$GPVTG,279.4,T,266.2,M,001.9,N,003.5,K*48
$GPGGA,191310.344,3237.4512,N,11719.5179,W,3,05,1.4,017.3,M,036.4,M,,*72
$GPGXP,191310,3237.4512,N,11719.5179,W*54
$GPVTG,268.6,T,255.4,M,001.7,N,003.2,K*45
$GPGGA,191325.344,3237.4539,N,11719.5222,W,3,05,1.4,017.8,M,036.4,M,,*7B
$GPGXP,191325,3237.4539,N,11719.5222,W*56
$GPVTG,359.9,T,346.7,M,001.1,N,002.1,K*4D
$GPGGA,191340.344,3237.4565,N,11719.5264,W,3,05,1.4,018.4,M,036.4,M,,*70
$GPGXP,191340,3237.4565,N,11719.5264,W*5E
$GPVTG,272.6,T,259.4,M,001.1,N,002.1,K*46
$GPGGA,191355.344,3237.4571,N,11719.5316,W,3,05,1.4,019.8,M,036.4,M,,*78
$GPGXP,191355,3237.4571,N,11719.5316,W*5B
$GPVTG,244.9,T,231.7,M,000.7,N,001.2,K*46
$GPGGA,191410.344,3237.4587,N,11719.5365,W,3,05,1.4,019.4,M,036.4,M,,*7F
$GPGXP,191410,3237.4587,N,11719.5365,W*50
$GPVTG,280.9,T,267.7,M,001.3,N,002.4,K*4D
$GPGGA,191425.344,3237.4612,N,11719.5407,W,3,05,1.4,019.0,M,036.4,M,,*71
$GPGXP,191425,3237.4612,N,11719.5407,W*5A
$GPVTG,321.3,T,308.1,M,000.8,N,001.5,K*4B
$GPGGA,191440.344,3237.4637,N,11719.5449,W,3,05,1.4,017.6,M,036.4,M,,*77
$GPGXP,191440,3237.4637,N,11719.5449,W*54
$GPVTG,272.5,T,259.3,M,001.4,N,002.5,K*43
$GPGGA,191455.344,3237.4665,N,11719.5485,W,3,05,1.4,016.6,M,036.4,M,,*75
$GPGXP,191455,3237.4665,N,11719.5485,W*57
$GPVTG,026.9,T,013.7,M,001.1,N,002.1,K*45
$GPGGA,191510.344,3237.4695,N,11719.5516,W,3,05,1.5,017.1,M,036.4,M,,*76
$GPGXP,191510,3237.4695,N,11719.5516,W*53
$GPVTG,325.7,T,312.5,M,001.0,N,001.9,K*41
$GPGGA,191525.344,3237.4720,N,11719.5553,W,3,05,1.5,017.7,M,036.4,M,,*78
$GPGXP,191525,3237.4720,N,11719.5553,W*5B
$GPVTG,293.1,T,279.9,M,001.0,N,001.9,K*4B
$GPGGA,191540.344,3237.4740,N,11719.5584,W,3,05,1.5,018.4,M,036.4,M,,*7B
$GPGXP,191540,3237.4740,N,11719.5584,W*54
$GPVTG,258.6,T,245.4,M,000.8,N,001.5,K*4C
$GPGGA,191555.344,3237.4768,N,11719.5618,W,3,05,1.5,016.3,M,036.4,M,,*7A
$GPGXP,191555,3237.4768,N,11719.5618,W*5C
$GPVTG,247.8,T,234.6,M,001.4,N,002.6,K*45
$GPGGA,191610.344,3237.4785,N,11719.5645,W,3,05,1.5,017.5,M,036.4,M,,*74
$GPGXP,191610,3237.4785,N,11719.5645,W*55
$GPVTG,008.5,T,355.3,M,000.9,N,001.7,K*4C
$GPGGA,191625.344,3237.4803,N,11719.5667,W,3,05,1.5,018.3,M,036.4,M,,*7A
$GPGXP,191625,3237.4803,N,11719.5667,W*52
$GPVTG,342.6,T,329.4,M,000.4,N,000.7,K*42
$GPGGA,191640.344,3237.4816,N,11719.5681,W,3,05,1.5,017.7,M,036.4,M,,*7E
$GPGXP,191640,3237.4816,N,11719.5681,W*5D
$GPVTG,027.9,T,014.7,M,001.4,N,002.6,K*41
$GPGGA,191655.344,3237.4824,N,11719.5698,W,3,05,1.5,017.3,M,036.4,M,,*77
$GPGXP,191655,3237.4824,N,11719.5698,W*50
$GPVTG,244.6,T,231.4,M,000.0,N,000.0,K*4E
$GPGGA,191710.344,3237.4823,N,11719.5719,W,3,05,1.5,018.8,M,036.4,M,,*7C
$GPGXP,191710,3237.4823,N,11719.5719,W*5F
$GPVTG,251.6,T,238.4,M,001.5,N,002.7,K*42
$GPGGA,191725.344,3237.4842,N,11719.5740,W,3,05,1.5,018.6,M,036.4,M,,*7F
$GPGXP,191725,3237.4842,N,11719.5740,W*52
$GPVTG,251.6,T,238.4,M,000.0,N,000.0,K*43
$GPGGA,191740.344,3237.4850,N,11719.5752,W,3,05,1.5,018.7,M,036.4,M,,*7D
$GPGXP,191740,3237.4850,N,11719.5752,W*51
$GPVTG,251.6,T,238.4,M,000.7,N,001.2,K*47
$GPGGA,191755.343,3237.4858,N,11719.5767,W,3,05,1.5,016.7,M,036.4,M,,*7E
$GPGXP,191755,3237.4858,N,11719.5767,W*5B
$GPVTG,251.6,T,238.4,M,000.0,N,000.0,K*43
$GPGGA,191810.343,3237.4863,N,11719.5778,W,3,05,1.5,017.4,M,036.4,M,,*74
$GPGXP,191810,3237.4863,N,11719.5778,W*53
$GPVTG,019.8,T,006.6,M,001.6,N,002.9,K*42
$GPGGA,191825.343,3237.4870,N,11719.5781,W,3,05,1.5,017.6,M,036.4,M,,*74
$GPGXP,191825,3237.4870,N,11719.5781,W*51
$GPVTG,025.4,T,012.2,M,000.7,N,001.3,K*49
$GPGGA,191840.343,3237.4875,N,11719.5780,W,3,05,1.5,016.3,M,036.4,M,,*77
$GPGXP,191840,3237.4875,N,11719.5780,W*56
$GPVTG,025.4,T,012.2,M,000.9,N,001.7,K*43
$GPGGA,191855.343,3237.4878,N,11719.5788,W,3,05,1.5,018.2,M,036.4,M,,*79
$GPGXP,191855,3237.4878,N,11719.5788,W*57
$GPVTG,258.8,T,245.6,M,000.0,N,000.0,K*4C
$GPGGA,191910.343,3237.4886,N,11719.5782,W,3,05,1.5,018.8,M,036.4,M,,*78
$GPGXP,191910,3237.4886,N,11719.5782,W*5C
$GPVTG,067.6,T,054.4,M,001.7,N,003.2,K*4B
$GPGGA,191925.343,3237.4894,N,11719.5773,W,3,05,1.5,020.0,M,036.4,M,,*70
$GPGXP,191925,3237.4894,N,11719.5773,W*57
$GPVTG,067.6,T,054.4,M,001.0,N,001.9,K*45
$GPGGA,191940.343,3237.4892,N,11719.5761,W,3,05,1.5,019.6,M,036.4,M,,*7A
$GPGXP,191940,3237.4892,N,11719.5761,W*51
$GPVTG,039.2,T,026.0,M,000.4,N,000.8,K*4E
$GPGGA,191955.343,3237.4903,N,11719.5747,W,3,05,1.5,020.7,M,036.4,M,,*78
$GPGXP,191955,3237.4903,N,11719.5747,W*58
$GPVTG,048.9,T,035.7,M,000.4,N,000.8,K*46
$GPGGA,192010.343,3237.4900,N,11719.5741,W,3,05,1.5,020.3,M,036.4,M,,*72
$GPGXP,192010,3237.4900,N,11719.5741,W*56
$GPVTG,062.9,T,049.7,M,001.2,N,002.2,K*4A
$GPGGA,192025.343,3237.4905,N,11719.5728,W,3,05,1.5,019.3,M,036.4,M,,*74
$GPGXP,192025,3237.4905,N,11719.5728,W*5A
$GPVTG,062.9,T,049.7,M,000.5,N,000.9,K*45
$GPGGA,192040.343,3237.4906,N,11719.5729,W,3,05,1.5,019.0,M,036.4,M,,*76
$GPGXP,192040,3237.4906,N,11719.5729,W*5B
$GPVTG,052.9,T,039.7,M,001.0,N,001.8,K*45
$GPGGA,192055.343,3237.4914,N,11719.5725,W,3,05,1.5,018.1,M,036.4,M,,*7D
$GPGXP,192055,3237.4914,N,11719.5725,W*50
$GPVTG,030.8,T,017.6,M,000.6,N,001.2,K*40
$GPGGA,192110.343,3237.4914,N,11719.5716,W,3,05,1.5,017.6,M,036.4,M,,*75
$GPGXP,192110,3237.4914,N,11719.5716,W*50
$GPVTG,231.5,T,218.3,M,000.6,N,001.2,K*46
$GPGGA,192125.343,3237.4909,N,11719.5707,W,3,05,1.5,018.3,M,036.4,M,,*75
$GPGXP,192125,3237.4909,N,11719.5707,W*5A
$GPVTG,221.4,T,208.2,M,001.8,N,003.4,K*4D
$GPGGA,192140.343,3237.4903,N,11719.5691,W,3,05,1.5,016.8,M,036.4,M,,*77
$GPGXP,192140,3237.4903,N,11719.5691,W*5D
$GPVTG,060.6,T,047.4,M,001.1,N,002.1,K*4A
$GPGGA,192155.343,3237.4899,N,11719.5672,W,3,05,1.5,019.2,M,036.4,M,,*79
$GPGXP,192155,3237.4899,N,11719.5672,W*56
$GPVTG,049.0,T,035.8,M,000.0,N,000.0,K*4D
$GPGGA,192210.343,3237.4892,N,11719.5657,W,3,05,1.5,017.2,M,036.4,M,,*79
$GPGXP,192210,3237.4892,N,11719.5657,W*58
$GPVTG,212.7,T,199.5,M,001.0,N,001.8,K*44
$GPGGA,192225.343,3237.4881,N,11719.5647,W,3,05,1.5,018.8,M,036.4,M,,*79
$GPGXP,192225,3237.4881,N,11719.5647,W*5D
$GPVTG,075.9,T,062.7,M,001.0,N,001.9,K*4F
$GPGGA,192240.343,3237.4871,N,11719.5650,W,3,05,1.5,021.9,M,036.4,M,,*78
$GPGXP,192240,3237.4871,N,11719.5650,W*57
$GPVTG,075.9,T,062.7,M,000.0,N,000.0,K*46
$GPGGA,192255.343,3237.4867,N,11719.5606,W,3,05,1.5,020.5,M,036.4,M,,*75
$GPGXP,192255,3237.4867,N,11719.5606,W*57
$GPVTG,075.9,T,062.7,M,000.8,N,001.5,K*4A
$GPGGA,192310.343,3237.4881,N,11719.5599,W,3,05,1.5,018.3,M,036.4,M,,*75
$GPGXP,192310,3237.4881,N,11719.5599,W*5A
$GPVTG,065.8,T,052.6,M,000.6,N,001.2,K*41
$GPGGA,192325.343,3237.4878,N,11719.5584,W,3,05,1.5,020.3,M,036.4,M,,*72
$GPGXP,192325,3237.4878,N,11719.5584,W*56
$GPVTG,073.5,T,060.3,M,000.8,N,001.4,K*47
$GPGGA,192340.343,3237.4881,N,11719.5577,W,3,05,1.5,019.5,M,036.4,M,,*77
$GPGXP,192340,3237.4881,N,11719.5577,W*5F
$GPVTG,072.1,T,058.9,M,002.0,N,003.7,K*48
$GPGGA,192355.343,3237.4877,N,11719.5566,W,3,05,1.5,019.2,M,036.4,M,,*7D
$GPGXP,192355,3237.4877,N,11719.5566,W*52
$GPVTG,074.4,T,061.2,M,000.9,N,001.7,K*43
$GPGGA,192410.343,3237.4868,N,11719.5558,W,3,05,1.5,020.0,M,036.4,M,,*70
$GPGXP,192410,3237.4868,N,11719.5558,W*57
$GPVTG,095.1,T,081.9,M,001.9,N,003.5,K*4D
$GPGGA,192425.343,3237.4879,N,11719.5542,W,3,05,1.5,023.3,M,036.4,M,,*7D
$GPGXP,192425,3237.4879,N,11719.5542,W*5A
$GPVTG,066.8,T,053.6,M,000.5,N,001.0,K*42
$GPGGA,192440.343,3237.4870,N,11719.5531,W,3,05,1.5,022.6,M,036.4,M,,*77
$GPGXP,192440,3237.4870,N,11719.5531,W*54
$GPVTG,075.7,T,062.5,M,000.8,N,001.5,K*46
$GPGGA,192455.343,3237.4868,N,11719.5516,W,3,05,1.5,022.8,M,036.4,M,,*71
$GPGXP,192455,3237.4868,N,11719.5516,W*5C
$GPVTG,075.7,T,062.5,M,000.8,N,001.5,K*46
$GPGGA,192510.343,3237.4870,N,11719.5493,W,3,05,1.5,020.7,M,036.4,M,,*79
$GPGXP,192510,3237.4870,N,11719.5493,W*59
$GPVTG,075.7,T,062.5,M,001.1,N,002.1,K*49
$GPGGA,192525.343,3237.4862,N,11719.5476,W,3,05,1.5,020.1,M,036.4,M,,*71
$GPGXP,192525,3237.4862,N,11719.5476,W*57
$GPVTG,064.6,T,051.4,M,000.7,N,001.2,K*4E
$GPGGA,192540.343,3237.4886,N,11719.5475,W,3,05,1.5,022.0,M,036.4,M,,*78
$GPGXP,192540,3237.4886,N,11719.5475,W*5D
$GPVTG,055.5,T,042.3,M,001.6,N,002.9,K*42
$GPGGA,192555.343,3237.4897,N,11719.5458,W,3,05,1.5,023.8,M,036.4,M,,*7A
$GPGXP,192555,3237.4897,N,11719.5458,W*56
$GPVTG,251.6,T,238.4,M,000.9,N,001.7,K*4C
$GPGGA,192610.343,3237.4927,N,11719.5468,W,3,05,1.5,023.4,M,036.4,M,,*7D
$GPGXP,192610,3237.4927,N,11719.5468,W*5D
$GPVTG,052.8,T,039.6,M,000.8,N,001.4,K*40
$GPGGA,192625.343,3237.4936,N,11719.5457,W,3,05,1.5,022.3,M,036.4,M,,*71
$GPGXP,192625,3237.4936,N,11719.5457,W*57
$GPVTG,052.8,T,039.6,M,001.1,N,002.0,K*4F
$GPGGA,192640.343,3237.4939,N,11719.5452,W,3,05,1.5,022.2,M,036.4,M,,*79
$GPGXP,192640,3237.4939,N,11719.5452,W*5E
$GPVTG,027.6,T,014.4,M,000.4,N,000.8,K*40
$GPGGA,192655.343,3237.4971,N,11719.5459,W,3,05,1.5,021.8,M,036.4,M,,*73
$GPGXP,192655,3237.4971,N,11719.5459,W*5D
$GPVTG,059.7,T,046.5,M,001.6,N,003.0,K*46
$GPGGA,192710.343,3237.4962,N,11719.5444,W,3,05,1.5,021.8,M,036.4,M,,*7D
$GPGXP,192710,3237.4962,N,11719.5444,W*53
$GPVTG,049.1,T,035.9,M,001.3,N,002.4,K*49
$GPGGA,192725.343,3237.4964,N,11719.5452,W,3,05,1.5,023.5,M,036.4,M,,*75
$GPGXP,192725,3237.4964,N,11719.5452,W*54
$GPVTG,231.5,T,218.3,M,000.0,N,000.0,K*43
$GPGGA,192740.343,3237.4959,N,11719.5469,W,3,05,1.5,023.8,M,036.4,M,,*7D
$GPGXP,192740,3237.4959,N,11719.5469,W*51
$GPVTG,231.5,T,218.3,M,000.5,N,000.9,K*4F
$GPGGA,192755.343,3237.4963,N,11719.5474,W,3,05,1.5,023.7,M,036.4,M,,*73
$GPGXP,192755,3237.4963,N,11719.5474,W*50
$GPVTG,231.5,T,218.3,M,000.0,N,000.0,K*43
$GPGGA,192810.343,3237.4947,N,11719.5481,W,3,05,1.5,024.0,M,036.4,M,,*71
$GPGXP,192810,3237.4947,N,11719.5481,W*52
$GPVTG,210.5,T,197.3,M,000.0,N,000.0,K*44
$GPGGA,192825.343,3237.4940,N,11719.5482,W,3,05,1.5,024.2,M,036.4,M,,*71
$GPGXP,192825,3237.4940,N,11719.5482,W*50
$GPVTG,210.5,T,197.3,M,000.8,N,001.5,K*48
$GPGGA,192840.343,3237.4932,N,11719.5494,W,3,05,1.5,021.6,M,036.4,M,,*71
$GPGXP,192840,3237.4932,N,11719.5494,W*51
$GPVTG,196.0,T,182.8,M,000.9,N,001.7,K*4C
$GPGGA,192855.343,3237.4930,N,11719.5485,W,3,05,1.5,022.1,M,036.4,M,,*73
$GPGXP,192855,3237.4930,N,11719.5485,W*57
$GPVTG,179.2,T,166.0,M,000.5,N,000.9,K*4E
$GPGGA,192910.343,3237.4914,N,11719.5483,W,3,05,1.5,023.7,M,036.4,M,,*74
$GPGXP,192910,3237.4914,N,11719.5483,W*57
$GPVTG,179.2,T,166.0,M,000.0,N,000.0,K*42
$GPGGA,192925.343,3237.4898,N,11719.5472,W,3,05,1.5,023.4,M,036.4,M,,*7A
$GPGXP,192925,3237.4898,N,11719.5472,W*5A
$GPVTG,179.2,T,166.0,M,000.7,N,001.3,K*47
$GPGGA,192940.343,3237.4889,N,11719.5460,W,3,05,1.5,023.5,M,036.4,M,,*7B
$GPGXP,192940,3237.4889,N,11719.5460,W*5A
$GPVTG,184.8,T,171.6,M,000.9,N,001.7,K*45
$GPGGA,192955.343,3237.4882,N,11719.5448,W,3,05,1.5,022.6,M,036.4,M,,*7C
$GPGXP,192955,3237.4882,N,11719.5448,W*5F
$GPVTG,181.5,T,168.3,M,000.9,N,001.7,K*40
$GPGGA,193010.343,3237.4871,N,11719.5434,W,3,05,1.5,022.9,M,036.4,M,,*7D
$GPGXP,193010,3237.4871,N,11719.5434,W*51
$GPVTG,088.1,T,074.9,M,000.8,N,001.5,K*49
$GPGGA,193025.343,3237.4861,N,11719.5406,W,3,05,1.5,021.5,M,036.4,M,,*74
$GPGXP,193025,3237.4861,N,11719.5406,W*57
$GPVTG,217.1,T,203.9,M,000.8,N,001.5,K*4F
$GPGGA,193040.343,3237.4841,N,11719.5383,W,3,05,1.5,021.2,M,036.4,M,,*78
$GPGXP,193040,3237.4841,N,11719.5383,W*5C
$GPVTG,078.7,T,065.5,M,000.9,N,001.6,K*4E
$GPGGA,193055.343,3237.4824,N,11719.5360,W,3,05,1.5,020.0,M,036.4,M,,*71
$GPGXP,193055,3237.4824,N,11719.5360,W*56
$GPVTG,091.0,T,077.8,M,000.7,N,001.3,K*4B
$GPGGA,193110.343,3237.4809,N,11719.5334,W,3,05,1.5,019.3,M,036.4,M,,*76
$GPGXP,193110,3237.4809,N,11719.5334,W*58
$GPVTG,098.0,T,084.8,M,001.2,N,002.2,K*48
$GPGGA,193125.343,3237.4813,N,11719.5316,W,3,05,1.5,022.4,M,036.4,M,,*74
$GPGXP,193125,3237.4813,N,11719.5316,W*55
$GPVTG,104.8,T,091.6,M,000.5,N,000.9,K*41
$GPGGA,193140.343,3237.4838,N,11719.5311,W,3,05,1.5,023.9,M,036.4,M,,*75
$GPGXP,193140,3237.4838,N,11719.5311,W*58
$GPVTG,250.7,T,237.5,M,001.0,N,001.8,K*45
$GPGGA,193155.343,3237.4841,N,11719.5288,W,3,05,1.5,023.0,M,036.4,M,,*77
$GPGXP,193155,3237.4841,N,11719.5288,W*53
$GPVTG,275.2,T,262.0,M,002.5,N,004.7,K*4E
$GPGGA,193210.343,3237.4843,N,11719.5269,W,3,05,1.5,023.3,M,036.4,M,,*7B
$GPGXP,193210,3237.4843,N,11719.5269,W*5C
$GPVTG,094.7,T,081.5,M,000.6,N,001.0,K*4F
$GPGGA,193225.343,3237.4839,N,11719.5237,W,3,05,1.5,023.5,M,036.4,M,,*7D
$GPGXP,193225,3237.4839,N,11719.5237,W*5C
$GPVTG,071.2,T,058.0,M,001.2,N,002.1,K*47
$GPGGA,193240.343,3237.4866,N,11719.5220,W,3,05,1.5,019.3,M,036.4,M,,*7D
$GPGXP,193240,3237.4866,N,11719.5220,W*53
$GPVTG,253.0,T,239.8,M,000.0,N,000.0,K*4A
$GPGGA,193255.343,3237.4858,N,11719.5214,W,3,05,1.5,017.8,M,036.4,M,,*76
$GPGXP,193255,3237.4858,N,11719.5214,W*5D
$GPVTG,272.2,T,259.0,M,001.2,N,002.2,K*46
$GPGGA,193310.343,3237.4868,N,11719.5216,W,3,05,1.5,019.7,M,036.4,M,,*76
$GPGXP,193310,3237.4868,N,11719.5216,W*5C
$GPVTG,024.7,T,011.5,M,000.9,N,001.8,K*4A
$GPGGA,193325.343,3237.4863,N,11719.5219,W,3,05,1.5,019.2,M,036.4,M,,*71
$GPGXP,193325,3237.4863,N,11719.5219,W*5E
$GPVTG,223.2,T,210.0,M,001.0,N,001.9,K*45
$GPGGA,193340.343,3237.4853,N,11719.5218,W,3,05,1.5,020.2,M,036.4,M,,*7A
$GPGXP,193340,3237.4853,N,11719.5218,W*5F
$GPVTG,227.3,T,214.1,M,000.5,N,001.0,K*48
$GPGGA,193355.343,3237.4869,N,11719.5224,W,3,05,1.5,022.1,M,036.4,M,,*79
$GPGXP,193355,3237.4869,N,11719.5224,W*5D
$GPVTG,233.7,T,220.5,M,001.1,N,002.1,K*4D
$GPGGA,193410.343,3237.4859,N,11719.5235,W,3,05,1.5,021.5,M,036.4,M,,*7B
$GPGXP,193410,3237.4859,N,11719.5235,W*58
$GPVTG,219.2,T,206.0,M,000.0,N,000.0,K*42
$GPGGA,193425.343,3237.4852,N,11719.5248,W,3,05,1.5,021.4,M,036.4,M,,*7D
$GPGXP,193425,3237.4852,N,11719.5248,W*5F
$GPVTG,355.5,T,342.3,M,000.0,N,000.0,K*4E
$GPGGA,193440.343,3237.4867,N,11719.5260,W,3,05,1.5,022.8,M,036.4,M,,*7D
$GPGXP,193440,3237.4867,N,11719.5260,W*50
$GPVTG,355.5,T,342.3,M,000.7,N,001.2,K*4A
$GPGGA,193455.343,3237.4841,N,11719.5287,W,3,05,1.5,021.6,M,036.4,M,,*79
$GPGXP,193455,3237.4841,N,11719.5287,W*59
$GPVTG,335.6,T,322.4,M,000.5,N,001.0,K*4E
$GPGGA,193510.343,3237.4851,N,11719.5306,W,3,05,1.5,022.6,M,036.4,M,,*73
$GPGXP,193510,3237.4851,N,11719.5306,W*50
$GPVTG,255.0,T,241.8,M,001.3,N,002.4,K*47
$GPGGA,193525.343,3237.4870,N,11719.5328,W,3,05,1.5,020.0,M,036.4,M,,*7E
$GPGXP,193525,3237.4870,N,11719.5328,W*59
$GPVTG,230.8,T,217.6,M,001.2,N,002.2,K*46
$GPGGA,193540.343,3237.4865,N,11719.5345,W,3,05,1.5,021.4,M,036.4,M,,*77
$GPGXP,193540,3237.4865,N,11719.5345,W*55
$GPVTG,348.7,T,335.5,M,000.0,N,000.0,K*46
$GPGGA,193555.343,3237.4888,N,11719.5365,W,3,05,1.5,021.5,M,036.4,M,,*73
$GPGXP,193555,3237.4888,N,11719.5365,W*50
$GPVTG,022.9,T,009.7,M,000.9,N,001.7,K*46
$GPGGA,193610.343,3237.4915,N,11719.5378,W,3,05,1.5,021.5,M,036.4,M,,*78
$GPGXP,193610,3237.4915,N,11719.5378,W*5B
$GPVTG,016.3,T,003.1,M,000.6,N,001.1,K*4E
$GPGGA,193625.343,3237.4938,N,11719.5382,W,3,05,1.4,019.2,M,036.4,M,,*79
$GPGXP,193625,3237.4938,N,11719.5382,W*57
$GPVTG,250.0,T,236.8,M,001.1,N,002.0,K*44
$GPGGA,193640.343,3237.4951,N,11719.5388,W,3,05,1.4,018.7,M,036.4,M,,*7B
$GPGXP,193640,3237.4951,N,11719.5388,W*51
$GPVTG,237.9,T,224.7,M,001.6,N,003.0,K*46
$GPGGA,193655.343,3237.4971,N,11719.5382,W,3,05,1.4,018.4,M,036.4,M,,*74
$GPGXP,193655,3237.4971,N,11719.5382,W*5D
$GPVTG,035.8,T,022.6,M,000.7,N,001.3,K*43
$GPGGA,193710.343,3237.4989,N,11719.5379,W,3,05,1.4,017.4,M,036.4,M,,*78
$GPGXP,193710,3237.4989,N,11719.5379,W*5E
$GPVTG,030.7,T,017.5,M,001.0,N,001.9,K*40
$GPGGA,193725.343,3237.4996,N,11719.5379,W,3,05,1.4,017.4,M,036.4,M,,*70
$GPGXP,193725,3237.4996,N,11719.5379,W*56
$GPVTG,042.8,T,029.6,M,001.7,N,003.1,K*49
$GPGGA,193740.343,3237.5016,N,11719.5366,W,3,05,1.4,016.9,M,036.4,M,,*71
$GPGXP,193740,3237.5016,N,11719.5366,W*5B
$GPVTG,054.6,T,041.4,M,001.7,N,003.2,K*4F
$GPGGA,193755.343,3237.5027,N,11719.5365,W,3,05,1.4,017.1,M,036.4,M,,*7D
$GPGXP,193755,3237.5027,N,11719.5365,W*5E
$GPVTG,226.3,T,213.1,M,000.0,N,000.0,K*4A
$GPGGA,193810.343,3237.5030,N,11719.5370,W,3,05,1.4,020.8,M,036.4,M,,*7C
$GPGXP,193810,3237.5030,N,11719.5370,W*52
$GPVTG,210.6,T,197.4,M,001.6,N,002.9,K*4C
$GPGGA,193825.343,3237.5034,N,11719.5372,W,3,05,1.4,020.3,M,036.4,M,,*77
$GPGXP,193825,3237.5034,N,11719.5372,W*52
$GPVTG,043.1,T,029.9,M,001.1,N,002.1,K*49
$GPGGA,193840.343,3237.5028,N,11719.5364,W,3,05,1.4,020.4,M,036.4,M,,*79
$GPGXP,193840,3237.5028,N,11719.5364,W*5B
$GPVTG,048.7,T,035.5,M,000.4,N,000.7,K*45
$GPGGA,193855.343,3237.5017,N,11719.5355,W,3,05,1.4,021.3,M,036.4,M,,*75
$GPGXP,193855,3237.5017,N,11719.5355,W*51
$GPVTG,051.8,T,038.6,M,000.9,N,001.6,K*41
$GPGGA,193910.343,3237.5013,N,11719.5344,W,3,05,1.4,021.2,M,036.4,M,,*70
$GPGXP,193910,3237.5013,N,11719.5344,W*55
$GPVTG,052.0,T,038.8,M,000.9,N,001.7,K*45
$GPGGA,193925.343,3237.4989,N,11719.5321,W,3,05,1.4,020.6,M,036.4,M,,*7B
$GPGXP,193925,3237.4989,N,11719.5321,W*5B
$GPVTG,076.5,T,063.3,M,000.7,N,001.3,K*49
$GPGGA,193940.342,3237.5029,N,11719.5323,W,3,05,1.4,019.7,M,036.4,M,,*72
$GPGXP,193940,3237.5029,N,11719.5323,W*58
$GPVTG,053.3,T,040.1,M,000.9,N,001.7,K*41
$GPGGA,193955.342,3237.5037,N,11719.5303,W,3,05,1.4,019.4,M,036.4,M,,*78
$GPGXP,193955,3237.5037,N,11719.5303,W*51
$GPVTG,053.3,T,040.1,M,000.8,N,001.5,K*42
$GPGGA,194010.342,3237.5036,N,11719.5294,W,3,05,1.4,020.3,M,036.4,M,,*74
$GPGXP,194010,3237.5036,N,11719.5294,W*50
$GPVTG,037.4,T,024.2,M,000.7,N,001.4,K*48
$GPGGA,194025.342,3237.5035,N,11719.5281,W,3,05,1.4,018.7,M,036.4,M,,*7A
$GPGXP,194025,3237.5035,N,11719.5281,W*51
$GPVTG,200.6,T,187.4,M,000.4,N,000.7,K*43
$GPGGA,194040.342,3237.5025,N,11719.5271,W,3,05,1.4,018.7,M,036.4,M,,*77
$GPGXP,194040,3237.5025,N,11719.5271,W*5C
$GPVTG,200.6,T,187.4,M,000.0,N,000.0,K*40
$GPGGA,194055.342,3237.5023,N,11719.5258,W,3,05,1.4,018.7,M,036.4,M,,*7E
$GPGXP,194055,3237.5023,N,11719.5258,W*55
$GPVTG,086.3,T,073.1,M,001.3,N,002.4,K*42
$GPGGA,194110.342,3237.5018,N,11719.5237,W,3,05,1.4,018.5,M,036.4,M,,*7D
$GPGXP,194110,3237.5018,N,11719.5237,W*54
$GPVTG,058.7,T,045.5,M,001.6,N,002.9,K*4C
$GPGGA,194125.342,3237.5005,N,11719.5220,W,3,05,1.4,018.9,M,036.4,M,,*7D
$GPGXP,194125,3237.5005,N,11719.5220,W*58
$GPVTG,057.4,T,044.2,M,000.9,N,001.7,K*45
$GPGGA,194140.342,3237.4990,N,11719.5204,W,3,05,1.4,018.7,M,036.4,M,,*72
$GPGXP,194140,3237.4990,N,11719.5204,W*59
$GPVTG,057.4,T,044.2,M,000.0,N,000.0,K*4A
$GPGGA,194155.342,3237.4985,N,11719.5183,W,3,05,1.4,019.5,M,036.4,M,,*7D
$GPGXP,194155,3237.4985,N,11719.5183,W*55
$GPVTG,053.8,T,040.6,M,001.0,N,001.9,K*4B
$GPGGA,194210.342,3237.4979,N,11719.5151,W,3,05,1.4,019.2,M,036.4,M,,*74
$GPGXP,194210,3237.4979,N,11719.5151,W*5B
$GPVTG,090.2,T,077.0,M,001.5,N,002.7,K*44
$GPGGA,194225.342,3237.4961,N,11719.5122,W,3,05,1.4,018.8,M,036.4,M,,*74
$GPGXP,194225,3237.4961,N,11719.5122,W*50
$GPVTG,094.9,T,081.7,M,000.5,N,000.9,K*48
$GPGGA,194240.342,3237.4951,N,11719.5092,W,3,05,1.4,018.9,M,036.4,M,,*7F
$GPGXP,194240,3237.4951,N,11719.5092,W*5A
$GPVTG,203.3,T,190.1,M,002.2,N,004.1,K*40
$GPGGA,194255.342,3237.4936,N,11719.5062,W,3,05,1.4,019.4,M,036.4,M,,*79
$GPGXP,194255,3237.4936,N,11719.5062,W*50
$GPVTG,059.9,T,046.7,M,000.8,N,001.4,K*43
$GPGGA,194310.342,3237.4928,N,11719.5034,W,3,05,1.4,019.1,M,036.4,M,,*70
$GPGXP,194310,3237.4928,N,11719.5034,W*5C
$GPVTG,061.5,T,048.3,M,001.1,N,002.0,K*41
$GPGGA,194325.342,3237.4925,N,11719.5008,W,3,05,1.4,018.3,M,036.4,M,,*77
$GPGXP,194325,3237.4925,N,11719.5008,W*58
$GPVTG,077.7,T,064.5,M,000.4,N,000.8,K*42
$GPGGA,194340.342,3237.4916,N,11719.4998,W,3,05,1.4,019.2,M,036.4,M,,*75
$GPGXP,194340,3237.4916,N,11719.4998,W*5A
$GPVTG,033.4,T,020.2,M,001.3,N,002.4,K*4E
$GPGGA,194355.342,3237.4934,N,11719.4990,W,3,05,1.4,019.0,M,036.4,M,,*7B
$GPGXP,194355,3237.4934,N,11719.4990,W*56
$GPVTG,033.4,T,020.2,M,000.0,N,000.0,K*4A
$GPGGA,194410.342,3237.4912,N,11719.5000,W,3,05,1.4,022.5,M,036.4,M,,*75
$GPGXP,194410,3237.4912,N,11719.5000,W*55
$GPVTG,033.4,T,020.2,M,000.6,N,001.1,K*4C
$GPGGA,194425.342,3237.4909,N,11719.4998,W,3,05,1.4,023.1,M,036.4,M,,*75
$GPGXP,194425,3237.4909,N,11719.4998,W*50
$GPVTG,350.6,T,337.4,M,000.7,N,001.3,K*48
$GPGGA,194440.342,3237.4915,N,11719.5010,W,3,05,1.4,022.8,M,036.4,M,,*7B
$GPGXP,194440,3237.4915,N,11719.5010,W*56
$GPVTG,015.1,T,001.9,M,000.5,N,000.9,K*4F
$GPGGA,194455.342,3237.4930,N,11719.5018,W,3,05,1.4,022.8,M,036.4,M,,*70
$GPGXP,194455,3237.4930,N,11719.5018,W*5D
$GPVTG,015.1,T,001.9,M,001.1,N,002.1,K*40
$GPGGA,194510.342,3237.4926,N,11719.5041,W,3,05,1.4,023.2,M,036.4,M,,*70
$GPGXP,194510,3237.4926,N,11719.5041,W*56
$GPVTG,322.3,T,309.1,M,000.7,N,001.2,K*41
$GPGGA,194525.342,3237.4926,N,11719.5060,W,3,05,1.4,023.5,M,036.4,M,,*72
$GPGXP,194525,3237.4926,N,11719.5060,W*53
$GPVTG,246.0,T,232.8,M,001.1,N,002.0,K*47
$GPGGA,194540.342,3237.4934,N,11719.5083,W,3,05,1.4,022.5,M,036.4,M,,*7E
$GPGXP,194540,3237.4934,N,11719.5083,W*5E
$GPVTG,280.9,T,267.7,M,000.6,N,001.1,K*4F
$GPGGA,194555.342,3237.4937,N,11719.5107,W,3,05,1.4,023.2,M,036.4,M,,*72
$GPGXP,194555,3237.4937,N,11719.5107,W*54
$GPVTG,280.9,T,267.7,M,000.0,N,000.0,K*49
$GPGGA,194610.342,3237.4949,N,11719.5131,W,3,05,1.4,022.4,M,036.4,M,,*7B
$GPGXP,194610,3237.4949,N,11719.5131,W*5A
$GPVTG,280.9,T,267.7,M,000.7,N,001.3,K*4C
$GPGGA,194625.342,3237.4959,N,11719.5155,W,3,05,1.4,021.4,M,036.4,M,,*7D
$GPGXP,194625,3237.4959,N,11719.5155,W*5F
$GPVTG,315.7,T,302.5,M,000.8,N,001.5,K*46
$GPGGA,194640.342,3237.4974,N,11719.5185,W,3,05,1.4,022.5,M,036.4,M,,*7E
$GPGXP,194640,3237.4974,N,11719.5185,W*5E
$GPVTG,246.5,T,233.3,M,001.3,N,002.4,K*4E
$GPGGA,194655.342,3237.4993,N,11719.5215,W,3,05,1.4,023.0,M,036.4,M,,*7D
$GPGXP,194655,3237.4993,N,11719.5215,W*59
$GPVTG,338.6,T,325.4,M,001.2,N,002.3,K*42
$GPGGA,194710.342,3237.5009,N,11719.5241,W,3,05,1.4,022.9,M,036.4,M,,*7F
$GPGXP,194710,3237.5009,N,11719.5241,W*53
$GPVTG,336.8,T,323.6,M,000.8,N,001.5,K*48
$GPGGA,194725.342,3237.5018,N,11719.5273,W,3,05,1.4,023.4,M,036.4,M,,*74
$GPGXP,194725,3237.5018,N,11719.5273,W*54
$GPVTG,345.5,T,332.3,M,001.7,N,003.1,K*4C
$GPGGA,194740.342,3237.5035,N,11719.5303,W,3,05,1.4,022.8,M,036.4,M,,*73
$GPGXP,194740,3237.5035,N,11719.5303,W*5E
$GPVTG,220.4,T,207.2,M,000.7,N,001.2,K*49
$GPGGA,194755.342,3237.5052,N,11719.5331,W,3,05,1.4,021.9,M,036.4,M,,*75
$GPGXP,194755,3237.5052,N,11719.5331,W*5A
$GPVTG,347.2,T,334.0,M,000.6,N,001.2,K*4D
$GPGGA,194810.342,3237.5055,N,11719.5349,W,3,05,1.4,022.1,M,036.4,M,,*78
$GPGXP,194810,3237.5055,N,11719.5349,W*5C
$GPVTG,248.3,T,235.1,M,000.7,N,001.4,K*44
$GPGGA,194825.342,3237.5048,N,11719.5366,W,3,05,1.4,021.4,M,036.4,M,,*79
$GPGXP,194825,3237.5048,N,11719.5366,W*5B
$GPVTG,215.3,T,202.1,M,000.4,N,000.8,K*46
$GPGGA,194840.342,3237.5036,N,11719.5385,W,3,05,1.4,020.5,M,036.4,M,,*7E
$GPGXP,194840,3237.5036,N,11719.5385,W*5C
$GPVTG,172.3,T,159.1,M,000.5,N,000.9,K*49
$GPGGA,194855.342,3237.5029,N,11719.5398,W,3,05,1.4,021.3,M,036.4,M,,*7F
$GPGXP,194855,3237.5029,N,11719.5398,W*5A
$GPVTG,172.3,T,159.1,M,000.4,N,000.8,K*49
$GPGGA,194910.342,3237.5023,N,11719.5401,W,3,05,1.4,021.7,M,036.4,M,,*76
$GPGXP,194910,3237.5023,N,11719.5401,W*57
$GPVTG,172.3,T,159.1,M,000.0,N,000.0,K*45
$GPGGA,194925.342,3237.5008,N,11719.5401,W,3,05,1.4,022.0,M,036.4,M,,*7D
$GPGXP,194925,3237.5008,N,11719.5401,W*58
$GPVTG,172.3,T,159.1,M,000.0,N,000.0,K*45
$GPGGA,194940.342,3237.5010,N,11719.5387,W,3,05,1.4,022.3,M,036.4,M,,*7D
$GPGXP,194940,3237.5010,N,11719.5387,W*5B
$GPVTG,172.3,T,159.1,M,000.0,N,000.0,K*45
$GPGGA,194955.342,3237.5007,N,11719.5379,W,3,05,1.4,021.3,M,036.4,M,,*7D
$GPGXP,194955,3237.5007,N,11719.5379,W*58
$GPVTG,172.3,T,159.1,M,000.9,N,001.7,K*4A
$GPGGA,195010.342,3237.4995,N,11719.5387,W,3,05,1.4,022.0,M,036.4,M,,*76
$GPGXP,195010,3237.4995,N,11719.5387,W*53
$GPVTG,172.3,T,159.1,M,000.0,N,000.0,K*45
$GPGGA,195025.342,3237.4981,N,11719.5389,W,3,05,1.4,022.1,M,036.4,M,,*7A
$GPGXP,195025,3237.4981,N,11719.5389,W*5E
$GPVTG,172.3,T,159.1,M,000.0,N,000.0,K*45
$GPGGA,195040.342,3237.4978,N,11719.5380,W,3,05,1.4,022.7,M,036.4,M,,*70
$GPGXP,195040,3237.4978,N,11719.5380,W*52
$GPVTG,172.3,T,159.1,M,000.8,N,001.5,K*49
$GPGGA,195055.342,3237.4976,N,11719.5366,W,3,05,1.4,021.5,M,036.4,M,,*73
$GPGXP,195055,3237.4976,N,11719.5366,W*50
$GPVTG,172.3,T,159.1,M,000.8,N,001.6,K*4A
$GPGGA,195110.342,3237.4977,N,11719.5353,W,3,05,1.4,020.7,M,036.4,M,,*77
$GPGXP,195110,3237.4977,N,11719.5353,W*57
$GPVTG,036.6,T,023.4,M,000.8,N,001.5,K*44
$GPGGA,195125.342,3237.4973,N,11719.5333,W,3,05,1.4,020.9,M,036.4,M,,*7D
$GPGXP,195125,3237.4973,N,11719.5333,W*53
$GPVTG,213.4,T,200.2,M,001.7,N,003.2,K*4D
$GPGGA,195140.342,3237.4970,N,11719.5325,W,3,05,1.4,020.0,M,036.4,M,,*73
$GPGXP,195140,3237.4970,N,11719.5325,W*54
$GPVTG,040.4,T,027.2,M,000.7,N,001.4,K*4B
$GPGGA,195155.342,3237.4981,N,11719.5316,W,3,05,1.4,020.1,M,036.4,M,,*78
$GPGXP,195155,3237.4981,N,11719.5316,W*5E
$GPVTG,053.2,T,040.0,M,000.0,N,000.0,K*4E
$GPGGA,195210.342,3237.4982,N,11719.5313,W,3,05,1.4,021.1,M,036.4,M,,*7D
$GPGXP,195210,3237.4982,N,11719.5313,W*5A
$GPVTG,024.2,T,011.0,M,001.6,N,002.9,K*46
$GPGGA,195225.342,3237.4980,N,11719.5306,W,3,05,1.4,020.5,M,036.4,M,,*78
$GPGXP,195225,3237.4980,N,11719.5306,W*5A
$GPVTG,074.3,T,061.1,M,001.5,N,002.7,K*49
$GPGGA,195240.342,3237.4979,N,11719.5288,W,3,05,1.4,020.7,M,036.4,M,,*78
$GPGXP,195240,3237.4979,N,11719.5288,W*58
$GPVTG,038.6,T,025.4,M,000.4,N,000.8,K*4C
$GPGGA,195255.342,3237.4969,N,11719.5278,W,3,05,1.4,020.3,M,036.4,M,,*76
$GPGXP,195255,3237.4969,N,11719.5278,W*52
$GPVTG,178.0,T,164.8,M,001.2,N,002.2,K*48
$GPGGA,195310.342,3237.4963,N,11719.5258,W,3,05,1.4,020.2,M,036.4,M,,*7F
$GPGXP,195310,3237.4963,N,11719.5258,W*5A
$GPVTG,057.9,T,044.7,M,000.7,N,001.3,K*47
$GPGGA,195325.342,3237.4964,N,11719.5233,W,3,05,1.4,019.2,M,036.4,M,,*79
$GPGXP,195325,3237.4964,N,11719.5233,W*56
$GPVTG,070.1,T,056.9,M,000.6,N,001.1,K*44
$GPGGA,195340.342,3237.4970,N,11719.5211,W,3,05,1.4,019.2,M,036.4,M,,*7F
$GPGXP,195340,3237.4970,N,11719.5211,W*50
$GPVTG,067.8,T,054.6,M,000.6,N,001.1,K*46
$GPGGA,195355.342,3237.4973,N,11719.5192,W,3,05,1.4,017.9,M,036.4,M,,*75
$GPGXP,195355,3237.4973,N,11719.5192,W*5F
$GPVTG,227.0,T,213.8,M,001.3,N,002.5,K*44
$GPGGA,195410.342,3237.4970,N,11719.5176,W,3,05,1.4,018.6,M,036.4,M,,*7A
$GPGXP,195410,3237.4970,N,11719.5176,W*50
$GPVTG,043.6,T,030.4,M,000.9,N,001.6,K*46
$GPGGA,195425.342,3237.4975,N,11719.5160,W,3,05,1.4,019.1,M,036.4,M,,*78
$GPGXP,195425,3237.4975,N,11719.5160,W*54
$GPVTG,051.7,T,038.5,M,001.9,N,003.5,K*4D
$GPGGA,195440.342,3237.4972,N,11719.5145,W,3,05,1.4,018.3,M,036.4,M,,*78
$GPGXP,195440,3237.4972,N,11719.5145,W*57
$GPVTG,198.1,T,184.9,M,001.1,N,002.0,K*49
$GPGGA,195455.342,3237.4964,N,11719.5134,W,3,05,1.4,020.0,M,036.4,M,,*75
$GPGXP,195455,3237.4964,N,11719.5134,W*52
$GPVTG,024.9,T,011.7,M,000.8,N,001.4,K*4B
$GPGGA,195510.342,3237.4962,N,11719.5110,W,3,05,1.4,020.1,M,036.4,M,,*74
$GPGXP,195510,3237.4962,N,11719.5110,W*52
$GPVTG,052.3,T,039.1,M,000.8,N,001.5,K*4D
$GPGGA,195525.342,3237.4964,N,11719.5088,W,3,05,1.4,018.7,M,036.4,M,,*79
$GPGXP,195525,3237.4964,N,11719.5088,W*52
$GPVTG,046.5,T,033.3,M,000.9,N,001.7,K*45
$GPGGA,195540.342,3237.4966,N,11719.5062,W,3,05,1.4,015.5,M,036.4,M,,*73
$GPGXP,195540,3237.4966,N,11719.5062,W*57
$GPVTG,062.8,T,049.6,M,001.5,N,002.8,K*47
$GPGGA,195555.342,3237.4963,N,11719.5043,W,3,05,1.4,018.6,M,036.4,M,,*7F
$GPGXP,195555,3237.4963,N,11719.5043,W*55
$GPVTG,046.5,T,033.3,M,000.0,N,000.0,K*4A
$GPGGA,195610.342,3237.4967,N,11719.5035,W,3,05,1.4,019.1,M,036.4,M,,*7E
$GPGXP,195610,3237.4967,N,11719.5035,W*52
$GPVTG,036.8,T,023.6,M,000.0,N,000.0,K*44
$GPGGA,195625.342,3237.4977,N,11719.5026,W,3,05,1.4,018.9,M,036.4,M,,*72
$GPGXP,195625,3237.4977,N,11719.5026,W*57
$GPVTG,041.3,T,028.1,M,000.9,N,001.7,K*4C
$GPGGA,195640.342,3237.4987,N,11719.5016,W,3,05,1.4,018.5,M,036.4,M,,*71
$GPGXP,195640,3237.4987,N,11719.5016,W*58
$GPVTG,019.6,T,006.4,M,001.4,N,002.6,K*43
$GPGGA,195655.342,3237.4993,N,11719.5014,W,3,05,1.4,017.6,M,036.4,M,,*7E
$GPGXP,195655,3237.4993,N,11719.5014,W*5B
$GPVTG,019.0,T,005.8,M,001.3,N,002.4,K*4F
$GPGGA,195710.342,3237.5011,N,11719.5019,W,3,05,1.4,017.5,M,036.4,M,,*72
$GPGXP,195710,3237.5011,N,11719.5019,W*54
$GPVTG,227.5,T,214.3,M,000.0,N,000.0,K*48
$GPGGA,195725.342,3237.5019,N,11719.5027,W,3,05,1.4,019.4,M,036.4,M,,*7E
$GPGXP,195725,3237.5019,N,11719.5027,W*57
$GPVTG,215.9,T,202.7,M,001.5,N,002.8,K*48
$GPGGA,195740.342,3237.5018,N,11719.5031,W,3,05,1.4,020.1,M,036.4,M,,*74
$GPGXP,195740,3237.5018,N,11719.5031,W*52
$GPVTG,015.7,T,002.5,M,000.4,N,000.8,K*46
$GPGGA,195755.342,3237.5031,N,11719.5039,W,3,05,1.4,020.8,M,036.4,M,,*7A
$GPGXP,195755,3237.5031,N,11719.5039,W*55
$GPVTG,357.7,T,344.5,M,000.9,N,001.7,K*41
$GPGGA,195810.342,3237.5045,N,11719.5048,W,3,05,1.4,020.4,M,036.4,M,,*7D
$GPGXP,195810,3237.5045,N,11719.5048,W*5E
$GPVTG,005.1,T,351.9,M,000.0,N,000.0,K*44
$GPGGA,195825.342,3237.5053,N,11719.5064,W,3,05,1.4,020.8,M,036.4,M,,*7E
$GPGXP,195825,3237.5053,N,11719.5064,W*51
$GPVTG,005.1,T,351.9,M,000.4,N,000.8,K*48
$GPGGA,195840.342,3237.5055,N,11719.5081,W,3,05,1.4,020.6,M,036.4,M,,*7E
$GPGXP,195840,3237.5055,N,11719.5081,W*5F
$GPVTG,005.1,T,351.9,M,000.9,N,001.7,K*4B
$GPGGA,195855.342,3237.5050,N,11719.5109,W,3,05,1.4,020.0,M,036.4,M,,*78
$GPGXP,195855,3237.5050,N,11719.5109,W*5F
$GPVTG,216.9,T,203.7,M,000.7,N,001.2,K*40
$GPGGA,195910.342,3237.5062,N,11719.5125,W,3,05,1.4,020.5,M,036.4,M,,*72
$GPGXP,195910,3237.5062,N,11719.5125,W*50
$GPVTG,324.5,T,311.3,M,001.1,N,002.0,K*4C
$GPGGA,195925.342,3237.5070,N,11719.5135,W,3,05,1.4,014.2,M,036.4,M,,*76
$GPGXP,195925,3237.5070,N,11719.5135,W*54
$GPVTG,324.5,T,311.3,M,000.6,N,001.1,K*48
$GPGGA,195940.342,3237.5038,N,11719.5167,W,3,05,1.6,019.2,M,036.4,M,,*71
$GPGXP,195940,3237.5038,N,11719.5167,W*5C
$GPVTG,193.0,T,179.8,M,000.0,N,000.0,K*42
$GPGGA,195955.342,3237.5047,N,11719.5163,W,3,05,1.4,014.7,M,036.4,M,,*73
$GPGXP,195955,3237.5047,N,11719.5163,W*54
$GPVTG,173.8,T,160.6,M,001.5,N,002.8,K*4C
$GPGGA,200010.342,3237.5030,N,11719.5168,W,3,05,1.4,015.0,M,036.4,M,,*79
$GPGXP,200010,3237.5030,N,11719.5168,W*58
$GPVTG,142.1,T,128.9,M,001.3,N,002.5,K*4F
$GPGGA,200025.342,3237.5018,N,11719.5168,W,3,05,1.4,014.5,M,036.4,M,,*71
$GPGXP,200025,3237.5018,N,11719.5168,W*54
$GPVTG,145.8,T,132.6,M,000.0,N,000.0,K*40
$GPGGA,200040.342,3237.4983,N,11719.5163,W,3,05,1.6,017.9,M,036.4,M,,*7E
$GPGXP,200040,3237.4983,N,11719.5163,W*56
$GPVTG,145.8,T,132.6,M,000.4,N,000.8,K*4C
$GPGGA,200055.342,3237.4962,N,11719.5166,W,3,05,1.6,016.0,M,036.4,M,,*78
$GPGXP,200055,3237.4962,N,11719.5166,W*58
$GPVTG,233.6,T,220.4,M,000.0,N,000.0,K*4E
$GPGGA,200110.342,3237.4949,N,11719.5173,W,3,05,1.6,015.1,M,036.4,M,,*77
$GPGXP,200110,3237.4949,N,11719.5173,W*55
$GPVTG,215.8,T,202.6,M,001.3,N,002.3,K*45
$GPGGA,200125.342,3237.4938,N,11719.5180,W,3,05,1.6,015.0,M,036.4,M,,*7A
$GPGXP,200125,3237.4938,N,11719.5180,W*59
$GPVTG,187.4,T,174.2,M,000.0,N,000.0,K*44
$GPGGA,200140.342,3237.4931,N,11719.5191,W,3,05,1.6,014.9,M,036.4,M,,*78
$GPGXP,200140,3237.4931,N,11719.5191,W*53
$GPVTG,247.9,T,234.7,M,001.1,N,002.1,K*47
$GPGGA,200155.341,3237.4926,N,11719.5214,W,3,05,1.6,016.9,M,036.4,M,,*75
$GPGXP,200155,3237.4926,N,11719.5214,W*5F
$GPVTG,200.4,T,187.2,M,001.0,N,001.9,K*4D
$GPGGA,200210.341,3237.4926,N,11719.5231,W,3,05,1.6,017.8,M,036.4,M,,*70
$GPGXP,200210,3237.4926,N,11719.5231,W*5A
$GPVTG,194.2,T,181.0,M,000.6,N,001.1,K*4E
$GPGGA,200225.341,3237.4923,N,11719.5251,W,3,05,1.6,017.3,M,036.4,M,,*7E
$GPGXP,200225,3237.4923,N,11719.5251,W*5F
$GPVTG,194.2,T,181.0,M,000.5,N,001.0,K*4C
$GPGGA,200240.341,3237.4923,N,11719.5260,W,3,05,1.6,017.7,M,036.4,M,,*7B
$GPGXP,200240,3237.4923,N,11719.5260,W*5E
$GPVTG,194.2,T,181.0,M,000.7,N,001.3,K*4D
$GPGGA,200255.341,3237.4921,N,11719.5261,W,3,05,1.6,016.7,M,036.4,M,,*7D
$GPGXP,200255,3237.4921,N,11719.5261,W*59
$GPVTG,031.5,T,018.3,M,000.8,N,001.5,K*4F
$GPGGA,200310.341,3237.4927,N,11719.5260,W,3,05,1.6,015.8,M,036.4,M,,*76
$GPGXP,200310,3237.4927,N,11719.5260,W*5E
$GPVTG,011.1,T,357.9,M,000.0,N,000.0,K*47
$GPGGA,200325.341,3237.4936,N,11719.5246,W,3,05,1.6,019.9,M,036.4,M,,*79
$GPGXP,200325,3237.4936,N,11719.5246,W*5C
$GPVTG,046.7,T,033.5,M,000.7,N,001.2,K*4A
$GPGGA,200340.341,3237.4958,N,11719.5251,W,3,05,1.6,018.4,M,036.4,M,,*78
$GPGXP,200340,3237.4958,N,11719.5251,W*51
$GPVTG,017.7,T,004.5,M,000.9,N,001.6,K*40
$GPGGA,200355.341,3237.4984,N,11719.5255,W,3,05,1.6,017.1,M,036.4,M,,*73
$GPGXP,200355,3237.4984,N,11719.5255,W*50
$GPVTG,039.8,T,026.6,M,000.7,N,001.3,K*4B
$GPGGA,200410.341,3237.4998,N,11719.5252,W,3,05,1.6,016.2,M,036.4,M,,*7D
$GPGXP,200410,3237.4998,N,11719.5252,W*5C
$GPVTG,028.6,T,015.4,M,002.0,N,003.6,K*45
$GPGGA,200425.341,3237.5020,N,11719.5253,W,3,05,1.6,016.5,M,036.4,M,,*76
$GPGXP,200425,3237.5020,N,11719.5253,W*50
$GPVTG,021.5,T,008.3,M,000.0,N,000.0,K*43
$GPGGA,200440.341,3237.5029,N,11719.5248,W,3,05,1.6,017.2,M,036.4,M,,*70
$GPGXP,200440,3237.5029,N,11719.5248,W*50
$GPVTG,055.2,T,042.0,M,000.7,N,001.3,K*4F
$GPGGA,200455.341,3237.5037,N,11719.5233,W,3,05,1.6,016.8,M,036.4,M,,*7C
$GPGXP,200455,3237.5037,N,11719.5233,W*57
$GPVTG,028.9,T,015.7,M,000.9,N,001.6,K*40
$GPGGA,200510.341,3237.5044,N,11719.5226,W,3,05,1.6,015.9,M,036.4,M,,*7E
$GPGXP,200510,3237.5044,N,11719.5226,W*57
$GPVTG,046.7,T,033.5,M,001.8,N,003.3,K*47
$GPGGA,200525.341,3237.5053,N,11719.5204,W,3,05,1.6,016.3,M,036.4,M,,*77
$GPGXP,200525,3237.5053,N,11719.5204,W*57
$GPVTG,049.8,T,036.6,M,000.6,N,001.0,K*4F
$GPGGA,200540.341,3237.5053,N,11719.5185,W,3,05,1.6,017.7,M,036.4,M,,*7B
$GPGXP,200540,3237.5053,N,11719.5185,W*5E
$GPVTG,051.0,T,037.8,M,000.0,N,000.0,K*46
$GPGGA,200555.341,3237.5056,N,11719.5167,W,3,05,1.6,017.2,M,036.4,M,,*73
$GPGXP,200555,3237.5056,N,11719.5167,W*53
$GPVTG,065.3,T,052.1,M,000.8,N,001.4,K*45
$GPGGA,200610.341,3237.5057,N,11719.5145,W,3,05,1.6,017.9,M,036.4,M,,*7B
$GPGXP,200610,3237.5057,N,11719.5145,W*50
$GPVTG,013.0,T,359.8,M,001.1,N,002.1,K*48
$GPGGA,200625.341,3237.5066,N,11719.5136,W,3,05,1.6,016.7,M,036.4,M,,*74
$GPGXP,200625,3237.5066,N,11719.5136,W*50
$GPVTG,055.1,T,041.9,M,000.0,N,000.0,K*43
$GPGGA,200640.341,3237.5072,N,11719.5123,W,3,05,1.6,015.9,M,036.4,M,,*7B
$GPGXP,200640,3237.5072,N,11719.5123,W*52
$GPVTG,055.1,T,041.9,M,000.0,N,000.0,K*43
$GPGGA,200655.341,3237.5082,N,11719.5122,W,3,05,1.6,014.6,M,036.4,M,,*7F
$GPGXP,200655,3237.5082,N,11719.5122,W*58
$GPVTG,055.1,T,041.9,M,000.0,N,000.0,K*43
$GPGGA,200710.341,3237.5092,N,11719.5122,W,3,05,1.6,017.8,M,036.4,M,,*73
$GPGXP,200710,3237.5092,N,11719.5122,W*59
$GPVTG,026.4,T,013.2,M,000.4,N,000.8,K*42
$GPGGA,200725.341,3237.5100,N,11719.5121,W,3,05,1.6,018.4,M,036.4,M,,*7F
$GPGXP,200725,3237.5100,N,11719.5121,W*56
$GPVTG,026.4,T,013.2,M,000.4,N,000.7,K*4D
$GPGGA,200740.341,3237.5104,N,11719.5118,W,3,05,1.6,017.9,M,036.4,M,,*70
$GPGXP,200740,3237.5104,N,11719.5118,W*5B
$GPVTG,026.4,T,013.2,M,000.8,N,001.5,K*42
$GPGGA,200755.341,3237.5105,N,11719.5111,W,3,05,1.6,016.7,M,036.4,M,,*73
$GPGXP,200755,3237.5105,N,11719.5111,W*57
$GPVTG,147.3,T,134.1,M,000.5,N,001.0,K*4C
$GPGGA,200810.341,3237.5104,N,11719.5115,W,3,05,1.6,018.6,M,036.4,M,,*77
$GPGXP,200810,3237.5104,N,11719.5115,W*5C
$GPVTG,147.3,T,134.1,M,000.0,N,000.0,K*48
$GPGGA,200825.341,3237.5099,N,11719.5102,W,3,05,1.6,018.2,M,036.4,M,,*76
$GPGXP,200825,3237.5099,N,11719.5102,W*59
$GPVTG,147.3,T,134.1,M,000.6,N,001.2,K*4D
$GPGGA,200840.341,3237.5091,N,11719.5085,W,3,05,1.6,018.1,M,036.4,M,,*70
$GPGXP,200840,3237.5091,N,11719.5085,W*5C
$GPVTG,163.4,T,150.2,M,001.2,N,002.2,K*4B
$GPGGA,200855.341,3237.5088,N,11719.5069,W,3,05,1.6,018.8,M,036.4,M,,*77
$GPGXP,200855,3237.5088,N,11719.5069,W*52
$GPVTG,022.2,T,009.0,M,001.0,N,001.9,K*4C
$GPGGA,200910.341,3237.5082,N,11719.5059,W,3,05,1.6,017.2,M,036.4,M,,*7B
$GPGXP,200910,3237.5082,N,11719.5059,W*5B
$GPVTG,181.2,T,168.0,M,000.7,N,001.3,K*4E
$GPGGA,200925.341,3237.5079,N,11719.5057,W,3,05,1.6,017.1,M,036.4,M,,*74
$GPGXP,200925,3237.5079,N,11719.5057,W*57
$GPVTG,181.2,T,168.0,M,000.6,N,001.1,K*4D
$GPGGA,200940.341,3237.5079,N,11719.5051,W,3,05,1.6,018.2,M,036.4,M,,*7D
$GPGXP,200940,3237.5079,N,11719.5051,W*52
$GPVTG,181.2,T,168.0,M,000.6,N,001.0,K*4C
$GPGGA,200955.341,3237.5073,N,11719.5046,W,3,05,1.6,016.7,M,036.4,M,,*7E
$GPGXP,200955,3237.5073,N,11719.5046,W*5A
$GPVTG,194.7,T,181.5,M,001.7,N,003.2,K*4F
$GPGGA,201010.341,3237.5066,N,11719.5033,W,3,05,1.6,018.0,M,036.4,M,,*78
$GPGXP,201010,3237.5066,N,11719.5033,W*55
$GPVTG,194.9,T,181.7,M,001.9,N,003.4,K*4B
$GPGGA,201025.341,3237.5059,N,11719.5017,W,3,05,1.6,018.8,M,036.4,M,,*7C
$GPGXP,201025,3237.5059,N,11719.5017,W*59
$GPVTG,034.6,T,021.4,M,001.0,N,001.9,K*41
$GPGGA,201040.341,3237.5053,N,11719.4998,W,3,05,1.6,018.2,M,036.4,M,,*70
$GPGXP,201040,3237.5053,N,11719.4998,W*5F
$GPVTG,047.5,T,034.3,M,001.1,N,002.1,K*4F
$GPGGA,201055.341,3237.5046,N,11719.4983,W,3,05,1.6,019.0,M,036.4,M,,*79
$GPGXP,201055,3237.5046,N,11719.4983,W*55
$GPVTG,051.2,T,038.0,M,000.0,N,000.0,K*43
$GPGGA,201110.341,3237.5036,N,11719.4979,W,3,05,1.6,018.0,M,036.4,M,,*7A
$GPGXP,201110,3237.5036,N,11719.4979,W*57
$GPVTG,051.2,T,038.0,M,000.8,N,001.4,K*4E
$GPGGA,201125.341,3237.5031,N,11719.4974,W,3,05,1.6,017.4,M,036.4,M,,*7D
$GPGXP,201125,3237.5031,N,11719.4974,W*5B
$GPVTG,026.9,T,013.7,M,000.5,N,001.0,K*42
$GPGGA,201140.341,3237.5034,N,11719.4969,W,3,05,1.6,017.3,M,036.4,M,,*70
$GPGXP,201140,3237.5034,N,11719.4969,W*51
$GPVTG,019.2,T,006.0,M,000.9,N,001.6,K*4C
$GPGGA,201155.341,3237.5045,N,11719.4967,W,3,05,1.6,017.6,M,036.4,M,,*79
$GPGXP,201155,3237.5045,N,11719.4967,W*5D
$GPVTG,034.2,T,021.0,M,000.9,N,001.6,K*46
$GPGGA,201210.341,3237.5050,N,11719.4975,W,3,05,1.6,016.1,M,036.4,M,,*7A
$GPGXP,201210,3237.5050,N,11719.4975,W*58
$GPVTG,034.2,T,021.0,M,000.4,N,000.8,K*44
$GPGGA,201225.341,3237.5055,N,11719.4980,W,3,05,1.6,017.1,M,036.4,M,,*72
$GPGXP,201225,3237.5055,N,11719.4980,W*51
$GPVTG,034.2,T,021.0,M,001.1,N,002.0,K*4A
$GPGGA,201240.341,3237.5066,N,11719.4987,W,3,05,1.6,017.7,M,036.4,M,,*70
$GPGXP,201240,3237.5066,N,11719.4987,W*55
$GPVTG,224.9,T,211.7,M,000.6,N,001.0,K*41
$GPGGA,201255.341,3237.5076,N,11719.5000,W,3,05,1.6,018.5,M,036.4,M,,*7F
$GPGXP,201255,3237.5076,N,11719.5000,W*57
$GPVTG,224.9,T,211.7,M,000.0,N,000.0,K*46
$GPGGA,201310.341,3237.5077,N,11719.5017,W,3,05,1.6,018.1,M,036.4,M,,*7C
$GPGXP,201310,3237.5077,N,11719.5017,W*50
$GPVTG,224.9,T,211.7,M,000.9,N,001.6,K*48
$GPGGA,201325.341,3237.5078,N,11719.5043,W,3,05,1.6,014.8,M,036.4,M,,*71
$GPGXP,201325,3237.5078,N,11719.5043,W*58
$GPVTG,324.1,T,310.9,M,000.9,N,001.6,K*4F
$GPGGA,201340.341,3237.5090,N,11719.5057,W,3,05,1.6,017.1,M,036.4,M,,*7B
$GPGXP,201340,3237.5090,N,11719.5057,W*58
$GPVTG,214.0,T,200.8,M,000.0,N,000.0,K*43
$GPGGA,201355.341,3237.5086,N,11719.5076,W,3,05,1.6,017.5,M,036.4,M,,*7F
$GPGXP,201355,3237.5086,N,11719.5076,W*58
$GPVTG,013.4,T,000.2,M,001.8,N,003.3,K*43
$GPGGA,201410.341,3237.5081,N,11719.5090,W,3,05,1.6,017.6,M,036.4,M,,*75
$GPGXP,201410,3237.5081,N,11719.5090,W*51
$GPVTG,214.1,T,200.9,M,000.5,N,000.9,K*4F
$GPGGA,201425.341,3237.5069,N,11719.5104,W,3,05,1.6,018.5,M,036.4,M,,*75
$GPGXP,201425,3237.5069,N,11719.5104,W*5D
$GPVTG,216.9,T,203.7,M,001.9,N,003.5,K*4A
$GPGGA,201440.341,3237.5058,N,11719.5128,W,3,05,1.6,017.8,M,036.4,M,,*78
$GPGXP,201440,3237.5058,N,11719.5128,W*52
$GPVTG,233.3,T,220.1,M,000.8,N,001.4,K*43
$GPGGA,201455.341,3237.5060,N,11719.5151,W,3,05,1.6,018.0,M,036.4,M,,*7E
$GPGXP,201455,3237.5060,N,11719.5151,W*53
$GPVTG,288.8,T,275.6,M,000.0,N,000.0,K*42
$GPGGA,201510.341,3237.5057,N,11719.5161,W,3,05,1.6,018.4,M,036.4,M,,*7D
$GPGXP,201510,3237.5057,N,11719.5161,W*54
$GPVTG,209.7,T,196.5,M,000.9,N,001.6,K*47
$GPGGA,201525.341,3237.5052,N,11719.5175,W,3,05,1.6,017.1,M,036.4,M,,*71
$GPGXP,201525,3237.5052,N,11719.5175,W*52
$GPVTG,233.5,T,220.3,M,001.2,N,002.1,K*4A
$GPGGA,201540.341,3237.5053,N,11719.5185,W,3,05,1.6,017.0,M,036.4,M,,*7D
$GPGXP,201540,3237.5053,N,11719.5185,W*5F
$GPVTG,233.5,T,220.3,M,000.7,N,001.2,K*4E
$GPGGA,201555.341,3237.5055,N,11719.5197,W,3,05,1.7,016.6,M,036.4,M,,*7A
$GPGXP,201555,3237.5055,N,11719.5197,W*5E
$GPVTG,260.8,T,247.6,M,000.9,N,001.7,K*4A
$GPGGA,201610.341,3237.5060,N,11719.5208,W,3,05,1.7,017.7,M,036.4,M,,*7B
$GPGXP,201610,3237.5060,N,11719.5208,W*5F
$GPVTG,254.8,T,241.6,M,000.7,N,001.3,K*41
$GPGGA,201625.341,3237.5065,N,11719.5228,W,3,05,1.7,017.2,M,036.4,M,,*7F
$GPGXP,201625,3237.5065,N,11719.5228,W*5E
$GPVTG,234.7,T,221.5,M,000.0,N,000.0,K*48
$GPGGA,201640.341,3237.5069,N,11719.5252,W,3,05,1.7,016.9,M,036.4,M,,*77
$GPGXP,201640,3237.5069,N,11719.5252,W*5C
$GPVTG,198.8,T,185.6,M,000.0,N,000.0,K*4C
$GPGGA,201655.341,3237.5079,N,11719.5261,W,3,05,1.7,019.0,M,036.4,M,,*74
$GPGXP,201655,3237.5079,N,11719.5261,W*59
$GPVTG,198.8,T,185.6,M,000.7,N,001.3,K*49
$GPGGA,201710.341,3237.5081,N,11719.5280,W,3,05,1.7,016.3,M,036.4,M,,*70
$GPGXP,201710,3237.5081,N,11719.5280,W*51
$GPVTG,048.0,T,034.8,M,000.5,N,000.9,K*41
$GPGGA,201725.341,3237.5087,N,11719.5280,W,3,05,1.7,016.6,M,036.4,M,,*75
$GPGXP,201725,3237.5087,N,11719.5280,W*51
$GPVTG,218.0,T,204.8,M,000.8,N,001.4,K*46
$GPGGA,201740.341,3237.5086,N,11719.5276,W,3,05,1.7,017.2,M,036.4,M,,*7B
$GPGXP,201740,3237.5086,N,11719.5276,W*5A
$GPVTG,059.2,T,046.0,M,000.7,N,001.2,K*46
$GPGGA,201755.341,3237.5083,N,11719.5272,W,3,05,1.7,017.7,M,036.4,M,,*7B
$GPGXP,201755,3237.5083,N,11719.5272,W*5F
$GPVTG,059.2,T,046.0,M,000.4,N,000.8,K*4E
$GPGGA,201810.341,3237.5081,N,11719.5263,W,3,05,1.7,018.1,M,036.4,M,,*7E
$GPGXP,201810,3237.5081,N,11719.5263,W*53
$GPVTG,059.2,T,046.0,M,000.6,N,001.1,K*44
$GPGGA,201825.341,3237.5074,N,11719.5254,W,3,05,1.7,018.6,M,036.4,M,,*71
$GPGXP,201825,3237.5074,N,11719.5254,W*5B
$GPVTG,059.2,T,046.0,M,000.7,N,001.3,K*47
$GPGGA,201840.341,3237.5070,N,11719.5248,W,3,05,1.7,017.0,M,036.4,M,,*72
$GPGXP,201840,3237.5070,N,11719.5248,W*51
$GPVTG,059.2,T,046.0,M,000.7,N,001.3,K*47
$GPGGA,201855.341,3237.5072,N,11719.5249,W,3,05,1.7,016.8,M,036.4,M,,*7C
$GPGXP,201855,3237.5072,N,11719.5249,W*56
$GPVTG,239.3,T,226.1,M,001.0,N,001.8,K*4A
$GPGGA,201910.341,3237.5076,N,11719.5249,W,3,05,1.7,016.3,M,036.4,M,,*73
$GPGXP,201910,3237.5076,N,11719.5249,W*52
$GPVTG,016.4,T,003.2,M,001.2,N,002.3,K*4E
$GPGGA,201925.341,3237.5083,N,11719.5253,W,3,05,1.7,017.0,M,036.4,M,,*76
$GPGXP,201925,3237.5083,N,11719.5253,W*55
$GPVTG,224.7,T,211.5,M,001.1,N,002.0,K*48
$GPGGA,201940.341,3237.5098,N,11719.5249,W,3,05,1.8,016.1,M,036.4,M,,*7B
$GPGXP,201940,3237.5098,N,11719.5249,W*57
$GPVTG,230.1,T,216.9,M,000.0,N,000.0,K*42
$GPGGA,201955.341,3237.5105,N,11719.5262,W,3,05,1.8,017.6,M,036.4,M,,*75
$GPGXP,201955,3237.5105,N,11719.5262,W*5F
$GPVTG,306.1,T,292.9,M,000.4,N,000.8,K*46
$GPGGA,202010.341,3237.5112,N,11719.5276,W,3,05,1.8,017.4,M,036.4,M,,*7F
$GPGXP,202010,3237.5112,N,11719.5276,W*57
$GPVTG,212.5,T,199.3,M,000.7,N,001.3,K*4D
$GPGGA,202025.341,3237.5114,N,11719.5287,W,3,05,1.8,017.0,M,036.4,M,,*75
$GPGXP,202025,3237.5114,N,11719.5287,W*59
$GPVTG,212.5,T,199.3,M,000.4,N,000.8,K*44
$GPGGA,202040.341,3237.5116,N,11719.5290,W,3,05,1.8,016.7,M,036.4,M,,*74
$GPGXP,202040,3237.5116,N,11719.5290,W*5E
$GPVTG,050.5,T,037.3,M,000.9,N,001.6,K*47
$GPGGA,202055.341,3237.5115,N,11719.5288,W,3,05,1.8,016.6,M,036.4,M,,*7B
$GPGXP,202055,3237.5115,N,11719.5288,W*50
$GPVTG,194.1,T,180.9,M,001.0,N,001.8,K*4B
$GPGGA,202110.341,3237.5109,N,11719.5286,W,3,05,1.8,017.1,M,036.4,M,,*7E
$GPGXP,202110,3237.5109,N,11719.5286,W*53
$GPVTG,192.8,T,179.6,M,001.0,N,001.9,K*4C
$GPGGA,202125.341,3237.5104,N,11719.5278,W,3,05,1.8,017.3,M,036.4,M,,*76
$GPGXP,202125,3237.5104,N,11719.5278,W*59
$GPVTG,033.8,T,020.6,M,000.0,N,000.0,K*42
$GPGGA,202140.341,3237.5097,N,11719.5263,W,3,05,1.8,017.5,M,036.4,M,,*72
$GPGXP,202140,3237.5097,N,11719.5263,W*5B
$GPVTG,049.9,T,036.7,M,001.0,N,001.8,K*40
$GPGGA,202155.341,3237.5090,N,11719.5249,W,3,05,1.8,017.8,M,036.4,M,,*74
$GPGXP,202155,3237.5090,N,11719.5249,W*50
$GPVTG,202.2,T,189.0,M,001.3,N,002.3,K*4F
$GPGGA,202210.341,3237.5078,N,11719.5237,W,3,05,1.8,015.8,M,036.4,M,,*7B
$GPGXP,202210,3237.5078,N,11719.5237,W*5D
$GPVTG,070.3,T,057.1,M,000.7,N,001.3,K*4C
$GPGGA,202225.341,3237.5076,N,11719.5218,W,3,05,1.8,015.6,M,036.4,M,,*70
$GPGXP,202225,3237.5076,N,11719.5218,W*58
$GPVTG,063.6,T,050.4,M,000.5,N,000.9,K*40
$GPGGA,202240.341,3237.5073,N,11719.5203,W,3,05,1.8,015.2,M,036.4,M,,*78
$GPGXP,202240,3237.5073,N,11719.5203,W*54
$GPVTG,036.5,T,023.3,M,001.3,N,002.4,K*48
$GPGGA,202255.341,3237.5072,N,11719.5187,W,3,05,1.8,014.4,M,036.4,M,,*75
$GPGXP,202255,3237.5072,N,11719.5187,W*5E
$GPVTG,047.1,T,033.9,M,001.5,N,002.8,K*4B
$GPGGA,202310.341,3237.5073,N,11719.5178,W,3,05,1.8,014.6,M,036.4,M,,*76
$GPGXP,202310,3237.5073,N,11719.5178,W*5F
$GPVTG,047.1,T,033.9,M,000.7,N,001.3,K*40
$GPGGA,202325.341,3237.5082,N,11719.5183,W,3,05,1.8,013.5,M,036.4,M,,*7E
$GPGXP,202325,3237.5082,N,11719.5183,W*53
$GPVTG,047.1,T,033.9,M,000.4,N,000.8,K*49
$GPGGA,202340.341,3237.5086,N,11719.5178,W,3,05,1.8,015.0,M,036.4,M,,*7E
$GPGXP,202340,3237.5086,N,11719.5178,W*50
$GPVTG,021.5,T,008.3,M,000.0,N,000.0,K*43
$GPGGA,202355.341,3237.5090,N,11719.5171,W,3,05,1.8,015.4,M,036.4,M,,*70
$GPGXP,202355,3237.5090,N,11719.5171,W*5A
$GPVTG,037.2,T,024.0,M,000.0,N,000.0,K*4E
$GPGGA,202410.341,3237.5088,N,11719.5164,W,3,05,1.8,014.1,M,036.4,M,,*7F
$GPGXP,202410,3237.5088,N,11719.5164,W*51
$GPVTG,037.2,T,024.0,M,000.0,N,000.0,K*4E
$GPGGA,202425.340,3237.5089,N,11719.5154,W,3,05,1.8,015.2,M,036.4,M,,*78
$GPGXP,202425,3237.5089,N,11719.5154,W*55
$GPVTG,180.2,T,167.0,M,000.5,N,000.9,K*49
$GPGGA,202440.340,3237.5082,N,11719.5136,W,3,05,1.8,015.8,M,036.4,M,,*7E
$GPGXP,202440,3237.5082,N,11719.5136,W*59
$GPVTG,193.6,T,180.4,M,001.2,N,002.1,K*4E
$GPGGA,202455.340,3237.5076,N,11719.5123,W,3,05,1.8,015.2,M,036.4,M,,*7F
$GPGXP,202455,3237.5076,N,11719.5123,W*52
$GPVTG,193.6,T,180.4,M,000.7,N,001.4,K*4C
$GPGGA,202510.340,3237.5068,N,11719.5105,W,3,05,1.8,015.4,M,036.4,M,,*72
$GPGXP,202510,3237.5068,N,11719.5105,W*59
$GPVTG,196.3,T,183.1,M,001.0,N,001.8,K*40
$GPGGA,202525.340,3237.5061,N,11719.5086,W,3,05,1.8,016.6,M,036.4,M,,*76
$GPGXP,202525,3237.5061,N,11719.5086,W*5C
$GPVTG,196.3,T,183.1,M,000.6,N,001.1,K*4E
$GPGGA,202540.340,3237.5052,N,11719.5065,W,3,05,1.8,015.6,M,036.4,M,,*7B
$GPGXP,202540,3237.5052,N,11719.5065,W*52
$GPVTG,196.3,T,183.1,M,000.9,N,001.7,K*47
$GPGGA,202555.340,3237.5041,N,11719.5049,W,3,05,1.8,015.6,M,036.4,M,,*73
$GPGXP,202555,3237.5041,N,11719.5049,W*5A
$GPVTG,069.7,T,056.5,M,001.0,N,001.9,K*49
$GPGGA,202610.340,3237.5040,N,11719.5032,W,3,05,1.8,016.9,M,036.4,M,,*70
$GPGXP,202610,3237.5040,N,11719.5032,W*55
$GPVTG,046.4,T,033.2,M,000.0,N,000.0,K*4A
$GPGGA,202625.340,3237.5038,N,11719.5028,W,3,05,1.8,016.3,M,036.4,M,,*78
$GPGXP,202625,3237.5038,N,11719.5028,W*57
$GPVTG,207.6,T,194.4,M,000.9,N,001.6,K*4B
$GPGGA,202640.340,3237.5034,N,11719.5028,W,3,05,1.8,016.2,M,036.4,M,,*76
$GPGXP,202640,3237.5034,N,11719.5028,W*58
$GPVTG,207.6,T,194.4,M,000.6,N,001.1,K*43
$GPGGA,202655.340,3237.5037,N,11719.5030,W,3,05,1.8,015.9,M,036.4,M,,*70
$GPGXP,202655,3237.5037,N,11719.5030,W*56
$GPVTG,207.6,T,194.4,M,000.8,N,001.6,K*4A
$GPGGA,202710.340,3237.5042,N,11719.5042,W,3,05,1.8,015.6,M,036.4,M,,*78
$GPGXP,202710,3237.5042,N,11719.5042,W*51
$GPVTG,207.6,T,194.4,M,000.0,N,000.0,K*45
$GPGGA,202725.340,3237.5049,N,11719.5054,W,3,05,1.8,015.7,M,036.4,M,,*73
$GPGXP,202725,3237.5049,N,11719.5054,W*5B
$GPVTG,207.6,T,194.4,M,000.7,N,001.3,K*40
$GPGGA,202740.340,3237.5056,N,11719.5070,W,3,05,1.8,016.0,M,036.4,M,,*7C
$GPGXP,202740,3237.5056,N,11719.5070,W*50
$GPVTG,001.9,T,348.7,M,001.5,N,002.7,K*4F
$GPGGA,202755.340,3237.5066,N,11719.5087,W,3,05,1.8,015.6,M,036.4,M,,*76
$GPGXP,202755,3237.5066,N,11719.5087,W*5F
$GPVTG,353.7,T,340.5,M,001.1,N,002.1,K*4D
$GPGGA,202810.340,3237.5079,N,11719.5108,W,3,05,1.8,016.1,M,036.4,M,,*74
$GPGXP,202810,3237.5079,N,11719.5108,W*59
$GPVTG,353.7,T,340.5,M,000.9,N,001.7,K*41
$GPGGA,202825.340,3237.5092,N,11719.5135,W,3,05,1.8,015.7,M,036.4,M,,*7C
$GPGXP,202825,3237.5092,N,11719.5135,W*54
$GPVTG,036.5,T,023.3,M,001.8,N,003.3,K*45
$GPGGA,202840.340,3237.5104,N,11719.5152,W,3,05,1.8,015.8,M,036.4,M,,*7F
$GPGXP,202840,3237.5104,N,11719.5152,W*58
$GPVTG,216.5,T,203.3,M,000.0,N,000.0,K*4C
$GPGGA,202855.340,3237.5108,N,11719.5172,W,3,05,1.8,016.0,M,036.4,M,,*7E
$GPGXP,202855,3237.5108,N,11719.5172,W*52
$GPVTG,172.4,T,159.2,M,001.4,N,002.6,K*40
$GPGGA,202910.340,3237.5109,N,11719.5180,W,3,05,1.8,015.3,M,036.4,M,,*72
$GPGXP,202910,3237.5109,N,11719.5180,W*5E
$GPVTG,235.9,T,222.7,M,000.0,N,000.0,K*46
$GPGGA,202925.340,3237.5115,N,11719.5184,W,3,05,1.8,015.2,M,036.4,M,,*7C
$GPGXP,202925,3237.5115,N,11719.5184,W*51
$GPVTG,211.5,T,198.3,M,000.8,N,001.4,K*47
$GPGGA,202940.340,3237.5107,N,11719.5183,W,3,05,1.8,016.1,M,036.4,M,,*7B
$GPGXP,202940,3237.5107,N,11719.5183,W*56
$GPVTG,204.0,T,190.8,M,001.1,N,002.1,K*4B
$GPGGA,202955.340,3237.5100,N,11719.5187,W,3,05,1.8,015.4,M,036.4,M,,*7A
$GPGXP,202955,3237.5100,N,11719.5187,W*51
$GPVTG,195.6,T,182.4,M,000.4,N,000.8,K*46
$GPGGA,203010.340,3237.5089,N,11719.5188,W,3,05,1.8,015.3,M,036.4,M,,*7B
$GPGXP,203010,3237.5089,N,11719.5188,W*57
$GPVTG,050.2,T,037.0,M,000.9,N,001.6,K*43
$GPGGA,203025.340,3237.5085,N,11719.5177,W,3,05,1.8,015.0,M,036.4,M,,*72
$GPGXP,203025,3237.5085,N,11719.5177,W*5D
$GPVTG,159.7,T,146.5,M,000.7,N,001.2,K*46
$GPGGA,203040.340,3237.5074,N,11719.5163,W,3,05,1.8,014.4,M,036.4,M,,*7F
$GPGXP,203040,3237.5074,N,11719.5163,W*55
$GPVTG,159.7,T,146.5,M,000.9,N,001.6,K*4C
$GPGGA,203055.340,3237.5059,N,11719.5150,W,3,05,1.8,015.8,M,036.4,M,,*79
$GPGXP,203055,3237.5059,N,11719.5150,W*5E
$GPVTG,159.7,T,146.5,M,000.9,N,001.7,K*4D
$GPGGA,203110.340,3237.5045,N,11719.5136,W,3,05,1.8,016.0,M,036.4,M,,*7F
$GPGXP,203110,3237.5045,N,11719.5136,W*53
$GPVTG,059.0,T,045.8,M,000.6,N,001.1,K*4D
$GPGGA,203125.340,3237.5034,N,11719.5123,W,3,05,1.8,016.3,M,036.4,M,,*78
$GPGXP,203125,3237.5034,N,11719.5123,W*57
$GPVTG,059.0,T,045.8,M,000.0,N,000.0,K*4B
$GPGGA,203140.340,3237.5029,N,11719.5114,W,3,05,1.8,016.0,M,036.4,M,,*70
$GPGXP,203140,3237.5029,N,11719.5114,W*5C
$GPVTG,059.0,T,045.8,M,000.5,N,000.9,K*47
$GPGGA,203155.340,3237.5027,N,11719.5112,W,3,05,1.8,016.1,M,036.4,M,,*7D
$GPGXP,203155,3237.5027,N,11719.5112,W*50
$GPVTG,046.3,T,033.1,M,001.2,N,002.1,K*4E
$GPGGA,203210.340,3237.5025,N,11719.5110,W,3,05,1.8,016.1,M,036.4,M,,*7F
$GPGXP,203210,3237.5025,N,11719.5110,W*52
$GPVTG,067.6,T,054.4,M,000.0,N,000.0,K*4C
$GPGGA,203225.340,3237.5027,N,11719.5100,W,3,05,1.8,015.8,M,036.4,M,,*70
$GPGXP,203225,3237.5027,N,11719.5100,W*57
$GPVTG,042.6,T,029.4,M,000.6,N,001.1,K*47
$GPGGA,203240.340,3237.5024,N,11719.5093,W,3,05,1.8,014.8,M,036.4,M,,*7A
$GPGXP,203240,3237.5024,N,11719.5093,W*5C
$GPVTG,079.0,T,065.8,M,001.3,N,002.4,K*4F
$GPGGA,203255.340,3237.5020,N,11719.5077,W,3,05,1.8,014.9,M,036.4,M,,*71
$GPGXP,203255,3237.5020,N,11719.5077,W*56
$GPVTG,054.9,T,041.7,M,000.7,N,001.3,K*41
$GPGGA,203310.340,3237.5011,N,11719.5059,W,3,05,1.8,014.3,M,036.4,M,,*75
$GPGXP,203310,3237.5011,N,11719.5059,W*58
$GPVTG,074.1,T,060.9,M,000.8,N,001.4,K*4E
$GPGGA,203325.340,3237.5006,N,11719.5037,W,3,05,1.8,014.7,M,036.4,M,,*79
$GPGXP,203325,3237.5006,N,11719.5037,W*50
