$GPVTG,307.5,T,294.3,M,003.8,N,007.0,K*4F
$GPGGA,235811.331,3238.2255,N,11720.9127,W,3,05,1.4,012.1,M,036.4,M,,*70
$GPGXP,235811,3238.2255,N,11720.9127,W*53
$GPVTG,311.5,T,298.3,M,003.5,N,006.4,K*4C
$GPGGA,235826.331,3238.2339,N,11720.9293,W,3,05,1.4,012.3,M,036.4,M,,*71
$GPGXP,235826,3238.2339,N,11720.9293,W*50
$GPVTG,300.2,T,286.9,M,004.3,N,007.9,K*43
$GPGGA,235841.331,3238.2427,N,11720.9472,W,3,05,1.4,010.0,M,036.4,M,,*70
$GPGXP,235841,3238.2427,N,11720.9472,W*50
$GPVTG,296.3,T,283.1,M,003.6,N,006.7,K*4C
$GPGGA,235856.331,3238.2499,N,11720.9652,W,3,05,1.4,012.2,M,036.4,M,,*73
$GPGXP,235856,3238.2499,N,11720.9652,W*53
$GPVTG,302.1,T,288.9,M,003.9,N,007.3,K*4B
$GPGGA,235911.331,3238.2573,N,11720.9839,W,3,05,1.4,012.6,M,036.4,M,,*73
$GPGXP,235911,3238.2573,N,11720.9839,W*57
$GPVTG,293.1,T,279.9,M,004.2,N,007.7,K*44
$GPGGA,235926.331,3238.2652,N,11721.0032,W,3,05,1.4,011.7,M,036.4,M,,*7E
$GPGXP,235926,3238.2652,N,11721.0032,W*58
$GPVTG,305.3,T,292.1,M,004.5,N,008.3,K*49
$GPGGA,235941.331,3238.2739,N,11721.0218,W,3,05,1.4,011.1,M,036.4,M,,*7F
$GPGXP,235941,3238.2739,N,11721.0218,W*5F
$GPVTG,312.2,T,299.0,M,003.7,N,006.9,K*45
$GPGGA,235956.331,3238.2828,N,11721.0400,W,3,05,1.4,010.6,M,036.4,M,,*7F
$GPGXP,235956,3238.2828,N,11721.0400,W*59
$GPVTG,301.1,T,287.9,M,003.8,N,007.0,K*45
$GPGGA,000011.331,3238.2906,N,11721.0584,W,3,05,1.4,013.2,M,036.4,M,,*76
$GPGXP,000011,3238.2906,N,11721.0584,W*57
$GPVTG,288.4,T,275.2,M,004.9,N,009.1,K*4F
$GPGGA,000026.331,3238.2995,N,11721.0774,W,3,05,1.4,011.2,M,036.4,M,,*77
$GPGXP,000026,3238.2995,N,11721.0774,W*54
$GPVTG,298.6,T,285.4,M,004.7,N,008.7,K*4C
$GPGGA,000041.331,3238.3079,N,11721.0960,W,3,05,1.4,011.8,M,036.4,M,,*7D
$GPGXP,000041,3238.3079,N,11721.0960,W*54
$GPVTG,296.3,T,283.1,M,003.1,N,005.7,K*48
$GPGGA,000056.331,3238.3164,N,11721.1144,W,3,05,1.4,011.9,M,036.4,M,,*78
$GPGXP,000056,3238.3164,N,11721.1144,W*50
$GPVTG,294.3,T,281.1,M,004.0,N,007.3,K*48
$GPGGA,000111.331,3238.3245,N,11721.1327,W,3,05,1.4,012.9,M,036.4,M,,*7E
$GPGXP,000111,3238.3245,N,11721.1327,W*55
$GPVTG,295.9,T,282.7,M,004.1,N,007.6,K*42
$GPGGA,000126.331,3238.3326,N,11721.1521,W,3,05,1.4,012.8,M,036.4,M,,*7F
$GPGXP,000126,3238.3326,N,11721.1521,W*55
$GPVTG,288.9,T,275.7,M,004.3,N,008.0,K*4D
$GPGGA,000141.331,3238.3409,N,11721.1719,W,3,05,1.4,011.2,M,036.4,M,,*74
$GPGXP,000141,3238.3409,N,11721.1719,W*57
$GPVTG,287.9,T,274.7,M,004.2,N,007.9,K*44
$GPGGA,000156.331,3238.3493,N,11721.1916,W,3,05,1.4,012.0,M,036.4,M,,*71
$GPGXP,000156,3238.3493,N,11721.1916,W*53
$GPVTG,296.5,T,283.3,M,004.5,N,008.3,K*46
$GPGGA,000211.331,3238.3580,N,11721.2106,W,3,05,1.4,012.8,M,036.4,M,,*70
$GPGXP,000211,3238.3580,N,11721.2106,W*5A
$GPVTG,303.2,T,290.0,M,005.0,N,009.2,K*49
$GPGGA,000226.331,3238.3668,N,11721.2300,W,3,05,1.4,013.2,M,036.4,M,,*7E
$GPGXP,000226,3238.3668,N,11721.2300,W*5F
$GPVTG,303.4,T,290.2,M,005.0,N,009.3,K*4C
$GPGGA,000241.331,3238.3761,N,11721.2497,W,3,05,1.4,013.2,M,036.4,M,,*7E
$GPGXP,000241,3238.3761,N,11721.2497,W*5F
$GPVTG,295.5,T,282.3,M,004.2,N,007.9,K*46
$GPGGA,000256.331,3238.3851,N,11721.2690,W,3,05,1.4,012.7,M,036.4,M,,*75
$GPGXP,000256,3238.3851,N,11721.2690,W*50
$GPVTG,310.2,T,297.0,M,004.3,N,007.9,K*4B
$GPGGA,000311.331,3238.3946,N,11721.2882,W,3,05,1.4,013.1,M,036.4,M,,*7A
$GPGXP,000311,3238.3946,N,11721.2882,W*58
$GPVTG,301.5,T,288.2,M,004.3,N,007.9,K*40
$GPGGA,000326.331,3238.4035,N,11721.3078,W,3,05,1.4,011.5,M,036.4,M,,*7E
$GPGXP,000326,3238.4035,N,11721.3078,W*5A
$GPVTG,296.1,T,282.9,M,003.9,N,007.2,K*4C
$GPGGA,000341.331,3238.4117,N,11721.3277,W,3,05,1.4,011.1,M,036.4,M,,*77
$GPGXP,000341,3238.4117,N,11721.3277,W*57
$GPVTG,292.3,T,279.0,M,004.3,N,008.0,K*47
$GPGGA,000356.331,3238.4197,N,11721.3478,W,3,05,1.4,011.4,M,036.4,M,,*75
$GPGXP,000356,3238.4197,N,11721.3478,W*50
$GPVTG,299.8,T,286.5,M,004.8,N,008.8,K*41
$GPGGA,000411.331,3238.4278,N,11721.3680,W,3,05,1.4,011.3,M,036.4,M,,*71
$GPGXP,000411,3238.4278,N,11721.3680,W*53
$GPVTG,304.1,T,290.9,M,004.9,N,009.0,K*4E
$GPGGA,000426.331,3238.4360,N,11721.3879,W,3,05,1.4,011.9,M,036.4,M,,*7F
$GPGXP,000426,3238.4360,N,11721.3879,W*57
$GPVTG,293.6,T,280.4,M,004.3,N,007.9,K*47
$GPGGA,000441.331,3238.4434,N,11721.4052,W,3,05,1.4,026.0,M,036.4,M,,*73
$GPGXP,000441,3238.4434,N,11721.4052,W*56
$GPVTG,304.8,T,291.6,M,004.4,N,008.1,K*44
$GPGGA,000456.331,3238.4523,N,11721.4241,W,3,05,1.4,027.7,M,036.4,M,,*74
$GPGXP,000456,3238.4523,N,11721.4241,W*57
$GPVTG,303.5,T,290.3,M,004.6,N,008.5,K*4C
$GPGGA,000511.330,3238.4620,N,11721.4431,W,3,05,1.4,025.3,M,036.4,M,,*70
$GPGXP,000511,3238.4620,N,11721.4431,W*54
$GPVTG,307.4,T,294.2,M,004.6,N,008.5,K*4C
$GPGGA,000526.330,3238.4720,N,11721.4613,W,3,05,1.4,024.4,M,036.4,M,,*71
$GPGXP,000526,3238.4720,N,11721.4613,W*53
$GPVTG,305.4,T,292.2,M,003.9,N,007.2,K*48
$GPGGA,000541.330,3238.4827,N,11721.4782,W,3,05,1.4,026.2,M,036.4,M,,*75
$GPGXP,000541,3238.4827,N,11721.4782,W*53
$GPVTG,320.4,T,307.2,M,004.3,N,008.0,K*42
$GPGGA,000556.330,3238.4949,N,11721.4958,W,3,05,1.4,025.5,M,036.4,M,,*77
$GPGXP,000556,3238.4949,N,11721.4958,W*55
$GPVTG,321.6,T,308.4,M,004.7,N,008.6,K*4A
$GPGGA,000611.330,3238.5070,N,11721.5124,W,3,05,1.4,025.3,M,036.4,M,,*71
$GPGXP,000611,3238.5070,N,11721.5124,W*55
$GPVTG,309.1,T,295.8,M,004.1,N,007.7,K*46
$GPGGA,000626.330,3238.5183,N,11721.5298,W,3,05,1.4,024.9,M,036.4,M,,*77
$GPGXP,000626,3238.5183,N,11721.5298,W*58
$GPVTG,317.7,T,304.5,M,004.3,N,008.1,K*40
$GPGGA,000641.330,3238.5297,N,11721.5465,W,3,05,1.4,025.7,M,036.4,M,,*7B
$GPGXP,000641,3238.5297,N,11721.5465,W*5B
$GPVTG,313.3,T,300.1,M,004.8,N,008.9,K*43
$GPGGA,000656.330,3238.5412,N,11721.5637,W,3,05,1.4,024.5,M,036.4,M,,*70
$GPGXP,000656,3238.5412,N,11721.5637,W*53
$GPVTG,303.5,T,290.3,M,004.6,N,008.5,K*4C
$GPGGA,000711.330,3238.5527,N,11721.5812,W,3,05,1.4,025.3,M,036.4,M,,*7B
$GPGXP,000711,3238.5527,N,11721.5812,W*5F
$GPVTG,298.8,T,285.6,M,003.8,N,007.0,K*40
$GPGGA,000726.330,3238.5642,N,11721.5983,W,3,05,1.4,025.1,M,036.4,M,,*74
$GPGXP,000726,3238.5642,N,11721.5983,W*52
$GPVTG,294.6,T,281.4,M,004.6,N,008.5,K*47
$GPGGA,000741.330,3238.5755,N,11721.6161,W,3,05,1.4,024.9,M,036.4,M,,*7C
$GPGXP,000741,3238.5755,N,11721.6161,W*53
$GPVTG,301.4,T,288.2,M,005.0,N,009.2,K*46
$GPGGA,000756.330,3238.5873,N,11721.6343,W,3,05,1.4,023.9,M,036.4,M,,*74
$GPGXP,000756,3238.5873,N,11721.6343,W*5C
$GPVTG,306.0,T,292.8,M,004.2,N,007.8,K*43
$GPGGA,000811.330,3238.5986,N,11721.6509,W,3,05,1.4,025.2,M,036.4,M,,*76
$GPGXP,000811,3238.5986,N,11721.6509,W*53
$GPVTG,314.4,T,301.2,M,004.6,N,008.5,K*43
$GPGGA,000826.330,3238.6100,N,11721.6686,W,3,05,1.4,024.7,M,036.4,M,,*77
$GPGXP,000826,3238.6100,N,11721.6686,W*56
$GPVTG,309.3,T,296.1,M,004.3,N,008.0,K*44
$GPGGA,000841.330,3238.6219,N,11721.6853,W,3,05,1.4,025.3,M,036.4,M,,*7E
$GPGXP,000841,3238.6219,N,11721.6853,W*5A
$GPVTG,310.2,T,297.0,M,004.9,N,009.1,K*47
$GPGGA,000856.330,3238.6346,N,11721.7014,W,3,05,1.4,024.2,M,036.4,M,,*79
$GPGXP,000856,3238.6346,N,11721.7014,W*5D
$GPVTG,315.5,T,302.3,M,004.7,N,008.6,K*43
$GPGGA,000911.330,3238.6477,N,11721.7166,W,3,05,1.4,024.7,M,036.4,M,,*7F
$GPGXP,000911,3238.6477,N,11721.7166,W*5E
$GPVTG,316.7,T,303.5,M,004.6,N,008.5,K*47
$GPGGA,000926.330,3238.6614,N,11721.7318,W,3,05,1.4,024.4,M,036.4,M,,*74
$GPGXP,000926,3238.6614,N,11721.7318,W*56
$GPVTG,313.8,T,300.6,M,004.4,N,008.2,K*48
$GPGGA,000941.330,3238.6750,N,11721.7472,W,3,05,1.4,024.8,M,036.4,M,,*73
$GPGXP,000941,3238.6750,N,11721.7472,W*5D
$GPVTG,307.4,T,294.2,M,004.4,N,008.2,K*49
$GPGGA,000956.330,3238.6889,N,11721.7624,W,3,05,1.4,024.5,M,036.4,M,,*72
$GPGXP,000956,3238.6889,N,11721.7624,W*51
$GPVTG,322.7,T,309.5,M,004.1,N,007.5,K*42
$GPGGA,001011.330,3238.7036,N,11721.7763,W,3,05,1.4,024.6,M,036.4,M,,*75
$GPGXP,001011,3238.7036,N,11721.7763,W*55
$GPVTG,316.8,T,303.6,M,004.1,N,007.6,K*40
$GPGGA,001026.330,3238.7188,N,11721.7887,W,3,05,1.4,026.4,M,036.4,M,,*70
$GPGXP,001026,3238.7188,N,11721.7887,W*50
$GPVTG,337.1,T,323.9,M,004.3,N,008.0,K*4C
$GPGGA,001041.330,3238.7354,N,11721.7999,W,3,05,1.4,027.7,M,036.4,M,,*7E
$GPGXP,001041,3238.7354,N,11721.7999,W*5C
$GPVTG,342.6,T,329.4,M,005.0,N,009.3,K*4E
$GPGGA,001056.330,3238.7514,N,11721.8112,W,3,05,1.4,026.9,M,036.4,M,,*71
$GPGXP,001056,3238.7514,N,11721.8112,W*5C
$GPVTG,315.1,T,301.9,M,005.0,N,009.3,K*4C
$GPGGA,001111.330,3238.7677,N,11721.8225,W,3,05,1.4,026.7,M,036.4,M,,*7C
$GPGXP,001111,3238.7677,N,11721.8225,W*5F
$GPVTG,336.6,T,323.4,M,004.4,N,008.1,K*41
$GPGGA,001126.330,3238.7850,N,11721.8322,W,3,05,1.4,025.8,M,036.4,M,,*79
$GPGXP,001126,3238.7850,N,11721.8322,W*56
$GPVTG,341.4,T,328.2,M,005.0,N,009.3,K*48
$GPGGA,001141.330,3238.8029,N,11721.8410,W,3,05,1.4,026.1,M,036.4,M,,*7D
$GPGXP,001141,3238.8029,N,11721.8410,W*58
$GPVTG,323.1,T,309.8,M,004.8,N,008.9,K*42
$GPGGA,001156.330,3238.8204,N,11721.8497,W,3,05,1.4,026.0,M,036.4,M,,*78
$GPGXP,001156,3238.8204,N,11721.8497,W*5C
$GPVTG,309.1,T,295.9,M,004.3,N,008.0,K*4D
$GPGGA,001211.330,3238.8381,N,11721.8575,W,3,05,1.4,025.1,M,036.4,M,,*7B
$GPGXP,001211,3238.8381,N,11721.8575,W*5D
$GPVTG,338.1,T,324.9,M,004.6,N,008.5,K*44
$GPGGA,001226.330,3238.8559,N,11721.8639,W,3,05,1.4,024.9,M,036.4,M,,*7E
$GPGXP,001226,3238.8559,N,11721.8639,W*51
$GPVTG,345.9,T,332.7,M,003.8,N,007.1,K*4D
$GPGGA,001241.330,3238.8738,N,11721.8711,W,3,05,1.4,025.5,M,036.4,M,,*7C
$GPGXP,001241,3238.8738,N,11721.8711,W*5E
$GPVTG,321.5,T,308.3,M,005.0,N,009.3,K*4C
$GPGGA,001256.330,3238.8920,N,11721.8775,W,3,05,1.4,024.8,M,036.4,M,,*73
$GPGXP,001256,3238.8920,N,11721.8775,W*5D
$GPVTG,355.1,T,341.9,M,004.1,N,007.6,K*47
$GPGGA,001311.330,3238.9105,N,11721.8815,W,3,05,1.4,023.8,M,036.4,M,,*71
$GPGXP,001311,3238.9105,N,11721.8815,W*58
$GPVTG,000.4,T,347.2,M,004.9,N,009.0,K*4C
$GPGGA,001326.330,3238.9288,N,11721.8849,W,3,05,1.4,025.4,M,036.4,M,,*70
$GPGXP,001326,3238.9288,N,11721.8849,W*53
$GPVTG,339.8,T,326.5,M,005.3,N,009.8,K*4A
$GPGGA,001341.330,3238.9476,N,11721.8889,W,3,05,1.4,023.3,M,036.4,M,,*7B
$GPGXP,001341,3238.9476,N,11721.8889,W*59
$GPVTG,008.2,T,355.0,M,005.0,N,009.3,K*48
$GPGGA,001356.330,3238.9665,N,11721.8912,W,3,05,1.4,024.3,M,036.4,M,,*79
$GPGXP,001356,3238.9665,N,11721.8912,W*5C
$GPVTG,335.3,T,322.1,M,004.8,N,008.9,K*47
$GPGGA,001411.330,3238.9851,N,11721.8953,W,3,05,1.4,024.1,M,036.4,M,,*73
$GPGXP,001411,3238.9851,N,11721.8953,W*54
$GPVTG,348.3,T,335.1,M,004.8,N,008.9,K*4B
$GPGGA,001426.330,3239.0036,N,11721.8990,W,3,05,1.4,024.3,M,036.4,M,,*7B
$GPGXP,001426,3239.0036,N,11721.8990,W*5E
$GPVTG,359.2,T,346.0,M,005.0,N,009.2,K*4C
$GPGGA,001441.330,3239.0224,N,11721.9030,W,3,05,1.4,023.8,M,036.4,M,,*75
$GPGXP,001441,3239.0224,N,11721.9030,W*5C
$GPVTG,353.4,T,340.2,M,004.3,N,007.9,K*43
$GPGGA,001456.330,3239.0412,N,11721.9065,W,3,05,1.4,025.5,M,036.4,M,,*7B
$GPGXP,001456,3239.0412,N,11721.9065,W*59
$GPVTG,351.5,T,338.3,M,003.6,N,006.7,K*43
$GPGGA,001511.330,3239.0601,N,11721.9108,W,3,05,1.4,024.6,M,036.4,M,,*71
$GPGXP,001511,3239.0601,N,11721.9108,W*51
$GPVTG,341.8,T,328.6,M,004.5,N,008.3,K*45
$GPGGA,001526.330,3239.0796,N,11721.9146,W,3,05,1.4,023.0,M,036.4,M,,*71
$GPGXP,001526,3239.0796,N,11721.9146,W*50
$GPVTG,340.4,T,327.2,M,004.1,N,007.7,K*4C
$GPGGA,001541.330,3239.0986,N,11721.9191,W,3,05,1.4,022.4,M,036.4,M,,*70
$GPGXP,001541,3239.0986,N,11721.9191,W*54
$GPVTG,339.0,T,325.8,M,004.4,N,008.1,K*42
$GPGGA,001556.330,3239.1176,N,11721.9229,W,3,05,1.4,024.7,M,036.4,M,,*75
$GPGXP,001556,3239.1176,N,11721.9229,W*54
$GPVTG,359.0,T,345.7,M,004.5,N,008.3,K*4E
$GPGGA,001611.330,3239.1367,N,11721.9266,W,3,05,1.4,024.6,M,036.4,M,,*7D
$GPGXP,001611,3239.1367,N,11721.9266,W*5D
$GPVTG,018.5,T,005.3,M,005.4,N,010.0,K*44
$GPGGA,001626.330,3239.1559,N,11721.9304,W,3,05,1.4,024.0,M,036.4,M,,*71
$GPGXP,001626,3239.1559,N,11721.9304,W*57
$GPVTG,006.5,T,353.2,M,004.5,N,008.4,K*47
$GPGGA,001641.330,3239.1747,N,11721.9343,W,3,05,1.4,029.6,M,036.4,M,,*75
$GPGXP,001641,3239.1747,N,11721.9343,W*58
$GPVTG,325.0,T,311.8,M,005.0,N,009.3,K*4E
$GPGGA,001656.330,3239.1927,N,11721.9402,W,3,05,1.4,024.3,M,036.4,M,,*71
$GPGXP,001656,3239.1927,N,11721.9402,W*54
$GPVTG,347.4,T,334.1,M,004.8,N,008.9,K*42
$GPGGA,001711.330,3239.2109,N,11721.9439,W,3,05,1.4,023.8,M,036.4,M,,*70
$GPGXP,001711,3239.2109,N,11721.9439,W*59
$GPVTG,348.3,T,335.1,M,004.6,N,008.5,K*49
$GPGGA,001726.330,3239.2289,N,11721.9477,W,3,05,1.4,024.2,M,036.4,M,,*78
$GPGXP,001726,3239.2289,N,11721.9477,W*5C
$GPVTG,357.2,T,343.9,M,005.1,N,009.5,K*48
$GPGGA,001741.330,3239.2479,N,11721.9518,W,3,05,1.4,023.5,M,036.4,M,,*78
$GPGXP,001741,3239.2479,N,11721.9518,W*5C
$GPVTG,345.3,T,332.1,M,004.5,N,008.4,K*41
$GPGGA,001756.330,3239.2662,N,11721.9559,W,3,05,1.4,023.0,M,036.4,M,,*76
$GPGXP,001756,3239.2662,N,11721.9559,W*57
$GPVTG,341.8,T,328.5,M,004.6,N,008.5,K*43
$GPGGA,001811.330,3239.2851,N,11721.9587,W,3,05,1.4,027.3,M,036.4,M,,*70
$GPGXP,001811,3239.2851,N,11721.9587,W*56
$GPVTG,000.7,T,347.4,M,004.0,N,007.4,K*4A
$GPGGA,001826.330,3239.3026,N,11721.9636,W,3,05,1.4,022.8,M,036.4,M,,*7A
$GPGXP,001826,3239.3026,N,11721.9636,W*52
$GPVTG,341.3,T,328.1,M,004.6,N,008.6,K*4F
$GPGGA,001841.330,3239.3204,N,11721.9695,W,3,05,1.4,021.2,M,036.4,M,,*79
$GPGXP,001841,3239.3204,N,11721.9695,W*58
$GPVTG,339.3,T,326.1,M,003.5,N,006.4,K*46
$GPGGA,001856.330,3239.3378,N,11721.9744,W,3,05,1.4,023.5,M,036.4,M,,*7D
$GPGXP,001856,3239.3378,N,11721.9744,W*59
$GPVTG,326.1,T,312.9,M,004.7,N,008.6,K*4C
$GPGGA,001911.330,3239.3558,N,11721.9785,W,3,05,1.4,023.0,M,036.4,M,,*73
$GPGXP,001911,3239.3558,N,11721.9785,W*52
$GPVTG,346.7,T,333.5,M,004.3,N,007.9,K*47
$GPGGA,001926.330,3239.3741,N,11721.9821,W,3,05,1.4,022.3,M,036.4,M,,*7E
$GPGXP,001926,3239.3741,N,11721.9821,W*5D
$GPVTG,350.6,T,337.4,M,004.6,N,008.6,K*41
$GPGGA,001941.330,3239.3922,N,11721.9860,W,3,05,1.4,022.5,M,036.4,M,,*77
$GPGXP,001941,3239.3922,N,11721.9860,W*52
$GPVTG,011.7,T,358.5,M,005.1,N,009.5,K*4A
$GPGGA,001956.330,3239.4105,N,11721.9900,W,3,05,1.4,021.5,M,036.4,M,,*7F
$GPGXP,001956,3239.4105,N,11721.9900,W*59
$GPVTG,357.0,T,343.8,M,004.4,N,008.1,K*4A
$GPGGA,002011.330,3239.4283,N,11721.9951,W,3,05,1.4,021.9,M,036.3,M,,*74
$GPGXP,002011,3239.4283,N,11721.9951,W*59
$GPVTG,339.7,T,326.5,M,003.9,N,007.3,K*4C
$GPGGA,002026.330,3239.4459,N,11722.0010,W,3,05,1.4,022.7,M,036.3,M,,*7A
$GPGXP,002026,3239.4459,N,11722.0010,W*5A
$GPVTG,340.0,T,326.8,M,005.1,N,009.4,K*4F
$GPGGA,002041.330,3239.4641,N,11722.0073,W,3,05,1.4,022.6,M,036.3,M,,*74
$GPGXP,002041,3239.4641,N,11722.0073,W*55
$GPVTG,337.1,T,323.8,M,004.3,N,008.0,K*4D
$GPGGA,002056.330,3239.4821,N,11722.0120,W,3,05,1.4,022.1,M,036.3,M,,*7A
$GPGXP,002056,3239.4821,N,11722.0120,W*5C
$GPVTG,356.5,T,343.3,M,005.1,N,009.5,K*44
$GPGGA,002111.330,3239.5001,N,11722.0171,W,3,05,1.4,022.6,M,036.3,M,,*70
$GPGXP,002111,3239.5001,N,11722.0171,W*51
$GPVTG,347.8,T,334.6,M,004.9,N,009.1,K*41
$GPGGA,002126.330,3239.5176,N,11722.0233,W,3,05,1.4,021.4,M,036.3,M,,*71
$GPGXP,002126,3239.5176,N,11722.0233,W*51
$GPVTG,346.4,T,333.2,M,004.6,N,008.5,K*45
$GPGGA,002141.330,3239.5350,N,11722.0293,W,3,05,1.4,022.7,M,036.3,M,,*7C
$GPGXP,002141,3239.5350,N,11722.0293,W*5C
$GPVTG,005.8,T,352.6,M,004.5,N,008.3,K*4B
$GPGGA,002156.330,3239.5525,N,11722.0355,W,3,05,1.4,021.6,M,036.3,M,,*77
$GPGXP,002156,3239.5525,N,11722.0355,W*55
$GPVTG,342.4,T,329.2,M,004.5,N,008.2,K*4E
$GPGGA,002211.330,3239.5703,N,11722.0422,W,3,05,1.4,022.6,M,036.3,M,,*75
$GPGXP,002211,3239.5703,N,11722.0422,W*54
$GPVTG,003.1,T,349.8,M,004.3,N,007.9,K*43
$GPGGA,002226.330,3239.5881,N,11722.0479,W,3,05,1.4,022.6,M,036.3,M,,*7A
$GPGXP,002226,3239.5881,N,11722.0479,W*5B
$GPVTG,356.0,T,342.8,M,005.3,N,009.8,K*44
$GPGGA,002241.330,3239.6064,N,11722.0544,W,3,05,1.4,021.4,M,036.3,M,,*75
$GPGXP,002241,3239.6064,N,11722.0544,W*55
$GPVTG,335.7,T,322.5,M,004.5,N,008.4,K*47
$GPGGA,002256.330,3239.6235,N,11722.0617,W,3,05,1.4,019.6,M,036.3,M,,*79
$GPGXP,002256,3239.6235,N,11722.0617,W*50
$GPVTG,309.8,T,296.5,M,004.6,N,008.5,K*4B
$GPGGA,002311.330,3239.6406,N,11722.0688,W,3,05,1.4,021.7,M,036.3,M,,*71
$GPGXP,002311,3239.6406,N,11722.0688,W*52
$GPVTG,351.5,T,338.3,M,004.4,N,008.2,K*4D
$GPGGA,002326.330,3239.6576,N,11722.0767,W,3,05,1.4,021.4,M,036.3,M,,*70
$GPGXP,002326,3239.6576,N,11722.0767,W*50
$GPVTG,328.2,T,315.0,M,004.4,N,008.2,K*48
$GPGGA,002341.330,3239.6733,N,11722.0865,W,3,05,1.4,021.1,M,036.3,M,,*7A
$GPGXP,002341,3239.6733,N,11722.0865,W*5F
$GPVTG,323.6,T,310.4,M,004.0,N,007.4,K*4B
$GPGGA,002356.330,3239.6883,N,11722.0974,W,3,05,1.4,020.4,M,036.3,M,,*7D
$GPGXP,002356,3239.6883,N,11722.0974,W*5C
$GPVTG,317.5,T,304.2,M,004.1,N,007.6,K*4F
$GPGGA,002411.330,3239.7027,N,11722.1094,W,3,05,1.4,021.1,M,036.3,M,,*7C
$GPGXP,002411,3239.7027,N,11722.1094,W*59
$GPVTG,322.5,T,309.3,M,004.6,N,008.5,K*4E
$GPGGA,002426.330,3239.7168,N,11722.1225,W,3,05,1.4,019.5,M,036.3,M,,*75
$GPGXP,002426,3239.7168,N,11722.1225,W*5F
$GPVTG,321.0,T,307.8,M,004.2,N,007.7,K*44
$GPGGA,002441.330,3239.7303,N,11722.1366,W,3,05,1.4,018.8,M,036.3,M,,*71
$GPGXP,002441,3239.7303,N,11722.1366,W*57
$GPVTG,320.8,T,307.6,M,004.4,N,008.2,K*4F
$GPGGA,002456.330,3239.7431,N,11722.1514,W,3,05,1.4,019.1,M,036.3,M,,*7A
$GPGXP,002456,3239.7431,N,11722.1514,W*54
$GPVTG,318.6,T,305.4,M,004.4,N,008.2,K*4A
$GPGGA,002511.330,3239.7555,N,11722.1670,W,3,05,1.4,018.9,M,036.3,M,,*73
$GPGXP,002511,3239.7555,N,11722.1670,W*54
$GPVTG,306.2,T,292.9,M,003.9,N,007.2,K*46
$GPGGA,002526.330,3239.7673,N,11722.1833,W,3,05,1.4,018.9,M,036.3,M,,*79
$GPGXP,002526,3239.7673,N,11722.1833,W*5E
$GPVTG,301.4,T,288.2,M,003.9,N,007.3,K*46
$GPGGA,002541.330,3239.7788,N,11722.2005,W,3,05,1.4,017.4,M,036.3,M,,*71
$GPGXP,002541,3239.7788,N,11722.2005,W*54
$GPVTG,295.1,T,281.9,M,004.1,N,007.5,K*44
$GPGGA,002556.330,3239.7906,N,11722.2170,W,3,05,1.4,016.5,M,036.3,M,,*7C
$GPGXP,002556,3239.7906,N,11722.2170,W*59
$GPVTG,297.4,T,284.2,M,004.6,N,008.6,K*46
$GPGGA,002611.330,3239.8012,N,11722.2346,W,3,05,1.4,015.1,M,036.3,M,,*7F
$GPGXP,002611,3239.8012,N,11722.2346,W*5D
$GPVTG,292.3,T,279.1,M,003.9,N,007.2,K*46
$GPGGA,002626.330,3239.8094,N,11722.2528,W,3,05,1.4,018.4,M,036.3,M,,*73
$GPGXP,002626,3239.8094,N,11722.2528,W*59
$GPVTG,294.8,T,281.6,M,004.8,N,008.9,K*49
$GPGGA,002641.330,3239.8173,N,11722.2722,W,3,05,1.4,018.2,M,036.3,M,,*74
$GPGXP,002641,3239.8173,N,11722.2722,W*58
$GPVTG,298.2,T,284.9,M,004.8,N,008.9,K*45
$GPGGA,002656.330,3239.8243,N,11722.2915,W,3,05,1.4,018.5,M,036.3,M,,*7F
$GPGXP,002656,3239.8243,N,11722.2915,W*54
$GPVTG,301.1,T,287.9,M,004.6,N,008.5,K*46
$GPGGA,002711.329,3239.8309,N,11722.3109,W,3,05,1.4,018.9,M,036.3,M,,*72
$GPGXP,002711,3239.8309,N,11722.3109,W*5D
$GPVTG,293.7,T,280.5,M,004.2,N,007.8,K*47
$GPGGA,002726.329,3239.8371,N,11722.3301,W,3,05,1.4,020.5,M,036.3,M,,*74
$GPGXP,002726,3239.8371,N,11722.3301,W*5C
$GPVTG,275.2,T,262.0,M,003.8,N,007.0,K*46
$GPGGA,002741.329,3239.8423,N,11722.3489,W,3,05,1.4,018.2,M,036.3,M,,*7E
$GPGXP,002741,3239.8423,N,11722.3489,W*5A
$GPVTG,286.6,T,273.4,M,004.2,N,007.8,K*4F
$GPGGA,002756.329,3239.8467,N,11722.3685,W,3,05,1.4,018.8,M,036.3,M,,*7C
$GPGXP,002756,3239.8467,N,11722.3685,W*52
$GPVTG,285.7,T,272.5,M,004.1,N,007.5,K*43
$GPGGA,002811.329,3239.8500,N,11722.3886,W,3,05,1.4,019.9,M,036.3,M,,*7D
$GPGXP,002811,3239.8500,N,11722.3886,W*53
$GPVTG,276.6,T,263.4,M,004.2,N,007.7,K*4E
$GPGGA,002826.329,3239.8522,N,11722.4097,W,3,05,1.4,020.8,M,036.3,M,,*7D
$GPGXP,002826,3239.8522,N,11722.4097,W*58
$GPVTG,278.3,T,265.1,M,004.6,N,008.4,K*4E
$GPGGA,002841.329,3239.8532,N,11722.4321,W,3,05,1.4,017.6,M,036.3,M,,*79
$GPGXP,002841,3239.8532,N,11722.4321,W*56
$GPVTG,265.4,T,252.2,M,004.2,N,007.7,K*4A
$GPGGA,002856.329,3239.8541,N,11722.4532,W,3,05,1.4,021.9,M,036.3,M,,*75
$GPGXP,002856,3239.8541,N,11722.4532,W*50
$GPVTG,261.8,T,248.6,M,004.6,N,008.5,K*44
$GPGGA,002911.329,3239.8537,N,11722.4758,W,3,05,1.4,019.3,M,036.3,M,,*79
$GPGXP,002911,3239.8537,N,11722.4758,W*5D
$GPVTG,263.4,T,250.2,M,004.0,N,007.4,K*4F
$GPGGA,002926.329,3239.8531,N,11722.4976,W,3,05,1.4,018.6,M,036.3,M,,*7D
$GPGXP,002926,3239.8531,N,11722.4976,W*5D
$GPVTG,272.4,T,259.2,M,004.8,N,008.9,K*4C
$GPGGA,002941.329,3239.8532,N,11722.5192,W,3,05,1.4,017.0,M,036.3,M,,*75
$GPGXP,002941,3239.8532,N,11722.5192,W*5C
$GPVTG,279.9,T,266.7,M,004.2,N,007.8,K*47
$GPGGA,002956.329,3239.8537,N,11722.5404,W,3,05,1.4,020.1,M,036.3,M,,*79
$GPGXP,002956,3239.8537,N,11722.5404,W*55
$GPVTG,270.0,T,256.8,M,004.5,N,008.3,K*48
$GPGGA,003011.329,3239.8542,N,11722.5634,W,3,05,1.4,015.3,M,036.3,M,,*75
$GPGXP,003011,3239.8542,N,11722.5634,W*5D
$GPVTG,268.9,T,255.7,M,004.5,N,008.3,K*44
$GPGGA,003026.329,3239.8554,N,11722.5856,W,3,05,1.4,015.6,M,036.3,M,,*79
$GPGXP,003026,3239.8554,N,11722.5856,W*54
$GPVTG,273.0,T,259.8,M,004.5,N,008.3,K*44
$GPGGA,003041.329,3239.8567,N,11722.6072,W,3,05,1.4,018.5,M,036.3,M,,*7B
$GPGXP,003041,3239.8567,N,11722.6072,W*58
$GPVTG,268.6,T,255.3,M,004.6,N,008.5,K*4A
$GPGGA,003056.329,3239.8571,N,11722.6291,W,3,05,1.4,020.1,M,036.3,M,,*7A
$GPGXP,003056,3239.8571,N,11722.6291,W*56
$GPVTG,280.0,T,266.8,M,004.1,N,007.6,K*4A
$GPGGA,003111.329,3239.8572,N,11722.6512,W,3,05,1.4,018.7,M,036.3,M,,*7A
$GPGXP,003111,3239.8572,N,11722.6512,W*5B
$GPVTG,283.7,T,270.4,M,004.2,N,007.8,K*48
$GPGGA,003126.329,3239.8571,N,11722.6730,W,3,05,1.4,017.6,M,036.3,M,,*71
$GPGXP,003126,3239.8571,N,11722.6730,W*5E
$GPVTG,281.9,T,268.7,M,004.5,N,008.4,K*4A
$GPGGA,003141.329,3239.8582,N,11722.6943,W,3,05,1.4,018.3,M,036.3,M,,*7C
$GPGXP,003141,3239.8582,N,11722.6943,W*59
$GPVTG,274.5,T,261.3,M,005.9,N,010.9,K*48
$GPGGA,003156.329,3239.8591,N,11722.7166,W,3,05,1.4,016.0,M,036.3,M,,*7B
$GPGXP,003156,3239.8591,N,11722.7166,W*53
$GPVTG,271.1,T,257.9,M,003.5,N,006.5,K*47
$GPGGA,003211.329,3239.8599,N,11722.7368,W,3,05,1.4,013.0,M,036.3,M,,*7A
$GPGXP,003211,3239.8599,N,11722.7368,W*57
$GPVTG,268.1,T,254.9,M,003.5,N,006.5,K*4C
$GPGGA,003226.329,3239.8614,N,11722.7562,W,3,05,1.4,015.0,M,036.3,M,,*72
$GPGXP,003226,3239.8614,N,11722.7562,W*59
$GPVTG,264.4,T,251.2,M,003.2,N,005.8,K*42
$GPGGA,003241.329,3239.8628,N,11722.7751,W,3,05,1.4,020.8,M,036.3,M,,*70
$GPGXP,003241,3239.8628,N,11722.7751,W*55
$GPVTG,278.2,T,265.0,M,004.3,N,008.0,K*4F
$GPGGA,003256.329,3239.8634,N,11722.7961,W,3,05,1.4,019.9,M,036.4,M,,*7A
$GPGXP,003256,3239.8634,N,11722.7961,W*53
$GPVTG,267.9,T,254.7,M,003.7,N,006.9,K*4B
$GPGGA,003311.329,3239.8634,N,11722.8176,W,3,05,1.4,016.7,M,036.4,M,,*78
$GPGXP,003311,3239.8634,N,11722.8176,W*50
$GPVTG,265.1,T,251.9,M,004.1,N,007.7,K*44
$GPGGA,003326.329,3239.8637,N,11722.8387,W,3,05,1.4,016.1,M,036.4,M,,*75
$GPGXP,003326,3239.8637,N,11722.8387,W*5B
$GPVTG,266.7,T,253.5,M,005.1,N,009.4,K*43
$GPGGA,003341.329,3239.8641,N,11722.8601,W,3,05,1.4,015.2,M,036.4,M,,*7E
$GPGXP,003341,3239.8641,N,11722.8601,W*50
$GPVTG,270.0,T,256.7,M,004.8,N,008.8,K*41
$GPGGA,003356.329,3239.8647,N,11722.8811,W,3,05,1.4,017.1,M,036.4,M,,*70
$GPGXP,003356,3239.8647,N,11722.8811,W*5F
$GPVTG,270.2,T,257.0,M,004.1,N,007.6,K*4D
$GPGGA,003411.329,3239.8650,N,11722.9023,W,3,05,1.4,017.4,M,036.4,M,,*7F
$GPGXP,003411,3239.8650,N,11722.9023,W*55
$GPVTG,264.5,T,251.3,M,003.9,N,007.3,K*40
$GPGGA,003426.329,3239.8651,N,11722.9233,W,3,05,1.4,019.3,M,036.4,M,,*70
$GPGXP,003426,3239.8651,N,11722.9233,W*53
$GPVTG,267.0,T,253.8,M,005.3,N,009.7,K*49
$GPGGA,003441.329,3239.8647,N,11722.9460,W,3,05,1.4,014.1,M,036.4,M,,*79
$GPGXP,003441,3239.8647,N,11722.9460,W*55
$GPVTG,263.6,T,250.4,M,004.1,N,007.6,K*48
$GPGGA,003456.329,3239.8648,N,11722.9667,W,3,05,1.4,015.1,M,036.4,M,,*74
$GPGXP,003456,3239.8648,N,11722.9667,W*59
$GPVTG,270.5,T,257.3,M,004.1,N,007.6,K*49
$GPGGA,003511.329,3239.8642,N,11722.9847,W,3,05,1.2,028.9,M,036.4,M,,*70
$GPGXP,003511,3239.8642,N,11722.9847,W*5D
$GPVTG,269.8,T,256.6,M,004.6,N,008.6,K*40
$GPGGA,003526.329,3239.8649,N,11723.0078,W,3,05,1.2,025.3,M,036.4,M,,*74
$GPGXP,003526,3239.8649,N,11723.0078,W*5E
$GPVTG,270.4,T,257.2,M,004.7,N,008.6,K*40
$GPGGA,003541.329,3239.8645,N,11723.0304,W,3,05,1.2,025.5,M,036.4,M,,*77
$GPGXP,003541,3239.8645,N,11723.0304,W*5B
$GPVTG,269.3,T,256.1,M,004.5,N,008.4,K*4D
$GPGGA,003556.329,3239.8648,N,11723.0529,W,3,05,1.2,023.4,M,036.4,M,,*72
$GPGXP,003556,3239.8648,N,11723.0529,W*59
$GPVTG,277.7,T,264.5,M,004.4,N,008.1,K*47
$GPGGA,003611.329,3239.8657,N,11723.0757,W,3,05,1.2,022.5,M,036.4,M,,*77
$GPGXP,003611,3239.8657,N,11723.0757,W*5C
$GPVTG,269.6,T,256.4,M,004.7,N,008.7,K*4C
$GPGGA,003626.329,3239.8662,N,11723.0975,W,3,05,1.2,024.0,M,036.4,M,,*78
$GPGXP,003626,3239.8662,N,11723.0975,W*50
$GPVTG,271.5,T,258.2,M,004.7,N,008.7,K*4E
$GPGGA,003641.329,3239.8668,N,11723.1191,W,3,05,1.2,025.5,M,036.4,M,,*74
$GPGXP,003641,3239.8668,N,11723.1191,W*58
$GPVTG,265.9,T,252.7,M,004.9,N,009.0,K*40
$GPGGA,003656.329,3239.8671,N,11723.1405,W,3,05,1.2,024.3,M,036.4,M,,*75
$GPGXP,003656,3239.8671,N,11723.1405,W*5E
$GPVTG,273.0,T,259.8,M,004.6,N,008.6,K*42
$GPGGA,003711.329,3239.8672,N,11723.1624,W,3,05,1.2,022.3,M,036.4,M,,*73
$GPGXP,003711,3239.8672,N,11723.1624,W*5E
$GPVTG,271.0,T,257.8,M,004.1,N,007.5,K*45
$GPGGA,003726.329,3239.8676,N,11723.1843,W,3,05,1.2,021.8,M,036.4,M,,*74
$GPGXP,003726,3239.8676,N,11723.1843,W*51
$GPVTG,272.8,T,259.6,M,003.7,N,006.9,K*42
$GPGGA,003741.329,3239.8679,N,11723.2060,W,3,05,1.2,021.2,M,036.4,M,,*7A
$GPGXP,003741,3239.8679,N,11723.2060,W*55
$GPVTG,274.2,T,261.0,M,004.1,N,007.5,K*4F
$GPGGA,003756.329,3239.8687,N,11723.2276,W,3,05,1.2,023.1,M,036.4,M,,*79
$GPGXP,003756,3239.8687,N,11723.2276,W*57
$GPVTG,264.2,T,251.0,M,004.5,N,008.3,K*40
$GPGGA,003811.329,3239.8691,N,11723.2497,W,3,05,1.2,021.7,M,036.4,M,,*7F
$GPGXP,003811,3239.8691,N,11723.2497,W*55
$GPVTG,268.0,T,254.7,M,004.5,N,008.4,K*4B
$GPGGA,003826.329,3239.8694,N,11723.2722,W,3,05,1.2,021.1,M,036.4,M,,*75
$GPGXP,003826,3239.8694,N,11723.2722,W*59
$GPVTG,272.2,T,259.0,M,004.7,N,008.6,K*48
$GPGGA,003841.329,3239.8697,N,11723.2943,W,3,05,1.2,020.7,M,036.4,M,,*79
$GPGXP,003841,3239.8697,N,11723.2943,W*52
$GPVTG,267.7,T,254.4,M,004.9,N,009.0,K*49
$GPGGA,003856.329,3239.8700,N,11723.3171,W,3,05,1.2,019.8,M,036.4,M,,*7D
$GPGXP,003856,3239.8700,N,11723.3171,W*53
$GPVTG,263.6,T,250.4,M,004.2,N,007.8,K*45
$GPGGA,003911.329,3239.8711,N,11723.3390,W,3,05,1.2,020.5,M,036.4,M,,*75
$GPGXP,003911,3239.8711,N,11723.3390,W*5C
$GPVTG,275.1,T,261.9,M,005.3,N,009.9,K*45
$GPGGA,003926.329,3239.8721,N,11723.3616,W,3,05,1.2,019.6,M,036.4,M,,*70
$GPGXP,003926,3239.8721,N,11723.3616,W*50
$GPVTG,276.0,T,262.7,M,004.3,N,008.0,K*43
$GPGGA,003941.329,3239.8728,N,11723.3830,W,3,05,1.2,020.2,M,036.4,M,,*7C
$GPGXP,003941,3239.8728,N,11723.3830,W*52
$GPVTG,270.8,T,257.6,M,004.0,N,007.4,K*42
$GPGGA,003956.329,3239.8732,N,11723.4048,W,3,05,1.2,019.9,M,036.4,M,,*70
$GPGXP,003956,3239.8732,N,11723.4048,W*5F
$GPVTG,272.3,T,259.1,M,004.4,N,008.1,K*4C
$GPGGA,004011.329,3239.8741,N,11723.4271,W,3,05,1.2,021.0,M,036.4,M,,*73
$GPGXP,004011,3239.8741,N,11723.4271,W*5E
$GPVTG,262.5,T,249.2,M,004.1,N,007.6,K*44
$GPGGA,004026.329,3239.8753,N,11723.4493,W,3,05,1.2,018.6,M,036.4,M,,*72
$GPGXP,004026,3239.8753,N,11723.4493,W*53
$GPVTG,283.6,T,270.3,M,004.8,N,008.8,K*4B
$GPGGA,004041.329,3239.8784,N,11723.4710,W,3,05,1.2,018.2,M,036.4,M,,*75
$GPGXP,004041,3239.8784,N,11723.4710,W*50
$GPVTG,276.8,T,263.6,M,004.4,N,008.1,K*4D
$GPGGA,004056.329,3239.8812,N,11723.4927,W,3,05,1.2,016.8,M,036.4,M,,*7D
$GPGXP,004056,3239.8812,N,11723.4927,W*5C
$GPVTG,270.4,T,257.2,M,003.9,N,007.3,K*43
$GPGGA,004111.329,3239.8835,N,11723.5139,W,3,05,1.2,017.6,M,036.4,M,,*73
$GPGXP,004111,3239.8835,N,11723.5139,W*5D
$GPVTG,280.7,T,267.5,M,003.9,N,007.2,K*4A
$GPGGA,004126.329,3239.8854,N,11723.5355,W,3,05,1.2,017.9,M,036.4,M,,*77
$GPGXP,004126,3239.8854,N,11723.5355,W*56
$GPVTG,280.9,T,267.7,M,004.9,N,009.0,K*4D
$GPGGA,004141.329,3239.8876,N,11723.5576,W,3,05,1.2,018.9,M,036.4,M,,*7E
$GPGXP,004141,3239.8876,N,11723.5576,W*50
$GPVTG,273.9,T,260.6,M,004.7,N,008.7,K*4F
$GPGGA,004156.329,3239.8896,N,11723.5794,W,3,05,1.2,019.7,M,036.4,M,,*77
$GPGXP,004156,3239.8896,N,11723.5794,W*56
$GPVTG,275.6,T,262.4,M,004.3,N,008.0,K*45
$GPGGA,004211.329,3239.8915,N,11723.6018,W,3,05,1.2,017.1,M,036.4,M,,*75
$GPGXP,004211,3239.8915,N,11723.6018,W*5C
$GPVTG,281.2,T,268.0,M,004.4,N,008.2,K*41
$GPGGA,004226.329,3239.8939,N,11723.6236,W,3,05,1.2,016.5,M,036.4,M,,*74
$GPGXP,004226,3239.8939,N,11723.6236,W*58
$GPVTG,278.7,T,265.4,M,004.9,N,009.2,K*47
$GPGGA,004241.329,3239.8964,N,11723.6448,W,3,05,1.2,015.7,M,036.4,M,,*73
$GPGXP,004241,3239.8964,N,11723.6448,W*5E
$GPVTG,279.9,T,266.6,M,005.5,N,010.2,K*4C
$GPGGA,004256.329,3239.8990,N,11723.6658,W,3,05,1.2,016.2,M,036.4,M,,*7B
$GPGXP,004256,3239.8990,N,11723.6658,W*50
$GPVTG,285.7,T,272.5,M,003.4,N,006.3,K*46
$GPGGA,004311.329,3239.9016,N,11723.6856,W,3,05,1.2,014.2,M,036.4,M,,*7D
$GPGXP,004311,3239.9016,N,11723.6856,W*54
$GPVTG,283.3,T,270.0,M,004.4,N,008.2,K*4B
$GPGGA,004326.329,3239.9046,N,11723.7062,W,3,05,1.2,015.9,M,036.4,M,,*78
$GPGXP,004326,3239.9046,N,11723.7062,W*5B
$GPVTG,277.8,T,264.6,M,004.5,N,008.2,K*49
$GPGGA,004341.329,3239.9070,N,11723.7285,W,3,05,1.5,021.0,M,036.4,M,,*7E
$GPGXP,004341,3239.9070,N,11723.7285,W*54
$GPVTG,285.2,T,272.0,M,005.1,N,009.4,K*4D
$GPGGA,004356.329,3239.9094,N,11723.7500,W,3,05,1.5,023.6,M,036.4,M,,*7C
$GPGXP,004356,3239.9094,N,11723.7500,W*52
$GPVTG,285.1,T,271.9,M,004.1,N,007.7,K*48
$GPGGA,004411.329,3239.9127,N,11723.7702,W,3,05,1.5,021.8,M,036.4,M,,*7D
$GPGXP,004411,3239.9127,N,11723.7702,W*5F
$GPVTG,276.0,T,262.7,M,005.3,N,009.8,K*4B
$GPGGA,004426.329,3239.9158,N,11723.7918,W,3,05,1.5,021.8,M,036.4,M,,*74
$GPGXP,004426,3239.9158,N,11723.7918,W*56
$GPVTG,279.0,T,265.8,M,004.3,N,008.0,K*44
$GPGGA,004441.329,3239.9193,N,11723.8127,W,3,05,1.5,021.5,M,036.4,M,,*74
$GPGXP,004441,3239.9193,N,11723.8127,W*5B
$GPVTG,279.5,T,266.3,M,005.0,N,009.3,K*49
$GPGGA,004456.329,3239.9224,N,11723.8342,W,3,05,1.5,020.6,M,036.4,M,,*7E
$GPGXP,004456,3239.9224,N,11723.8342,W*53
$GPVTG,275.4,T,262.1,M,004.8,N,009.0,K*48
$GPGGA,004511.329,3239.9254,N,11723.8556,W,3,05,1.5,021.2,M,036.4,M,,*7D
$GPGXP,004511,3239.9254,N,11723.8556,W*55
$GPVTG,277.1,T,263.9,M,004.5,N,008.4,K*4E
$GPGGA,004526.329,3239.9287,N,11723.8771,W,3,05,1.5,021.4,M,036.4,M,,*76
$GPGXP,004526,3239.9287,N,11723.8771,W*58
$GPVTG,282.5,T,269.2,M,004.6,N,008.5,K*43
$GPGGA,004541.329,3239.9321,N,11723.8985,W,3,05,1.5,020.7,M,036.4,M,,*7D
$GPGXP,004541,3239.9321,N,11723.8985,W*51
$GPVTG,280.6,T,267.4,M,003.9,N,007.2,K*4A
$GPGGA,004556.329,3239.9348,N,11723.9205,W,3,05,1.5,021.1,M,036.4,M,,*71
$GPGXP,004556,3239.9348,N,11723.9205,W*5A
$GPVTG,274.2,T,261.0,M,005.2,N,009.6,K*40
$GPGGA,004611.329,3239.9376,N,11723.9426,W,3,05,1.5,021.1,M,036.4,M,,*7B
$GPGXP,004611,3239.9376,N,11723.9426,W*50
$GPVTG,271.5,T,258.2,M,005.0,N,009.3,K*4D
$GPGGA,004626.329,3239.9410,N,11723.9641,W,3,05,1.5,021.1,M,036.4,M,,*7B
$GPGXP,004626,3239.9410,N,11723.9641,W*50
$GPVTG,272.4,T,259.1,M,005.0,N,009.2,K*4C
$GPGGA,004641.329,3239.9443,N,11723.9853,W,3,05,1.5,021.2,M,036.4,M,,*72
$GPGXP,004641,3239.9443,N,11723.9853,W*5A
$GPVTG,275.2,T,262.0,M,004.9,N,009.1,K*4F
$GPGGA,004656.329,3239.9474,N,11724.0068,W,3,05,1.5,021.1,M,036.4,M,,*7D
$GPGXP,004656,3239.9474,N,11724.0068,W*56
$GPVTG,280.0,T,266.8,M,005.0,N,009.2,K*40
$GPGGA,004711.329,3239.9504,N,11724.0287,W,3,05,1.5,021.5,M,036.4,M,,*7E
$GPGXP,004711,3239.9504,N,11724.0287,W*51
$GPVTG,279.6,T,266.4,M,004.3,N,007.9,K*4B
$GPGGA,004726.329,3239.9526,N,11724.0499,W,3,05,1.5,021.3,M,036.4,M,,*75
$GPGXP,004726,3239.9526,N,11724.0499,W*5C
$GPVTG,281.9,T,268.7,M,004.5,N,008.4,K*4A
$GPGGA,004741.329,3239.9553,N,11724.0712,W,3,05,1.5,021.9,M,036.4,M,,*7C
$GPGXP,004741,3239.9553,N,11724.0712,W*5F
$GPVTG,285.4,T,272.2,M,004.3,N,008.0,K*4F
$GPGGA,004756.329,3239.9588,N,11724.0925,W,3,05,1.5,022.0,M,036.4,M,,*7C
$GPGXP,004756,3239.9588,N,11724.0925,W*55
$GPVTG,281.5,T,268.3,M,005.3,N,009.8,K*48
$GPGGA,004811.329,3239.9623,N,11724.1134,W,3,05,1.5,021.5,M,036.4,M,,*7D
$GPGXP,004811,3239.9623,N,11724.1134,W*52
$GPVTG,289.0,T,275.7,M,004.6,N,008.4,K*44
$GPGGA,004826.329,3239.9657,N,11724.1344,W,3,05,1.5,020.3,M,036.4,M,,*78
$GPGXP,004826,3239.9657,N,11724.1344,W*50
$GPVTG,281.0,T,267.8,M,002.8,N,005.3,K*42
$GPGGA,004841.329,3239.9686,N,11724.1550,W,3,05,1.5,020.4,M,036.4,M,,*71
$GPGXP,004841,3239.9686,N,11724.1550,W*5E
$GPVTG,270.7,T,257.5,M,003.2,N,006.0,K*4E
$GPGGA,004856.329,3239.9710,N,11724.1754,W,3,05,1.5,019.8,M,036.4,M,,*79
$GPGXP,004856,3239.9710,N,11724.1754,W*50
$GPVTG,276.5,T,263.2,M,004.6,N,008.6,K*41
$GPGGA,004911.328,3239.9732,N,11724.1959,W,3,05,1.5,020.6,M,036.4,M,,*7D
$GPGXP,004911,3239.9732,N,11724.1959,W*51
$GPVTG,284.1,T,270.9,M,003.6,N,006.7,K*49
$GPGGA,004926.328,3239.9759,N,11724.2164,W,3,05,1.5,021.7,M,036.4,M,,*71
$GPGXP,004926,3239.9759,N,11724.2164,W*5D
$GPVTG,281.6,T,268.4,M,004.1,N,007.5,K*4C
$GPGGA,004941.328,3239.9793,N,11724.2368,W,3,05,1.5,021.3,M,036.4,M,,*7C
$GPGXP,004941,3239.9793,N,11724.2368,W*54
$GPVTG,288.6,T,275.3,M,005.2,N,009.7,K*40
$GPGGA,004956.328,3239.9833,N,11724.2573,W,3,05,1.5,021.3,M,036.4,M,,*73
$GPGXP,004956,3239.9833,N,11724.2573,W*5B
$GPVTG,279.6,T,266.3,M,004.9,N,009.1,K*40
$GPGGA,005011.328,3239.9865,N,11724.2781,W,3,05,1.5,022.1,M,036.4,M,,*75
$GPGXP,005011,3239.9865,N,11724.2781,W*5C
$GPVTG,275.7,T,262.5,M,003.9,N,007.1,K*46
$GPGGA,005026.328,3239.9896,N,11724.2989,W,3,05,1.5,021.8,M,036.4,M,,*71
$GPGXP,005026,3239.9896,N,11724.2989,W*52
$GPVTG,273.0,T,259.8,M,004.8,N,008.9,K*43
$GPGGA,005041.328,3239.9918,N,11724.3209,W,3,05,1.5,021.1,M,036.4,M,,*7C
$GPGXP,005041,3239.9918,N,11724.3209,W*56
$GPVTG,283.8,T,270.6,M,004.5,N,008.4,K*41
$GPGGA,005056.328,3239.9948,N,11724.3422,W,3,05,1.5,021.5,M,036.4,M,,*74
$GPGXP,005056,3239.9948,N,11724.3422,W*5A
$GPVTG,276.9,T,263.7,M,003.2,N,006.0,K*43
$GPGGA,005111.328,3239.9979,N,11724.3623,W,3,05,1.5,021.9,M,036.4,M,,*7B
$GPGXP,005111,3239.9979,N,11724.3623,W*59
$GPVTG,281.5,T,268.3,M,004.9,N,009.0,K*4B
$GPGGA,005126.328,3240.0018,N,11724.3826,W,3,05,1.5,023.1,M,036.4,M,,*77
$GPGXP,005126,3240.0018,N,11724.3826,W*5F
$GPVTG,274.9,T,261.7,M,003.8,N,007.0,K*48
$GPGGA,005141.328,3240.0054,N,11724.4032,W,3,05,1.5,021.7,M,036.4,M,,*70
$GPGXP,005141,3240.0054,N,11724.4032,W*5C
$GPVTG,283.4,T,270.1,M,003.9,N,007.2,K*48
$GPGGA,005156.328,3240.0086,N,11724.4246,W,3,05,1.5,021.9,M,036.4,M,,*76
$GPGXP,005156,3240.0086,N,11724.4246,W*54
$GPVTG,279.4,T,266.2,M,004.1,N,007.6,K*42
$GPGGA,005211.328,3240.0114,N,11724.4460,W,3,05,1.5,021.3,M,036.4,M,,*74
$GPGXP,005211,3240.0114,N,11724.4460,W*5C
$GPVTG,278.2,T,264.9,M,004.7,N,008.8,K*4B
$GPGGA,005226.328,3240.0143,N,11724.4677,W,3,05,1.5,022.3,M,036.4,M,,*75
$GPGXP,005226,3240.0143,N,11724.4677,W*5E
$GPVTG,276.5,T,263.2,M,004.0,N,007.4,K*4A
$GPGGA,005241.328,3240.0177,N,11724.4891,W,3,05,1.5,022.8,M,036.4,M,,*7E
$GPGXP,005241,3240.0177,N,11724.4891,W*5E
$GPVTG,287.5,T,274.3,M,004.0,N,007.5,K*42
$GPGGA,005256.328,3240.0219,N,11724.5105,W,3,05,1.4,023.6,M,036.4,M,,*78
$GPGXP,005256,3240.0219,N,11724.5105,W*56
$GPVTG,282.7,T,269.4,M,004.1,N,007.6,K*4C
$GPGGA,005311.328,3240.0258,N,11724.5317,W,3,05,1.4,022.4,M,036.4,M,,*7D
$GPGXP,005311,3240.0258,N,11724.5317,W*50
$GPVTG,279.7,T,266.5,M,004.5,N,008.3,K*48
$GPGGA,005326.328,3240.0290,N,11724.5535,W,3,05,1.4,021.8,M,036.4,M,,*74
$GPGXP,005326,3240.0290,N,11724.5535,W*56
$GPVTG,266.7,T,253.5,M,004.9,N,009.1,K*4F
$GPGGA,005341.328,3240.0318,N,11724.5752,W,3,05,1.4,022.7,M,036.4,M,,*7B
$GPGXP,005341,3240.0318,N,11724.5752,W*55
$GPVTG,270.8,T,257.5,M,004.0,N,007.4,K*41
$GPGGA,005356.328,3240.0342,N,11724.5984,W,3,05,1.4,032.9,M,036.4,M,,*78
$GPGXP,005356,3240.0342,N,11724.5984,W*59
$GPVTG,281.6,T,268.4,M,003.5,N,006.5,K*4E
$GPGGA,005411.328,3240.0376,N,11724.6187,W,3,05,1.4,029.6,M,036.4,M,,*76
$GPGXP,005411,3240.0376,N,11724.6187,W*52
$GPVTG,285.7,T,272.5,M,004.8,N,008.9,K*49
$GPGGA,005426.328,3240.0405,N,11724.6398,W,3,05,1.4,029.1,M,036.4,M,,*7A
$GPGXP,005426,3240.0405,N,11724.6398,W*59
$GPVTG,275.0,T,261.8,M,003.4,N,006.3,K*41
$GPGGA,005441.328,3240.0431,N,11724.6599,W,3,05,1.4,029.7,M,036.4,M,,*7D
$GPGXP,005441,3240.0431,N,11724.6599,W*58
$GPVTG,279.0,T,265.7,M,003.7,N,006.9,K*4F
$GPGGA,005456.328,3240.0453,N,11724.6808,W,3,05,1.4,029.9,M,036.4,M,,*74
$GPGXP,005456,3240.0453,N,11724.6808,W*5F
$GPVTG,274.2,T,261.0,M,004.6,N,008.4,K*46
$GPGGA,005511.328,3240.0476,N,11724.7016,W,3,05,1.4,030.6,M,036.4,M,,*70
$GPGXP,005511,3240.0476,N,11724.7016,W*5C
$GPVTG,280.5,T,267.3,M,004.3,N,008.0,K*4E
$GPGGA,005526.328,3240.0501,N,11724.7225,W,3,05,1.4,031.2,M,036.4,M,,*72
$GPGXP,005526,3240.0501,N,11724.7225,W*5B
$GPVTG,279.6,T,266.4,M,003.8,N,007.1,K*4F
$GPGGA,005541.328,3240.0531,N,11724.7429,W,3,05,1.4,029.3,M,036.4,M,,*72
$GPGXP,005541,3240.0531,N,11724.7429,W*53
$GPVTG,281.6,T,268.3,M,004.8,N,009.0,K*49
$GPGGA,005556.328,3240.0564,N,11724.7643,W,3,05,1.4,030.3,M,036.4,M,,*72
$GPGXP,005556,3240.0564,N,11724.7643,W*5B
$GPVTG,277.9,T,264.7,M,004.2,N,007.8,K*4B
$GPGGA,005611.328,3240.0595,N,11724.7858,W,3,05,1.4,031.4,M,036.4,M,,*7E
$GPGXP,005611,3240.0595,N,11724.7858,W*51
$GPVTG,279.3,T,266.1,M,003.9,N,007.3,K*4C
$GPGGA,005626.328,3240.0630,N,11724.8069,W,3,05,1.4,031.0,M,036.4,M,,*77
$GPGXP,005626,3240.0630,N,11724.8069,W*5C
$GPVTG,283.2,T,269.9,M,003.1,N,005.7,K*41
$GPGGA,005641.328,3240.0662,N,11724.8281,W,3,05,1.4,031.6,M,036.4,M,,*73
$GPGXP,005641,3240.0662,N,11724.8281,W*5E
$GPVTG,280.3,T,267.0,M,005.0,N,009.2,K*4A
$GPGGA,005656.328,3240.0694,N,11724.8497,W,3,05,1.4,028.9,M,036.4,M,,*7A
$GPGXP,005656,3240.0694,N,11724.8497,W*50
$GPVTG,278.7,T,265.5,M,005.1,N,009.4,K*49
$GPGGA,005711.328,3240.0721,N,11724.8705,W,3,05,1.4,028.8,M,036.4,M,,*7E
$GPGXP,005711,3240.0721,N,11724.8705,W*55
$GPVTG,283.6,T,270.3,M,004.4,N,008.1,K*4E
$GPGGA,005726.328,3240.0745,N,11724.8910,W,3,05,1.4,028.0,M,036.4,M,,*7A
$GPGXP,005726,3240.0745,N,11724.8910,W*59
$GPVTG,271.9,T,258.6,M,003.5,N,006.5,K*4F
$GPGGA,005741.328,3240.0761,N,11724.9123,W,3,05,1.4,027.4,M,036.4,M,,*7F
$GPGXP,005741,3240.0761,N,11724.9123,W*57
$GPVTG,270.0,T,256.8,M,005.4,N,0010.0,K*72
$GPGGA,005756.328,3240.0769,N,11724.9342,W,3,05,1.4,027.2,M,036.4,M,,*72
$GPGXP,005756,3240.0769,N,11724.9342,W*5C
$GPVTG,272.0,T,258.7,M,004.1,N,007.6,K*45
$GPGGA,005811.328,3240.0763,N,11724.9558,W,3,05,1.4,030.4,M,036.4,M,,*79
$GPGXP,005811,3240.0763,N,11724.9558,W*57
$GPVTG,251.5,T,238.3,M,005.0,N,009.2,K*49
$GPGGA,005826.328,3240.0741,N,11724.9764,W,3,05,1.4,028.3,M,036.4,M,,*7E
$GPGXP,005826,3240.0741,N,11724.9764,W*5E
$GPVTG,260.6,T,247.4,M,005.2,N,009.7,K*40
$GPGGA,005841.328,3240.0714,N,11724.9980,W,3,05,1.4,026.9,M,036.4,M,,*7F
$GPGXP,005841,3240.0714,N,11724.9980,W*5B
$GPVTG,258.1,T,244.9,M,005.2,N,009.6,K*43
$GPGGA,005856.328,3240.0683,N,11725.0198,W,3,05,1.4,028.8,M,036.4,M,,*70
$GPGXP,005856,3240.0683,N,11725.0198,W*5B
$GPVTG,261.2,T,248.0,M,004.1,N,007.6,K*43
$GPGGA,005911.328,3240.0656,N,11725.0416,W,3,05,1.4,027.2,M,036.4,M,,*7C
$GPGXP,005911,3240.0656,N,11725.0416,W*52
$GPVTG,272.3,T,259.0,M,005.2,N,009.6,K*4C
$GPGGA,005926.328,3240.0627,N,11725.0643,W,3,05,1.4,029.6,M,036.4,M,,*76
$GPGXP,005926,3240.0627,N,11725.0643,W*52
$GPVTG,264.4,T,251.2,M,004.8,N,009.0,K*4B
$GPGGA,005941.328,3240.0584,N,11725.0862,W,3,05,1.4,028.5,M,036.4,M,,*72
$GPGXP,005941,3240.0584,N,11725.0862,W*54
$GPVTG,244.2,T,230.9,M,004.5,N,008.4,K*4B
$GPGGA,005956.328,3240.0532,N,11725.1086,W,3,05,1.4,028.4,M,036.4,M,,*7B
$GPGXP,005956,3240.0532,N,11725.1086,W*5C
$GPVTG,249.7,T,236.5,M,003.5,N,006.4,K*40
$GPGGA,010011.328,3240.0485,N,11725.1308,W,3,05,1.4,028.8,M,036.4,M,,*71
$GPGXP,010011,3240.0485,N,11725.1308,W*5A
$GPVTG,271.8,T,258.6,M,004.8,N,009.0,K*4E
$GPGGA,010026.328,3240.0440,N,11725.1530,W,3,05,1.4,028.9,M,036.4,M,,*70
$GPGXP,010026,3240.0440,N,11725.1530,W*5A
$GPVTG,257.7,T,244.4,M,005.1,N,009.4,K*46
$GPGGA,010041.328,3240.0393,N,11725.1750,W,3,05,1.4,026.7,M,036.4,M,,*7C
$GPGXP,010041,3240.0393,N,11725.1750,W*56
$GPVTG,246.8,T,233.6,M,004.8,N,008.9,K*4F
$GPGGA,010056.328,3240.0346,N,11725.1974,W,3,05,1.4,028.4,M,036.4,M,,*77
$GPGXP,010056,3240.0346,N,11725.1974,W*50
$GPVTG,257.6,T,244.3,M,004.8,N,008.8,K*45
$GPGGA,010111.328,3240.0291,N,11725.2199,W,3,05,1.4,026.5,M,036.4,M,,*79
$GPGXP,010111,3240.0291,N,11725.2199,W*51
$GPVTG,243.5,T,230.2,M,005.3,N,009.9,K*4B
$GPGGA,010126.328,3240.0231,N,11725.2419,W,3,05,1.4,027.4,M,036.4,M,,*7A
$GPGXP,010126,3240.0231,N,11725.2419,W*52
$GPVTG,250.8,T,237.5,M,005.0,N,009.3,K*4D
$GPGGA,010141.328,3240.0182,N,11725.2636,W,3,05,1.4,024.7,M,036.4,M,,*7F
$GPGXP,010141,3240.0182,N,11725.2636,W*57
$GPVTG,246.8,T,233.6,M,004.7,N,008.7,K*4E
$GPGGA,010156.328,3240.0130,N,11725.2865,W,3,05,1.4,028.2,M,036.4,M,,*71
$GPGXP,010156,3240.0130,N,11725.2865,W*50
$GPVTG,251.5,T,238.2,M,004.3,N,008.0,K*49
$GPGGA,010211.328,3240.0082,N,11725.3091,W,3,05,1.4,027.9,M,036.4,M,,*7F
$GPGXP,010211,3240.0082,N,11725.3091,W*5A
$GPVTG,250.2,T,236.9,M,004.8,N,008.9,K*48
$GPGGA,010226.328,3240.0032,N,11725.3317,W,3,05,1.4,027.5,M,036.4,M,,*71
$GPGXP,010226,3240.0032,N,11725.3317,W*58
$GPVTG,253.3,T,240.1,M,005.2,N,009.6,K*46
$GPGGA,010241.328,3239.9976,N,11725.3548,W,3,05,1.4,027.3,M,036.4,M,,*74
$GPGXP,010241,3239.9976,N,11725.3548,W*5B
$GPVTG,250.9,T,237.6,M,005.1,N,009.4,K*49
$GPGGA,010256.328,3239.9924,N,11725.3772,W,3,05,1.4,025.0,M,036.4,M,,*7F
$GPGXP,010256,3239.9924,N,11725.3772,W*51
$GPVTG,251.2,T,238.0,M,005.0,N,009.2,K*4D
$GPGGA,010311.328,3239.9870,N,11725.4010,W,3,05,1.4,028.4,M,036.4,M,,*70
$GPGXP,010311,3239.9870,N,11725.4010,W*57
$GPVTG,247.7,T,234.5,M,004.6,N,008.5,K*47
$GPGGA,010326.328,3239.9818,N,11725.4240,W,3,05,1.4,028.4,M,036.4,M,,*7D
$GPGXP,010326,3239.9818,N,11725.4240,W*5A
$GPVTG,256.3,T,243.1,M,005.5,N,010.2,K*4B
$GPGGA,010341.328,3239.9763,N,11725.4476,W,3,05,1.4,027.1,M,036.4,M,,*76
$GPGXP,010341,3239.9763,N,11725.4476,W*5B
$GPVTG,256.1,T,242.9,M,005.3,N,009.8,K*44
$GPGGA,010356.328,3239.9713,N,11725.4710,W,3,05,1.4,028.2,M,036.4,M,,*78
$GPGXP,010356,3239.9713,N,11725.4710,W*59
$GPVTG,259.7,T,246.5,M,005.7,N,010.5,K*44
$GPGGA,010411.328,3239.9662,N,11725.4949,W,3,05,1.4,029.0,M,036.4,M,,*7A
$GPGXP,010411,3239.9662,N,11725.4949,W*58
$GPVTG,245.1,T,231.9,M,004.3,N,007.9,K*4C
$GPGGA,010426.328,3239.9605,N,11725.5178,W,3,05,1.4,026.7,M,036.4,M,,*7C
$GPGXP,010426,3239.9605,N,11725.5178,W*56
$GPVTG,243.7,T,230.5,M,005.7,N,010.5,K*4E
$GPGGA,010441.328,3239.9551,N,11725.5407,W,3,05,1.4,027.8,M,036.4,M,,*7C
$GPGXP,010441,3239.9551,N,11725.5407,W*58
$GPVTG,249.9,T,236.7,M,004.6,N,008.5,K*47
$GPGGA,010456.328,3239.9497,N,11725.5626,W,3,05,1.4,024.6,M,036.4,M,,*7D
$GPGXP,010456,3239.9497,N,11725.5626,W*54
$GPVTG,253.8,T,240.5,M,004.6,N,008.6,K*4D
$GPGGA,010511.328,3239.9429,N,11725.5862,W,3,05,1.4,028.4,M,036.4,M,,*7A
$GPGXP,010511,3239.9429,N,11725.5862,W*5D
$GPVTG,250.3,T,237.0,M,005.5,N,010.2,K*4F
$GPGGA,010526.328,3239.9345,N,11725.6079,W,3,05,1.4,025.7,M,036.4,M,,*7C
$GPGXP,010526,3239.9345,N,11725.6079,W*55
$GPVTG,249.9,T,236.7,M,004.6,N,008.5,K*47
$GPGGA,010541.328,3239.9241,N,11725.6301,W,3,05,1.4,029.9,M,036.4,M,,*76
$GPGXP,010541,3239.9241,N,11725.6301,W*5D
$GPVTG,220.6,T,207.3,M,005.3,N,009.7,K*46
$GPGGA,010556.328,3239.9123,N,11725.6493,W,3,05,1.4,028.8,M,036.4,M,,*7B
$GPGXP,010556,3239.9123,N,11725.6493,W*50
$GPVTG,234.8,T,221.6,M,004.9,N,009.0,K*40
$GPGGA,010611.328,3239.8989,N,11725.6684,W,3,05,1.4,030.2,M,036.4,M,,*75
$GPGXP,010611,3239.8989,N,11725.6684,W*5D
$GPVTG,212.1,T,198.9,M,005.6,N,010.3,K*46
$GPGGA,010626.328,3239.8828,N,11725.6856,W,3,05,1.4,028.6,M,036.4,M,,*77
$GPGXP,010626,3239.8828,N,11725.6856,W*52
$GPVTG,202.9,T,189.7,M,005.7,N,010.6,K*45
$GPGGA,010641.328,3239.8655,N,11725.7013,W,3,05,1.4,028.6,M,036.4,M,,*7A
$GPGXP,010641,3239.8655,N,11725.7013,W*5F
$GPVTG,208.1,T,194.8,M,004.8,N,008.9,K*4C
$GPGGA,010656.328,3239.8471,N,11725.7144,W,3,05,1.4,030.9,M,036.4,M,,*7D
$GPGXP,010656,3239.8471,N,11725.7144,W*5E
$GPVTG,209.5,T,196.3,M,005.3,N,009.9,K*4B
$GPGGA,010711.328,3239.8274,N,11725.7263,W,3,05,1.4,034.1,M,036.4,M,,*76
$GPGXP,010711,3239.8274,N,11725.7263,W*59
$GPVTG,213.4,T,200.2,M,005.4,N,0010.0,K*7A
$GPGGA,010726.328,3239.8060,N,11725.7339,W,3,05,1.4,030.2,M,036.4,M,,*7C
$GPGXP,010726,3239.8060,N,11725.7339,W*54
$GPVTG,213.1,T,199.9,M,005.6,N,010.4,K*41
$GPGGA,010741.328,3239.7839,N,11725.7405,W,3,05,1.4,029.9,M,036.4,M,,*7D
$GPGXP,010741,3239.7839,N,11725.7405,W*56
$GPVTG,180.5,T,167.3,M,005.8,N,010.8,K*45
$GPGGA,010756.328,3239.7608,N,11725.7456,W,3,05,1.4,030.3,M,036.4,M,,*73
$GPGXP,010756,3239.7608,N,11725.7456,W*5A
$GPVTG,175.9,T,162.7,M,006.1,N,011.3,K*42
$GPGGA,010811.328,3239.7381,N,11725.7499,W,3,05,1.4,026.7,M,036.4,M,,*7B
$GPGXP,010811,3239.7381,N,11725.7499,W*51
$GPVTG,182.1,T,168.9,M,005.5,N,010.1,K*42
$GPGGA,010826.328,3239.7148,N,11725.7515,W,3,05,1.4,029.1,M,036.4,M,,*74
$GPGXP,010826,3239.7148,N,11725.7515,W*57
$GPVTG,176.9,T,163.7,M,005.6,N,010.4,K*42
$GPGGA,010841.328,3239.6915,N,11725.7511,W,3,05,1.4,028.9,M,036.4,M,,*79
$GPGXP,010841,3239.6915,N,11725.7511,W*53
$GPGGA,011207.327,3239.4079,N,11725.5706,W,3,05,1.3,030.1,M,036.4,M,,*7E
$GPGXP,011207,3239.4079,N,11725.5706,W*5D
$GPVTG,129.2,T,116.0,M,005.8,N,010.8,K*44
$GPGGA,011222.327,3239.3928,N,11725.5478,W,3,05,1.3,031.0,M,036.4,M,,*79
$GPGXP,011222,3239.3928,N,11725.5478,W*5A
$GPVTG,127.1,T,113.9,M,005.9,N,010.9,K*45
$GPGGA,011237.327,3239.3777,N,11725.5256,W,3,05,1.3,031.2,M,036.4,M,,*71
$GPGXP,011237,3239.3777,N,11725.5256,W*50
$GPVTG,127.7,T,114.5,M,006.1,N,011.3,K*48
$GPGGA,011252.327,3239.3613,N,11725.5035,W,3,05,1.3,027.7,M,036.4,M,,*74
$GPGXP,011252,3239.3613,N,11725.5035,W*57
$GPVTG,137.8,T,124.6,M,005.9,N,011.0,K*4E
$GPGGA,011307.327,3239.3443,N,11725.4823,W,3,05,1.3,026.3,M,036.4,M,,*79
$GPGXP,011307,3239.3443,N,11725.4823,W*5F
$GPVTG,125.7,T,112.5,M,006.2,N,011.4,K*48
$GPGGA,011322.327,3239.3293,N,11725.4597,W,3,05,1.3,030.3,M,036.4,M,,*70
$GPGXP,011322,3239.3293,N,11725.4597,W*51
$GPVTG,125.4,T,112.2,M,005.7,N,010.5,K*4A
$GPGGA,011337.327,3239.3158,N,11725.4346,W,3,05,1.3,030.0,M,036.4,M,,*79
$GPGXP,011337,3239.3158,N,11725.4346,W*5B
$GPVTG,119.3,T,106.1,M,005.6,N,010.4,K*44
$GPGGA,011352.327,3239.3034,N,11725.4092,W,3,05,1.3,031.8,M,036.4,M,,*72
$GPGXP,011352,3239.3034,N,11725.4092,W*59
$GPVTG,119.2,T,105.9,M,006.0,N,011.1,K*4F
$GPGGA,011407.327,3239.2904,N,11725.3864,W,3,05,1.3,030.6,M,036.4,M,,*77
$GPGXP,011407,3239.2904,N,11725.3864,W*53
$GPVTG,124.1,T,110.9,M,005.9,N,011.0,K*4D
$GPGGA,011422.327,3239.2755,N,11725.3631,W,3,05,1.3,030.9,M,036.4,M,,*7B
$GPGXP,011422,3239.2755,N,11725.3631,W*50
$GPVTG,132.9,T,119.7,M,005.9,N,010.9,K*4D
$GPGGA,011437.327,3239.2610,N,11725.3396,W,3,05,1.3,029.4,M,036.4,M,,*72
$GPGXP,011437,3239.2610,N,11725.3396,W*5C
$GPVTG,128.9,T,115.7,M,005.8,N,010.7,K*45
$GPGGA,011452.327,3239.2465,N,11725.3160,W,3,05,1.3,030.6,M,036.4,M,,*70
$GPGXP,011452,3239.2465,N,11725.3160,W*54
$GPVTG,126.1,T,112.9,M,005.9,N,010.9,K*45
$GPGGA,011507.327,3239.2315,N,11725.2926,W,3,05,1.3,031.6,M,036.4,M,,*7B
$GPGXP,011507,3239.2315,N,11725.2926,W*5E
$GPVTG,124.9,T,111.7,M,005.9,N,010.8,K*43
$GPGGA,011522.327,3239.2170,N,11725.2690,W,3,05,1.3,031.5,M,036.4,M,,*7C
$GPGXP,011522,3239.2170,N,11725.2690,W*5A
$GPVTG,121.3,T,108.0,M,005.8,N,010.8,K*42
$GPGGA,011537.327,3239.2023,N,11725.2456,W,3,05,1.3,028.4,M,036.4,M,,*7E
$GPGXP,011537,3239.2023,N,11725.2456,W*51
$GPVTG,128.0,T,114.8,M,005.8,N,010.7,K*42
$GPGGA,011552.327,3239.1880,N,11725.2219,W,3,05,1.3,029.9,M,036.4,M,,*7E
$GPGXP,011552,3239.1880,N,11725.2219,W*5D
$GPVTG,133.0,T,119.8,M,005.9,N,011.0,K*42
$GPGGA,011607.327,3239.1735,N,11725.1983,W,3,05,1.3,029.1,M,036.4,M,,*7F
$GPGXP,011607,3239.1735,N,11725.1983,W*54
$GPVTG,127.8,T,114.5,M,005.8,N,010.7,K*48
$GPGGA,011622.327,3239.1590,N,11725.1748,W,3,05,1.3,028.5,M,036.4,M,,*79
$GPGXP,011622,3239.1590,N,11725.1748,W*57
$GPVTG,130.4,T,117.2,M,005.8,N,010.7,K*46
$GPGGA,011637.327,3239.1449,N,11725.1509,W,3,05,1.3,029.2,M,036.4,M,,*79
$GPGXP,011637,3239.1449,N,11725.1509,W*51
$GPVTG,120.9,T,107.7,M,005.9,N,010.8,K*40
$GPGGA,011652.327,3239.1298,N,11725.1273,W,3,05,1.4,021.3,M,036.4,M,,*74
$GPGXP,011652,3239.1298,N,11725.1273,W*52
$GPVTG,124.5,T,111.3,M,005.8,N,010.8,K*4A
$GPGGA,011707.327,3239.1146,N,11725.1037,W,3,05,1.4,021.2,M,036.4,M,,*76
$GPGXP,011707,3239.1146,N,11725.1037,W*51
$GPVTG,125.6,T,112.4,M,006.0,N,011.2,K*4C
$GPGGA,011722.327,3239.1001,N,11725.0803,W,3,05,1.4,020.4,M,036.4,M,,*7A
$GPGXP,011722,3239.1001,N,11725.0803,W*5A
$GPVTG,127.6,T,114.4,M,005.7,N,010.5,K*4A
$GPGGA,011737.327,3239.0858,N,11725.0565,W,3,05,1.4,022.2,M,036.4,M,,*72
$GPGXP,011737,3239.0858,N,11725.0565,W*56
$GPVTG,123.8,T,110.6,M,005.6,N,010.4,K*46
$GPGGA,011752.327,3239.0719,N,11725.0328,W,3,05,1.4,019.8,M,036.4,M,,*76
$GPGXP,011752,3239.0719,N,11725.0328,W*50
$GPVTG,117.9,T,104.6,M,006.0,N,011.1,K*44
$GPGGA,011807.327,3239.0575,N,11725.0095,W,3,05,1.4,020.2,M,036.4,M,,*74
$GPGXP,011807,3239.0575,N,11725.0095,W*52
$GPVTG,115.2,T,102.0,M,005.7,N,010.5,K*4C
$GPGGA,011822.327,3239.0435,N,11724.9864,W,3,05,1.4,021.5,M,036.4,M,,*7E
$GPGXP,011822,3239.0435,N,11724.9864,W*5E
$GPVTG,120.2,T,107.0,M,005.8,N,010.8,K*4D
$GPGGA,011837.327,3239.0299,N,11724.9627,W,3,05,1.4,021.6,M,036.4,M,,*70
$GPGXP,011837,3239.0299,N,11724.9627,W*53
$GPVTG,128.9,T,115.7,M,005.8,N,010.8,K*4A
$GPGGA,011852.327,3239.0156,N,11724.9395,W,3,05,1.4,021.6,M,036.4,M,,*7F
$GPGXP,011852,3239.0156,N,11724.9395,W*5C
$GPVTG,132.7,T,119.5,M,005.7,N,010.6,K*40
$GPGGA,011907.327,3239.0021,N,11724.9160,W,3,05,1.4,019.8,M,036.4,M,,*72
$GPGXP,011907,3239.0021,N,11724.9160,W*54
$GPVTG,127.2,T,114.0,M,005.7,N,010.6,K*49
$GPGGA,011922.327,3238.9878,N,11724.8926,W,3,05,1.4,020.5,M,036.4,M,,*75
$GPGXP,011922,3238.9878,N,11724.8926,W*54
$GPVTG,121.4,T,108.2,M,006.0,N,011.0,K*45
$GPGGA,011937.327,3238.9734,N,11724.8695,W,3,05,1.4,020.8,M,036.4,M,,*7C
$GPGXP,011937,3238.9734,N,11724.8695,W*50
$GPVTG,118.9,T,105.7,M,005.8,N,010.8,K*48
$GPGGA,011952.327,3238.9591,N,11724.8461,W,3,05,1.4,021.0,M,036.4,M,,*72
$GPGXP,011952,3238.9591,N,11724.8461,W*57
$GPVTG,125.2,T,112.0,M,006.0,N,011.1,K*4F
$GPGGA,012007.327,3238.9450,N,11724.8220,W,3,05,1.4,020.2,M,036.4,M,,*74
$GPGXP,012007,3238.9450,N,11724.8220,W*52
$GPVTG,127.0,T,113.8,M,005.9,N,011.0,K*4D
$GPGGA,012022.327,3238.9308,N,11724.7984,W,3,05,1.4,019.7,M,036.4,M,,*7C
$GPGXP,012022,3238.9308,N,11724.7984,W*55
$GPVTG,120.6,T,107.3,M,006.1,N,011.3,K*4A
$GPGGA,012037.327,3238.9169,N,11724.7754,W,3,05,1.4,020.6,M,036.4,M,,*75
$GPGXP,012037,3238.9169,N,11724.7754,W*57
$GPVTG,130.8,T,117.6,M,005.9,N,010.9,K*41
$GPGGA,012052.327,3238.9016,N,11724.7530,W,3,05,1.4,020.6,M,036.4,M,,*7F
$GPGXP,012052,3238.9016,N,11724.7530,W*5D
$GPVTG,128.4,T,115.2,M,005.9,N,010.9,K*42
$GPGGA,012107.327,3238.8853,N,11724.7314,W,3,05,1.4,019.6,M,036.4,M,,*7C
$GPGXP,012107,3238.8853,N,11724.7314,W*54
$GPVTG,127.3,T,114.0,M,005.7,N,010.5,K*4B
$GPGGA,012122.327,3238.8690,N,11724.7101,W,3,05,1.4,020.6,M,036.4,M,,*76
$GPGXP,012122,3238.8690,N,11724.7101,W*54
$GPVTG,124.3,T,111.1,M,006.0,N,011.1,K*4D
$GPGGA,012137.327,3238.8530,N,11724.6885,W,3,05,1.4,019.1,M,036.4,M,,*72
$GPGXP,012137,3238.8530,N,11724.6885,W*5D
$GPVTG,135.1,T,121.9,M,005.7,N,010.6,K*46
$GPGGA,012152.327,3238.8371,N,11724.6672,W,3,05,1.4,020.4,M,036.4,M,,*7B
$GPGXP,012152,3238.8371,N,11724.6672,W*5B
$GPVTG,128.2,T,115.0,M,005.7,N,010.6,K*47
$GPGGA,012207.327,3238.8209,N,11724.6453,W,3,05,1.4,019.5,M,036.4,M,,*7C
$GPGXP,012207,3238.8209,N,11724.6453,W*57
$GPVTG,138.4,T,125.2,M,005.8,N,010.7,K*4F
$GPGGA,012222.327,3238.8053,N,11724.6239,W,3,05,1.4,019.2,M,036.4,M,,*7B
$GPGXP,012222,3238.8053,N,11724.6239,W*57
$GPVTG,132.1,T,118.8,M,005.8,N,010.7,K*44
$GPGGA,012237.327,3238.7891,N,11724.6020,W,3,05,1.4,020.0,M,036.4,M,,*74
$GPGXP,012237,3238.7891,N,11724.6020,W*50
$GPVTG,135.0,T,121.8,M,005.9,N,010.9,K*47
$GPGGA,012252.327,3238.7733,N,11724.5799,W,3,05,1.4,018.7,M,036.4,M,,*7A
$GPGXP,012252,3238.7733,N,11724.5799,W*52
$GPVTG,133.6,T,120.4,M,005.8,N,010.8,K*4A
$GPGGA,012307.327,3238.7573,N,11724.5582,W,3,05,1.4,018.9,M,036.4,M,,*7B
$GPGXP,012307,3238.7573,N,11724.5582,W*5D
$GPVTG,126.4,T,113.2,M,005.8,N,010.8,K*4A
$GPGGA,012322.327,3238.7412,N,11724.5362,W,3,05,1.4,020.4,M,036.4,M,,*74
$GPGXP,012322,3238.7412,N,11724.5362,W*54
$GPVTG,122.5,T,109.2,M,005.8,N,010.7,K*4B
$GPGGA,012337.327,3238.7255,N,11724.5145,W,3,05,1.4,020.2,M,036.4,M,,*74
$GPGXP,012337,3238.7255,N,11724.5145,W*52
$GPVTG,138.3,T,125.1,M,005.6,N,010.5,K*47
$GPGGA,012352.327,3238.7097,N,11724.4926,W,3,05,1.4,020.7,M,036.4,M,,*72
$GPGXP,012352,3238.7097,N,11724.4926,W*51
$GPVTG,125.9,T,112.7,M,005.9,N,011.0,K*48
$GPGGA,012407.327,3238.6942,N,11724.4704,W,3,05,1.4,021.0,M,036.4,M,,*7D
$GPGXP,012407,3238.6942,N,11724.4704,W*58
$GPVTG,123.3,T,110.1,M,005.9,N,011.0,K*40
$GPGGA,012422.327,3238.6785,N,11724.4485,W,3,05,1.4,020.0,M,036.4,M,,*74
$GPGXP,012422,3238.6785,N,11724.4485,W*50
$GPVTG,124.1,T,110.9,M,006.1,N,011.4,K*42
$GPGGA,012437.327,3238.6629,N,11724.4265,W,3,05,1.4,020.8,M,036.4,M,,*77
$GPGXP,012437,3238.6629,N,11724.4265,W*5B
$GPVTG,138.1,T,124.9,M,005.7,N,010.5,K*4D
$GPGGA,012452.327,3238.6475,N,11724.4045,W,3,05,1.4,019.3,M,036.4,M,,*7E
$GPGXP,012452,3238.6475,N,11724.4045,W*53
$GPVTG,121.4,T,108.2,M,006.0,N,011.1,K*44
$GPGGA,012507.327,3238.6311,N,11724.3831,W,3,05,1.4,019.8,M,036.4,M,,*7D
$GPGXP,012507,3238.6311,N,11724.3831,W*5B
$GPVTG,121.3,T,108.0,M,006.1,N,011.2,K*43
$GPGGA,012522.327,3238.6153,N,11724.3612,W,3,05,1.4,021.3,M,036.4,M,,*71
$GPGXP,012522,3238.6153,N,11724.3612,W*57
$GPVTG,137.5,T,124.3,M,005.9,N,010.9,K*4E
$GPGGA,012537.327,3238.5999,N,11724.3397,W,3,05,1.4,020.4,M,036.4,M,,*76
$GPGXP,012537,3238.5999,N,11724.3397,W*56
$GPVTG,120.3,T,107.1,M,006.1,N,011.3,K*4D
$GPGGA,012552.327,3238.5836,N,11724.3181,W,3,05,1.4,021.3,M,036.4,M,,*72
$GPGXP,012552,3238.5836,N,11724.3181,W*54
$GPVTG,137.0,T,123.8,M,005.8,N,010.8,K*47
$GPGGA,012607.327,3238.5679,N,11724.2965,W,3,05,1.4,020.7,M,036.4,M,,*72
$GPGXP,012607,3238.5679,N,11724.2965,W*51
$GPVTG,132.4,T,119.2,M,006.0,N,011.1,K*46
$GPGGA,012622.327,3238.5520,N,11724.2748,W,3,05,1.4,020.0,M,036.4,M,,*7C
$GPGXP,012622,3238.5520,N,11724.2748,W*58
$GPVTG,129.7,T,116.5,M,005.9,N,010.8,K*45
$GPGGA,012637.327,3238.5360,N,11724.2532,W,3,05,1.4,019.8,M,036.4,M,,*77
$GPGXP,012637,3238.5360,N,11724.2532,W*51
$GPVTG,124.7,T,111.4,M,005.8,N,010.8,K*4F
$GPGGA,012652.327,3238.5200,N,11724.2319,W,3,05,1.4,020.4,M,036.4,M,,*7A
$GPGXP,012652,3238.5200,N,11724.2319,W*5A
$GPVTG,144.6,T,131.4,M,006.1,N,011.3,K*4A
$GPGGA,012707.327,3238.5043,N,11724.2101,W,3,05,1.4,021.1,M,036.4,M,,*71
$GPGXP,012707,3238.5043,N,11724.2101,W*55
$GPVTG,131.1,T,117.8,M,005.8,N,010.8,K*47
$GPGGA,012722.327,3238.4885,N,11724.1883,W,3,05,1.4,020.5,M,036.4,M,,*70
$GPGXP,012722,3238.4885,N,11724.1883,W*51
$GPVTG,127.4,T,114.2,M,005.9,N,011.0,K*44
$GPGGA,012737.327,3238.4724,N,11724.1668,W,3,05,1.4,021.2,M,036.4,M,,*7D
$GPGXP,012737,3238.4724,N,11724.1668,W*5A
$GPVTG,127.9,T,114.7,M,005.7,N,010.6,K*45
$GPGGA,012752.327,3238.4564,N,11724.1451,W,3,05,1.4,020.4,M,036.4,M,,*77
$GPGXP,012752,3238.4564,N,11724.1451,W*57
$GPVTG,129.3,T,116.1,M,005.8,N,010.7,K*4B
$GPGGA,012807.327,3238.4403,N,11724.1232,W,3,05,1.4,020.6,M,036.4,M,,*79
$GPGXP,012807,3238.4403,N,11724.1232,W*5B
$GPVTG,125.0,T,111.7,M,005.8,N,010.8,K*4A
$GPGGA,012822.327,3238.4245,N,11724.1008,W,3,05,1.4,020.4,M,036.4,M,,*73
$GPGXP,012822,3238.4245,N,11724.1008,W*53
$GPVTG,133.9,T,120.7,M,005.9,N,011.0,K*4E
$GPGGA,012837.327,3238.4085,N,11724.0792,W,3,05,1.4,020.2,M,036.4,M,,*7A
$GPGXP,012837,3238.4085,N,11724.0792,W*5C
$GPVTG,125.9,T,112.6,M,005.7,N,010.6,K*40
$GPGGA,012852.327,3238.3924,N,11724.0574,W,3,05,1.4,020.5,M,036.4,M,,*71
$GPGXP,012852,3238.3924,N,11724.0574,W*50
$GPVTG,125.1,T,111.8,M,005.9,N,010.9,K*44
$GPGGA,012907.327,3238.3765,N,11724.0359,W,3,05,1.4,021.0,M,036.4,M,,*76
$GPGXP,012907,3238.3765,N,11724.0359,W*53
$GPVTG,132.8,T,119.6,M,005.6,N,010.3,K*48
$GPGGA,012922.327,3238.3604,N,11724.0140,W,3,05,1.4,020.2,M,036.4,M,,*7E
$GPGXP,012922,3238.3604,N,11724.0140,W*58
$GPVTG,126.8,T,113.6,M,005.8,N,010.8,K*42
$GPGGA,012937.327,3238.3445,N,11723.9924,W,3,05,1.4,020.8,M,036.4,M,,*73
$GPGXP,012937,3238.3445,N,11723.9924,W*5F
$GPVTG,122.6,T,109.3,M,006.0,N,011.1,K*45
$GPGGA,012952.327,3238.3286,N,11723.9707,W,3,05,1.4,019.5,M,036.4,M,,*71
$GPGXP,012952,3238.3286,N,11723.9707,W*5A
$GPVTG,137.1,T,123.9,M,005.8,N,010.7,K*48
$GPGGA,013007.327,3238.3125,N,11723.9483,W,3,05,1.4,019.5,M,036.4,M,,*7C
$GPGXP,013007,3238.3125,N,11723.9483,W*57
$GPVTG,136.4,T,123.2,M,005.6,N,010.4,K*4A
$GPGGA,013022.327,3238.2973,N,11723.9265,W,3,05,1.4,019.7,M,036.4,M,,*7D
$GPGXP,013022,3238.2973,N,11723.9265,W*54
$GPVTG,131.0,T,117.7,M,006.1,N,011.2,K*48
$GPGGA,013037.327,3238.2817,N,11723.9047,W,3,05,1.4,020.4,M,036.4,M,,*71
$GPGXP,013037,3238.2817,N,11723.9047,W*51
$GPVTG,134.2,T,120.9,M,005.8,N,010.7,K*4B
$GPGGA,013052.327,3238.2659,N,11723.8827,W,3,05,1.4,020.4,M,036.4,M,,*79
$GPGXP,013052,3238.2659,N,11723.8827,W*59
$GPVTG,128.5,T,115.2,M,005.9,N,010.9,K*43
$GPGGA,013107.327,3238.2502,N,11723.8606,W,3,05,1.4,020.4,M,036.4,M,,*78
$GPGXP,013107,3238.2502,N,11723.8606,W*58
$GPVTG,127.3,T,114.1,M,005.9,N,010.9,K*48
$GPGGA,013122.327,3238.2341,N,11723.8386,W,3,05,1.4,019.8,M,036.4,M,,*75
$GPGXP,013122,3238.2341,N,11723.8386,W*53
$GPVTG,124.2,T,110.9,M,005.8,N,010.7,K*49
$GPGGA,013137.327,3238.2182,N,11723.8167,W,3,05,1.4,019.9,M,036.4,M,,*70
$GPGXP,013137,3238.2182,N,11723.8167,W*57
$GPVTG,124.3,T,111.0,M,005.8,N,010.8,K*4F
$GPGGA,013152.327,3238.2023,N,11723.7948,W,3,05,1.4,020.5,M,036.4,M,,*75
$GPGXP,013152,3238.2023,N,11723.7948,W*54
$GPVTG,120.8,T,107.6,M,005.9,N,010.9,K*41
$GPGGA,013207.327,3238.1865,N,11723.7733,W,3,05,1.4,020.0,M,036.4,M,,*78
$GPGXP,013207,3238.1865,N,11723.7733,W*5C
$GPVTG,123.9,T,110.7,M,005.7,N,010.6,K*45
$GPGGA,013222.327,3238.1711,N,11723.7515,W,3,05,1.4,020.7,M,036.4,M,,*72
$GPGXP,013222,3238.1711,N,11723.7515,W*51
$GPVTG,122.6,T,109.4,M,005.6,N,010.4,K*43
$GPGGA,013237.327,3238.1556,N,11723.7294,W,3,05,1.4,019.6,M,036.4,M,,*72
$GPGXP,013237,3238.1556,N,11723.7294,W*5A
$GPVTG,121.7,T,108.5,M,006.0,N,011.1,K*40
$GPGGA,013252.326,3238.1392,N,11723.7080,W,3,05,1.4,019.6,M,036.4,M,,*79
$GPGXP,013252,3238.1392,N,11723.7080,W*50
$GPVTG,140.3,T,127.1,M,005.8,N,010.7,K*46
$GPGGA,013307.326,3238.1225,N,11723.6869,W,3,05,1.4,021.0,M,036.4,M,,*76
$GPGXP,013307,3238.1225,N,11723.6869,W*52
$GPVTG,143.2,T,130.0,M,005.9,N,010.9,K*4C
$GPGGA,013322.326,3238.1056,N,11723.6662,W,3,05,1.4,019.2,M,036.4,M,,*7B
$GPGXP,013322,3238.1056,N,11723.6662,W*56
$GPVTG,119.3,T,106.0,M,006.0,N,011.1,K*44
$GPGGA,013337.326,3238.0884,N,11723.6464,W,3,05,1.4,020.4,M,036.4,M,,*71
$GPGXP,013337,3238.0884,N,11723.6464,W*50
$GPVTG,124.4,T,111.2,M,005.9,N,011.0,K*42
$GPGGA,013352.326,3238.0720,N,11723.6251,W,3,05,1.4,019.1,M,036.4,M,,*7C
$GPGXP,013352,3238.0720,N,11723.6251,W*52
$GPVTG,136.6,T,123.4,M,005.7,N,010.5,K*4E
$GPGGA,013407.326,3238.0558,N,11723.6043,W,3,05,1.4,018.6,M,036.4,M,,*71
$GPGXP,013407,3238.0558,N,11723.6043,W*59
$GPVTG,129.8,T,116.6,M,005.7,N,010.6,K*49
$GPGGA,013422.326,3238.0390,N,11723.5832,W,3,05,1.4,018.5,M,036.4,M,,*7A
$GPGXP,013422,3238.0390,N,11723.5832,W*51
$GPVTG,125.0,T,111.8,M,006.0,N,011.1,K*46
$GPGGA,013437.326,3238.0239,N,11723.5644,W,3,05,1.3,022.2,M,036.4,M,,*7A
$GPGXP,013437,3238.0239,N,11723.5644,W*58
$GPVTG,128.2,T,115.0,M,005.8,N,010.7,K*49
$GPGGA,013452.326,3238.0076,N,11723.5434,W,3,05,1.3,022.4,M,036.4,M,,*73
$GPGXP,013452,3238.0076,N,11723.5434,W*57
$GPVTG,134.8,T,121.5,M,005.7,N,010.6,K*42
$GPGGA,013507.326,3237.9911,N,11723.5222,W,3,05,1.3,023.1,M,036.4,M,,*79
$GPGXP,013507,3237.9911,N,11723.5222,W*59
$GPVTG,133.5,T,120.3,M,005.9,N,010.9,K*4E
$GPGGA,013522.326,3237.9751,N,11723.5012,W,3,05,1.3,023.1,M,036.4,M,,*75
$GPGXP,013522,3237.9751,N,11723.5012,W*55
$GPVTG,131.7,T,118.5,M,005.9,N,010.9,K*43
$GPGGA,013537.326,3237.9580,N,11723.4794,W,3,05,1.3,022.2,M,036.4,M,,*75
$GPGXP,013537,3237.9580,N,11723.4794,W*57
$GPVTG,117.9,T,104.7,M,006.0,N,011.1,K*45
$GPGGA,013552.326,3237.9415,N,11723.4583,W,3,05,1.3,022.8,M,036.4,M,,*75
$GPGXP,013552,3237.9415,N,11723.4583,W*5D
$GPVTG,133.8,T,120.6,M,005.9,N,010.9,K*46
$GPGGA,013607.326,3237.9248,N,11723.4373,W,3,05,1.3,023.8,M,036.4,M,,*70
$GPGXP,013607,3237.9248,N,11723.4373,W*59
$GPVTG,140.1,T,126.9,M,005.8,N,010.7,K*4D
$GPGGA,013622.326,3237.9083,N,11723.4161,W,3,05,1.3,022.4,M,036.4,M,,*7E
$GPGXP,013622,3237.9083,N,11723.4161,W*5A
$GPVTG,134.8,T,121.6,M,005.9,N,011.0,K*48
$GPGGA,013637.326,3237.8917,N,11723.3944,W,3,05,1.3,022.5,M,036.4,M,,*76
$GPGXP,013637,3237.8917,N,11723.3944,W*53
$GPVTG,124.0,T,110.8,M,005.9,N,011.0,K*4D
