$GPGGA,045333.252,3241.9703,N,11718.2621,W,3,05,1.7,034.6,M,036.2,M,,*7E
$GPGXP,045333,3241.9703,N,11718.2621,W*5F
$GPVTG,149.0,T,135.8,M,000.6,N,001.2,K*48
$GPGGA,045348.252,3241.9698,N,11718.2631,W,3,05,1.7,035.2,M,036.2,M,,*75
$GPGXP,045348,3241.9698,N,11718.2631,W*51
$GPVTG,149.0,T,135.8,M,000.0,N,000.0,K*4D
$GPGGA,045403.252,3241.9695,N,11718.2630,W,3,05,1.7,036.2,M,036.2,M,,*72
$GPGXP,045403,3241.9695,N,11718.2630,W*55
$GPVTG,149.0,T,135.8,M,000.7,N,001.3,K*48
$GPGGA,045418.252,3241.9695,N,11718.2635,W,3,05,1.7,036.0,M,036.2,M,,*7F
$GPGXP,045418,3241.9695,N,11718.2635,W*5A
$GPVTG,329.9,T,316.7,M,000.0,N,000.0,K*4C
$GPGGA,045433.252,3241.9692,N,11718.2637,W,3,05,1.7,033.9,M,036.2,M,,*7F
$GPGXP,045433,3241.9692,N,11718.2637,W*56
$GPVTG,165.1,T,151.9,M,001.0,N,001.8,K*49
$GPGGA,045448.252,3241.9696,N,11718.2634,W,3,05,1.7,037.4,M,036.2,M,,*7D
$GPGXP,045448,3241.9696,N,11718.2634,W*5D
$GPVTG,167.0,T,153.8,M,000.5,N,000.9,K*4D
$GPGGA,045503.252,3241.9703,N,11718.2635,W,3,05,1.7,037.4,M,036.2,M,,*7F
$GPGXP,045503,3241.9703,N,11718.2635,W*5F
$GPVTG,167.0,T,153.8,M,000.7,N,001.4,K*43
$GPGGA,045518.252,3241.9708,N,11718.2634,W,3,05,1.7,037.4,M,036.2,M,,*7F
$GPGXP,045518,3241.9708,N,11718.2634,W*5F
$GPVTG,354.5,T,341.3,M,000.8,N,001.5,K*40
$GPGGA,045533.252,3241.9695,N,11718.2632,W,3,05,1.7,035.4,M,036.2,M,,*77
$GPGXP,045533,3241.9695,N,11718.2632,W*55
$GPVTG,166.7,T,153.5,M,000.8,N,001.4,K*47
$GPGGA,045548.252,3241.9699,N,11718.2628,W,3,05,1.7,035.3,M,036.2,M,,*7B
$GPGXP,045548,3241.9699,N,11718.2628,W*5E
$GPVTG,191.4,T,178.2,M,000.6,N,001.2,K*4A
$GPGGA,045603.252,3241.9656,N,11718.2646,W,3,05,1.8,012.9,M,036.2,M,,*7C
$GPGXP,045603,3241.9656,N,11718.2646,W*59
$GPVTG,191.4,T,178.2,M,000.6,N,001.2,K*4A
$GPGGA,045618.252,3241.9667,N,11718.2633,W,3,05,1.8,014.9,M,036.2,M,,*70
$GPGXP,045618,3241.9667,N,11718.2633,W*53
$GPVTG,191.4,T,178.2,M,000.5,N,000.9,K*43
$GPGGA,045633.252,3241.9671,N,11718.2623,W,3,05,1.8,016.1,M,036.2,M,,*75
$GPGXP,045633,3241.9671,N,11718.2623,W*5C
$GPVTG,191.4,T,178.2,M,000.6,N,001.1,K*49
$GPGGA,045648.252,3241.9676,N,11718.2604,W,3,05,1.8,016.4,M,036.2,M,,*7E
$GPGXP,045648,3241.9676,N,11718.2604,W*52
$GPVTG,191.4,T,178.2,M,000.0,N,000.0,K*4F
$GPGGA,045703.252,3241.9678,N,11718.2595,W,3,05,1.8,013.8,M,036.2,M,,*7C
$GPGXP,045703,3241.9678,N,11718.2595,W*59
$GPVTG,191.4,T,178.2,M,000.0,N,000.0,K*4F
$GPGGA,045718.252,3241.9684,N,11718.2583,W,3,05,1.8,015.0,M,036.2,M,,*7C
$GPGXP,045718,3241.9684,N,11718.2583,W*57
$GPVTG,191.4,T,178.2,M,000.5,N,000.9,K*43
$GPGGA,045733.252,3241.9689,N,11718.2574,W,3,05,1.8,013.6,M,036.2,M,,*70
$GPGXP,045733,3241.9689,N,11718.2574,W*5B
$GPVTG,191.4,T,178.2,M,000.0,N,000.0,K*4F
$GPGGA,045748.252,3241.9692,N,11718.2564,W,3,05,1.8,012.3,M,036.2,M,,*73
$GPGXP,045748,3241.9692,N,11718.2564,W*5C
$GPVTG,191.4,T,178.2,M,000.7,N,001.2,K*4B
$GPGGA,045803.252,3241.9693,N,11718.2551,W,3,05,1.8,011.2,M,036.2,M,,*76
$GPGXP,045803,3241.9693,N,11718.2551,W*5B
$GPVTG,191.4,T,178.2,M,000.5,N,000.9,K*43
$GPGGA,045818.252,3241.9715,N,11718.2537,W,3,05,1.8,017.8,M,036.2,M,,*7F
$GPGXP,045818,3241.9715,N,11718.2537,W*5E
$GPVTG,013.9,T,000.7,M,001.1,N,002.1,K*41
$GPGGA,045833.252,3241.9712,N,11718.2522,W,3,05,1.8,014.3,M,036.2,M,,*7D
$GPGXP,045833,3241.9712,N,11718.2522,W*54
$GPVTG,013.9,T,000.7,M,000.6,N,001.1,K*44
$GPGGA,045848.252,3241.9719,N,11718.2506,W,3,05,1.7,012.9,M,036.2,M,,*7F
$GPGXP,045848,3241.9719,N,11718.2506,W*55
$GPVTG,013.9,T,000.7,M,000.0,N,000.0,K*42
$GPGGA,045903.252,3241.9727,N,11718.2492,W,3,05,1.7,014.6,M,036.2,M,,*79
$GPGXP,045903,3241.9727,N,11718.2492,W*5A
$GPVTG,013.9,T,000.7,M,000.8,N,001.4,K*4F
$GPGGA,045918.252,3241.9726,N,11718.2478,W,3,05,1.7,012.5,M,036.2,M,,*73
$GPGXP,045918,3241.9726,N,11718.2478,W*55
$GPVTG,013.9,T,000.7,M,000.6,N,001.2,K*47
$GPGGA,045933.252,3241.9738,N,11718.2460,W,3,05,1.7,013.9,M,036.2,M,,*71
$GPGXP,045933,3241.9738,N,11718.2460,W*5A
$GPVTG,013.9,T,000.7,M,000.6,N,001.1,K*44
$GPGGA,045948.252,3241.9743,N,11718.2444,W,3,05,1.7,013.3,M,036.2,M,,*7D
$GPGXP,045948,3241.9743,N,11718.2444,W*5C
$GPVTG,013.9,T,000.7,M,000.8,N,001.5,K*4E
$GPGGA,050003.252,3241.9753,N,11718.2429,W,3,05,1.7,013.7,M,036.2,M,,*71
$GPGXP,050003,3241.9753,N,11718.2429,W*54
$GPVTG,013.9,T,000.7,M,000.4,N,000.7,K*41
$GPGGA,050018.252,3241.9767,N,11718.2409,W,3,05,1.7,011.7,M,036.2,M,,*7C
$GPGXP,050018,3241.9767,N,11718.2409,W*5B
$GPVTG,079.2,T,066.0,M,000.7,N,001.3,K*47
$GPGGA,050033.252,3241.9770,N,11718.2388,W,3,05,1.7,012.0,M,036.2,M,,*79
$GPGXP,050033,3241.9770,N,11718.2388,W*5A
$GPVTG,037.8,T,024.6,M,000.5,N,001.0,K*46
$GPGGA,050048.252,3241.9774,N,11718.2364,W,3,05,1.7,009.8,M,036.2,M,,*71
$GPGXP,050048,3241.9774,N,11718.2364,W*50
$GPVTG,037.8,T,024.6,M,000.7,N,001.3,K*47
$GPGGA,050103.252,3241.9780,N,11718.2341,W,3,05,1.7,011.6,M,036.2,M,,*74
$GPGXP,050103,3241.9780,N,11718.2341,W*52
$GPVTG,018.4,T,005.2,M,001.1,N,002.0,K*46
$GPGGA,050118.252,3241.9806,N,11718.2310,W,3,05,1.7,025.6,M,036.2,M,,*7C
$GPGXP,050118,3241.9806,N,11718.2310,W*5D
$GPVTG,029.0,T,015.8,M,001.4,N,002.5,K*4B
$GPGGA,050133.252,3241.9789,N,11718.2293,W,3,05,1.7,015.2,M,036.2,M,,*70
$GPGXP,050133,3241.9789,N,11718.2293,W*56
$GPVTG,033.9,T,020.7,M,000.0,N,000.0,K*42
$GPGGA,050148.252,3241.9785,N,11718.2267,W,3,05,1.7,013.1,M,036.2,M,,*7E
$GPGXP,050148,3241.9785,N,11718.2267,W*5D
$GPVTG,194.2,T,181.0,M,001.3,N,002.3,K*4B
$GPGGA,050203.252,3241.9787,N,11718.2246,W,3,05,1.7,010.3,M,036.2,M,,*72
$GPGXP,050203,3241.9787,N,11718.2246,W*50
$GPVTG,028.1,T,014.8,M,001.1,N,002.1,K*4B
$GPGGA,050218.252,3241.9805,N,11718.2225,W,3,05,1.9,020.1,M,036.2,M,,*77
$GPGXP,050218,3241.9805,N,11718.2225,W*5A
$GPVTG,158.6,T,145.4,M,000.7,N,001.3,K*45
$GPGGA,050233.252,3241.9819,N,11718.2204,W,3,05,1.9,018.6,M,036.2,M,,*7C
$GPGXP,050233,3241.9819,N,11718.2204,W*5D
$GPVTG,052.0,T,038.8,M,001.1,N,002.0,K*48
$GPGGA,050248.252,3241.9800,N,11718.2176,W,3,05,1.7,014.0,M,036.2,M,,*7A
$GPGXP,050248,3241.9800,N,11718.2176,W*5F
$GPVTG,062.7,T,049.5,M,000.0,N,000.0,K*45
$GPGGA,050303.252,3241.9827,N,11718.2162,W,3,05,1.7,012.7,M,036.2,M,,*75
$GPGXP,050303,3241.9827,N,11718.2162,W*51
$GPVTG,071.2,T,057.9,M,000.6,N,001.1,K*47
$GPGGA,050318.252,3241.9820,N,11718.2122,W,3,05,1.7,017.0,M,036.2,M,,*7E
$GPGXP,050318,3241.9820,N,11718.2122,W*58
$GPVTG,071.2,T,057.9,M,000.5,N,000.9,K*4D
$GPGGA,050333.252,3241.9825,N,11718.2107,W,3,05,1.7,016.5,M,036.2,M,,*71
$GPGXP,050333,3241.9825,N,11718.2107,W*53
$GPVTG,054.5,T,041.2,M,000.4,N,000.8,K*41
$GPGGA,050348.252,3241.9813,N,11718.2068,W,3,05,1.7,016.6,M,036.2,M,,*73
$GPGXP,050348,3241.9813,N,11718.2068,W*52
$GPVTG,082.3,T,069.1,M,000.0,N,000.0,K*49
$GPGGA,050403.251,3241.9828,N,11718.2052,W,3,05,1.7,018.8,M,036.2,M,,*79
$GPGXP,050403,3241.9828,N,11718.2052,W*5B
$GPVTG,044.6,T,031.4,M,001.2,N,002.3,K*4C
$GPGGA,050418.251,3241.9830,N,11718.2033,W,3,05,1.7,019.4,M,036.2,M,,*70
$GPGXP,050418,3241.9830,N,11718.2033,W*5F
$GPVTG,047.6,T,034.3,M,000.9,N,001.7,K*40
$GPGGA,050433.251,3241.9837,N,11718.2010,W,3,05,1.7,021.2,M,036.2,M,,*72
$GPGXP,050433,3241.9837,N,11718.2010,W*50
$GPVTG,060.3,T,047.1,M,001.1,N,002.0,K*4B
$GPGGA,050448.251,3241.9841,N,11718.1989,W,3,05,1.7,021.4,M,036.2,M,,*73
$GPGXP,050448,3241.9841,N,11718.1989,W*57
$GPVTG,052.5,T,039.3,M,000.9,N,001.7,K*4A
$GPGGA,050503.251,3241.9843,N,11718.1965,W,3,05,1.7,021.7,M,036.2,M,,*7E
$GPGXP,050503,3241.9843,N,11718.1965,W*59
$GPVTG,051.2,T,038.0,M,000.5,N,000.8,K*4E
$GPGGA,050518.251,3241.9841,N,11718.1941,W,3,05,1.7,021.7,M,036.2,M,,*70
$GPGXP,050518,3241.9841,N,11718.1941,W*57
$GPVTG,057.4,T,044.2,M,000.0,N,000.0,K*4A
$GPGGA,050533.251,3241.9845,N,11718.1919,W,3,05,1.7,022.1,M,036.2,M,,*75
$GPGXP,050533,3241.9845,N,11718.1919,W*57
$GPVTG,061.1,T,047.9,M,000.9,N,001.6,K*4C
$GPGGA,050548.251,3241.9845,N,11718.1902,W,3,05,1.7,020.8,M,036.2,M,,*78
$GPGXP,050548,3241.9845,N,11718.1902,W*51
$GPVTG,066.5,T,053.3,M,000.5,N,000.9,K*42
$GPGGA,050603.251,3241.9849,N,11718.1876,W,3,05,1.7,021.1,M,036.2,M,,*72
$GPGXP,050603,3241.9849,N,11718.1876,W*53
$GPVTG,078.0,T,064.8,M,000.0,N,000.0,K*4B
$GPGGA,050618.251,3241.9849,N,11718.1851,W,3,05,1.7,021.5,M,036.2,M,,*79
$GPGXP,050618,3241.9849,N,11718.1851,W*5C
$GPVTG,078.0,T,064.8,M,000.6,N,001.1,K*4D
$GPGGA,050633.251,3241.9857,N,11718.1828,W,3,05,1.7,023.3,M,036.2,M,,*75
$GPGXP,050633,3241.9857,N,11718.1828,W*54
$GPVTG,221.2,T,208.0,M,001.2,N,002.2,K*44
$GPGGA,050648.251,3241.9866,N,11718.1802,W,3,05,1.7,023.9,M,036.2,M,,*79
$GPGXP,050648,3241.9866,N,11718.1802,W*52
$GPVTG,042.8,T,029.6,M,001.1,N,002.0,K*4F
$GPGGA,050703.251,3241.9863,N,11718.1783,W,3,05,1.7,023.1,M,036.2,M,,*7C
$GPGXP,050703,3241.9863,N,11718.1783,W*5F
$GPVTG,058.3,T,045.1,M,000.0,N,000.0,K*40
$GPGGA,050718.251,3241.9875,N,11718.1755,W,3,05,1.7,023.8,M,036.2,M,,*73
$GPGXP,050718,3241.9875,N,11718.1755,W*59
$GPVTG,043.0,T,029.8,M,001.5,N,002.8,K*44
$GPGGA,050733.251,3241.9860,N,11718.1744,W,3,05,1.7,022.9,M,036.2,M,,*7E
$GPGXP,050733,3241.9860,N,11718.1744,W*54
$GPVTG,205.7,T,192.5,M,001.0,N,001.8,K*49
$GPGGA,050748.251,3241.9870,N,11718.1716,W,3,05,1.7,022.6,M,036.2,M,,*7B
$GPGXP,050748,3241.9870,N,11718.1716,W*5E
$GPVTG,087.3,T,074.0,M,000.0,N,000.0,K*41
$GPGGA,050803.251,3241.9864,N,11718.1696,W,3,05,1.7,022.7,M,036.2,M,,*76
$GPGXP,050803,3241.9864,N,11718.1696,W*52
$GPVTG,087.3,T,074.0,M,000.9,N,001.7,K*4E
$GPGGA,050818.251,3241.9865,N,11718.1674,W,3,05,1.7,022.5,M,036.2,M,,*73
$GPGXP,050818,3241.9865,N,11718.1674,W*55
$GPVTG,039.7,T,026.5,M,001.6,N,003.0,K*46
$GPGGA,050833.251,3241.9858,N,11718.1654,W,3,05,1.7,022.0,M,036.2,M,,*73
$GPGXP,050833,3241.9858,N,11718.1654,W*50
$GPVTG,203.4,T,190.2,M,001.9,N,003.6,K*4C
$GPGGA,050848.251,3241.9868,N,11718.1623,W,3,05,1.7,022.8,M,036.2,M,,*74
$GPGXP,050848,3241.9868,N,11718.1623,W*5F
$GPVTG,034.5,T,021.3,M,000.7,N,001.3,K*49
$GPGGA,050903.251,3241.9862,N,11718.1605,W,3,05,1.7,021.8,M,036.2,M,,*77
$GPGXP,050903,3241.9862,N,11718.1605,W*5F
$GPVTG,079.4,T,066.1,M,001.2,N,002.2,K*46
$GPGGA,050918.251,3241.9861,N,11718.1581,W,3,05,1.7,021.9,M,036.2,M,,*70
$GPGXP,050918,3241.9861,N,11718.1581,W*59
$GPVTG,055.6,T,042.4,M,000.9,N,001.6,K*44
$GPGGA,050933.251,3241.9857,N,11718.1558,W,3,05,1.7,021.2,M,036.2,M,,*73
$GPGXP,050933,3241.9857,N,11718.1558,W*51
$GPVTG,057.2,T,044.0,M,001.2,N,002.2,K*4D
$GPGGA,050948.251,3241.9859,N,11718.1536,W,3,05,1.7,020.3,M,036.2,M,,*79
$GPGXP,050948,3241.9859,N,11718.1536,W*5B
$GPVTG,057.2,T,044.0,M,000.0,N,000.0,K*4E
$GPGGA,051003.251,3241.9863,N,11718.1513,W,3,05,1.7,021.1,M,036.2,M,,*73
$GPGXP,051003,3241.9863,N,11718.1513,W*52
$GPVTG,057.2,T,044.0,M,000.8,N,001.4,K*43
$GPGGA,051018.251,3241.9858,N,11718.1486,W,3,05,1.7,022.7,M,036.2,M,,*79
$GPGXP,051018,3241.9858,N,11718.1486,W*5D
$GPVTG,177.1,T,163.9,M,000.5,N,000.9,K*4F
$GPGGA,051033.251,3241.9857,N,11718.1471,W,3,05,1.7,020.0,M,036.2,M,,*72
$GPGXP,051033,3241.9857,N,11718.1471,W*53
$GPVTG,059.8,T,046.6,M,000.0,N,000.0,K*4E
$GPGGA,051048.251,3241.9859,N,11718.1446,W,3,05,1.7,022.3,M,036.2,M,,*75
$GPGXP,051048,3241.9859,N,11718.1446,W*55
$GPVTG,059.8,T,046.6,M,000.4,N,000.7,K*4D
$GPGGA,051103.251,3241.9856,N,11718.1426,W,3,05,1.7,021.4,M,036.2,M,,*76
$GPGXP,051103,3241.9856,N,11718.1426,W*52
$GPVTG,059.8,T,046.6,M,000.0,N,000.0,K*4E
$GPGGA,051118.251,3241.9863,N,11718.1402,W,3,05,1.7,020.5,M,036.2,M,,*7C
$GPGXP,051118,3241.9863,N,11718.1402,W*58
$GPVTG,085.7,T,072.4,M,000.8,N,001.4,K*48
$GPGGA,051133.251,3241.9856,N,11718.1385,W,3,05,1.7,019.7,M,036.2,M,,*73
$GPGXP,051133,3241.9856,N,11718.1385,W*5F
$GPVTG,092.2,T,079.0,M,000.8,N,001.4,K*44
$GPGGA,051148.251,3241.9855,N,11718.1354,W,3,05,1.7,022.3,M,036.2,M,,*7C
$GPGXP,051148,3241.9855,N,11718.1354,W*5C
$GPVTG,050.9,T,037.7,M,000.8,N,001.5,K*4D
$GPGGA,051203.251,3241.9857,N,11718.1342,W,3,05,1.7,019.4,M,036.2,M,,*7A
$GPGXP,051203,3241.9857,N,11718.1342,W*55
$GPVTG,045.8,T,032.6,M,000.6,N,001.2,K*45
$GPGGA,051218.251,3241.9851,N,11718.1318,W,3,05,1.7,016.1,M,036.2,M,,*73
$GPGXP,051218,3241.9851,N,11718.1318,W*56
$GPVTG,055.2,T,042.0,M,000.0,N,000.0,K*4A
$GPGGA,051233.251,3241.9858,N,11718.1282,W,3,05,1.6,021.6,M,036.2,M,,*73
$GPGXP,051233,3241.9858,N,11718.1282,W*54
$GPVTG,050.9,T,037.6,M,001.0,N,001.9,K*49
$GPGGA,051248.251,3241.9861,N,11718.1250,W,3,05,1.6,022.6,M,036.2,M,,*79
$GPGXP,051248,3241.9861,N,11718.1250,W*5D
$GPVTG,050.9,T,037.6,M,000.6,N,001.1,K*46
$GPGGA,051303.251,3241.9844,N,11718.1244,W,3,05,1.7,016.0,M,036.2,M,,*75
$GPGXP,051303,3241.9844,N,11718.1244,W*51
$GPVTG,063.2,T,049.9,M,001.1,N,002.1,K*4E
$GPGGA,051318.251,3241.9857,N,11718.1203,W,3,05,1.6,022.5,M,036.2,M,,*7D
$GPGXP,051318,3241.9857,N,11718.1203,W*5A
$GPVTG,061.0,T,047.8,M,001.2,N,002.3,K*40
$GPGGA,051333.251,3241.9865,N,11718.1175,W,3,05,1.6,022.6,M,036.2,M,,*74
$GPGXP,051333,3241.9865,N,11718.1175,W*50
$GPVTG,052.3,T,039.0,M,000.8,N,001.5,K*4C
$GPGGA,051348.251,3241.9863,N,11718.1151,W,3,05,1.6,020.0,M,036.2,M,,*7C
$GPGXP,051348,3241.9863,N,11718.1151,W*5C
$GPVTG,061.4,T,048.1,M,001.0,N,001.8,K*48
$GPGGA,051403.251,3241.9869,N,11718.1126,W,3,05,1.6,020.5,M,036.2,M,,*7B
$GPGXP,051403,3241.9869,N,11718.1126,W*5E
$GPVTG,056.1,T,042.9,M,000.8,N,001.4,K*4E
$GPGGA,051418.251,3241.9861,N,11718.1101,W,3,05,1.6,021.4,M,036.2,M,,*7C
$GPGXP,051418,3241.9861,N,11718.1101,W*59
$GPVTG,056.1,T,042.9,M,000.5,N,000.9,K*4F
$GPGGA,051433.251,3241.9871,N,11718.1067,W,3,05,1.6,022.4,M,036.2,M,,*76
$GPGXP,051433,3241.9871,N,11718.1067,W*50
$GPVTG,056.1,T,042.9,M,000.5,N,001.0,K*47
$GPGGA,051448.251,3241.9864,N,11718.1046,W,3,05,1.6,019.4,M,036.2,M,,*75
$GPGXP,051448,3241.9864,N,11718.1046,W*5B
$GPVTG,046.0,T,032.8,M,001.6,N,003.0,K*41
$GPGGA,051503.251,3241.9859,N,11718.1012,W,3,05,1.6,021.1,M,036.2,M,,*7A
$GPGXP,051503,3241.9859,N,11718.1012,W*5A
$GPVTG,056.8,T,043.6,M,000.6,N,001.1,K*42
$GPGGA,051518.251,3241.9865,N,11718.0985,W,3,05,1.6,019.8,M,036.2,M,,*7B
$GPGXP,051518,3241.9865,N,11718.0985,W*59
$GPVTG,060.5,T,047.3,M,000.4,N,000.8,K*41
$GPGGA,051533.251,3241.9865,N,11718.0958,W,3,05,1.6,019.9,M,036.2,M,,*73
$GPGXP,051533,3241.9865,N,11718.0958,W*50
$GPVTG,074.3,T,061.1,M,001.0,N,001.9,K*41
$GPGGA,051548.251,3241.9862,N,11718.0929,W,3,05,1.6,020.4,M,036.2,M,,*79
$GPGXP,051548,3241.9862,N,11718.0929,W*5D
$GPVTG,082.6,T,069.4,M,000.5,N,001.0,K*4D
$GPGGA,051603.251,3241.9857,N,11718.0905,W,3,05,1.6,019.2,M,036.2,M,,*71
$GPGXP,051603,3241.9857,N,11718.0905,W*59
$GPVTG,069.0,T,055.8,M,000.7,N,001.3,K*4C
$GPGGA,051618.251,3241.9863,N,11718.0874,W,3,05,1.6,018.6,M,036.2,M,,*7E
$GPGXP,051618,3241.9863,N,11718.0874,W*53
$GPVTG,069.0,T,055.8,M,001.0,N,001.8,K*41
$GPGGA,051633.251,3241.9861,N,11718.0836,W,3,05,1.6,020.5,M,036.2,M,,*7B
$GPGXP,051633,3241.9861,N,11718.0836,W*5E
$GPVTG,062.9,T,049.7,M,000.0,N,000.0,K*49
$GPGGA,051648.251,3241.9861,N,11718.0808,W,3,05,1.6,021.0,M,036.2,M,,*7E
$GPGXP,051648,3241.9861,N,11718.0808,W*5F
$GPVTG,055.7,T,042.5,M,000.9,N,001.7,K*45
$GPGGA,051703.251,3241.9861,N,11718.0783,W,3,05,1.6,020.2,M,036.2,M,,*7F
$GPGXP,051703,3241.9861,N,11718.0783,W*5D
$GPVTG,055.7,T,042.5,M,000.7,N,001.2,K*4E
$GPGGA,051718.251,3241.9861,N,11718.0756,W,3,05,1.6,020.3,M,036.2,M,,*7C
$GPGXP,051718,3241.9861,N,11718.0756,W*5F
$GPVTG,096.3,T,083.1,M,001.2,N,002.3,K*4A
$GPGGA,051733.251,3241.9859,N,11718.0726,W,3,05,1.6,021.6,M,036.2,M,,*7D
$GPGXP,051733,3241.9859,N,11718.0726,W*5A
$GPVTG,189.8,T,176.6,M,000.5,N,001.0,K*44
$GPGGA,051748.251,3241.9863,N,11718.0704,W,3,05,1.6,019.3,M,036.2,M,,*76
$GPGXP,051748,3241.9863,N,11718.0704,W*5F
$GPVTG,078.1,T,064.9,M,000.6,N,001.2,K*4E
$GPGGA,051803.251,3241.9864,N,11718.0673,W,3,05,1.6,021.9,M,036.2,M,,*71
$GPGXP,051803,3241.9864,N,11718.0673,W*59
$GPVTG,075.9,T,062.6,M,000.5,N,001.0,K*43
$GPGGA,051818.251,3241.9863,N,11718.0647,W,3,05,1.6,021.5,M,036.2,M,,*77
$GPGXP,051818,3241.9863,N,11718.0647,W*53
$GPVTG,075.9,T,062.6,M,000.6,N,001.0,K*40
$GPGGA,051833.251,3241.9864,N,11718.0625,W,3,05,1.6,020.6,M,036.2,M,,*7F
$GPGXP,051833,3241.9864,N,11718.0625,W*59
$GPVTG,065.3,T,052.1,M,000.6,N,001.2,K*4D
$GPGGA,051848.251,3241.9867,N,11718.0596,W,3,05,1.6,021.4,M,036.2,M,,*78
$GPGXP,051848,3241.9867,N,11718.0596,W*5D
$GPVTG,061.9,T,048.7,M,000.6,N,001.1,K*4D
$GPGGA,051903.251,3241.9873,N,11718.0568,W,3,05,1.6,021.3,M,036.2,M,,*75
$GPGXP,051903,3241.9873,N,11718.0568,W*57
$GPVTG,061.9,T,048.7,M,000.5,N,000.9,K*47
$GPGGA,051918.251,3241.9868,N,11718.0551,W,3,05,1.6,020.6,M,036.2,M,,*7B
$GPGXP,051918,3241.9868,N,11718.0551,W*5D
$GPVTG,059.5,T,046.3,M,001.2,N,002.2,K*45
$GPGGA,051933.251,3241.9873,N,11718.0526,W,3,05,1.5,020.4,M,036.2,M,,*79
$GPGXP,051933,3241.9873,N,11718.0526,W*5E
$GPVTG,067.9,T,054.7,M,000.0,N,000.0,K*40
$GPGGA,051948.251,3241.9877,N,11718.0501,W,3,05,1.5,020.4,M,036.2,M,,*74
$GPGXP,051948,3241.9877,N,11718.0501,W*53
$GPVTG,067.9,T,054.7,M,000.6,N,001.2,K*45
$GPGGA,052003.251,3241.9872,N,11718.0492,W,3,05,1.5,017.0,M,036.2,M,,*7F
$GPGXP,052003,3241.9872,N,11718.0492,W*58
$GPVTG,038.9,T,025.6,M,000.8,N,001.5,K*41
$GPGGA,052018.251,3241.9875,N,11718.0461,W,3,05,1.5,017.8,M,036.2,M,,*76
$GPGXP,052018,3241.9875,N,11718.0461,W*59
$GPVTG,050.3,T,037.0,M,000.9,N,001.6,K*42
$GPGGA,052033.251,3241.9882,N,11718.0434,W,3,05,1.5,018.3,M,036.2,M,,*73
$GPGXP,052033,3241.9882,N,11718.0434,W*58
$GPVTG,054.2,T,041.0,M,000.7,N,001.2,K*4C
$GPGGA,052048.251,3241.9870,N,11718.0424,W,3,05,1.5,009.9,M,036.2,M,,*79
$GPGXP,052048,3241.9870,N,11718.0424,W*58
$GPVTG,041.7,T,028.5,M,000.0,N,000.0,K*43
$GPGGA,052103.251,3241.9879,N,11718.0397,W,3,05,1.5,011.5,M,036.2,M,,*74
$GPGXP,052103,3241.9879,N,11718.0397,W*50
$GPVTG,059.5,T,046.2,M,000.8,N,001.5,K*4B
$GPGGA,052118.251,3241.9886,N,11718.0370,W,3,05,1.5,013.3,M,036.2,M,,*73
$GPGXP,052118,3241.9886,N,11718.0370,W*53
$GPVTG,044.6,T,031.4,M,000.0,N,000.0,K*4E
$GPGGA,052133.251,3241.9882,N,11718.0355,W,3,05,1.5,011.2,M,036.2,M,,*7A
$GPGXP,052133,3241.9882,N,11718.0355,W*59
$GPVTG,049.4,T,036.2,M,001.7,N,003.2,K*47
$GPGGA,052148.251,3241.9880,N,11718.0341,W,3,05,1.5,009.8,M,036.2,M,,*72
$GPGXP,052148,3241.9880,N,11718.0341,W*52
$GPVTG,048.4,T,035.2,M,000.0,N,000.0,K*42
$GPGGA,052203.251,3241.9885,N,11718.0315,W,3,05,1.5,011.3,M,036.2,M,,*78
$GPGXP,052203,3241.9885,N,11718.0315,W*5A
$GPVTG,048.4,T,035.2,M,000.7,N,001.3,K*47
$GPGGA,052218.251,3241.9886,N,11718.0294,W,3,05,1.5,011.6,M,036.2,M,,*7C
$GPGXP,052218,3241.9886,N,11718.0294,W*5B
$GPVTG,052.1,T,038.9,M,000.7,N,001.2,K*4E
$GPGGA,052233.251,3241.9888,N,11718.0264,W,3,05,1.5,019.4,M,036.2,M,,*7E
$GPGXP,052233,3241.9888,N,11718.0264,W*53
$GPVTG,052.1,T,038.9,M,001.2,N,002.1,K*4A
$GPGGA,052248.251,3241.9888,N,11718.0242,W,3,05,1.5,018.9,M,036.2,M,,*7A
$GPGXP,052248,3241.9888,N,11718.0242,W*5B
$GPVTG,180.2,T,167.0,M,000.9,N,001.7,K*4A
$GPGGA,052303.251,3241.9897,N,11718.0232,W,3,05,1.5,015.9,M,036.2,M,,*70
$GPGXP,052303,3241.9897,N,11718.0232,W*5C
$GPVTG,028.2,T,015.0,M,000.6,N,001.0,K*45
$GPGGA,052318.251,3241.9896,N,11718.0213,W,3,05,1.5,015.3,M,036.2,M,,*72
$GPGXP,052318,3241.9896,N,11718.0213,W*54
$GPVTG,193.4,T,180.2,M,000.5,N,000.9,K*46
$GPGGA,052333.251,3241.9899,N,11718.0183,W,3,05,1.5,016.7,M,036.2,M,,*79
$GPGXP,052333,3241.9899,N,11718.0183,W*58
$GPVTG,042.2,T,029.0,M,001.0,N,001.9,K*48
$GPGGA,052348.251,3241.9902,N,11718.0157,W,3,05,1.5,017.9,M,036.2,M,,*70
$GPGXP,052348,3241.9902,N,11718.0157,W*5E
$GPVTG,045.6,T,032.4,M,000.7,N,001.4,K*4E
$GPGGA,052403.251,3241.9898,N,11718.0130,W,3,05,1.5,019.7,M,036.2,M,,*7B
$GPGXP,052403,3241.9898,N,11718.0130,W*55
$GPVTG,045.6,T,032.4,M,001.1,N,002.0,K*4E
$GPGGA,052418.251,3241.9902,N,11718.0119,W,3,05,1.5,017.7,M,036.2,M,,*76
$GPGXP,052418,3241.9902,N,11718.0119,W*56
$GPVTG,034.2,T,020.9,M,001.0,N,001.8,K*48
$GPGGA,052433.251,3241.9904,N,11718.0093,W,3,05,1.5,017.1,M,036.2,M,,*7C
$GPGXP,052433,3241.9904,N,11718.0093,W*5A
$GPVTG,034.2,T,020.9,M,000.7,N,001.3,K*45
$GPGGA,052448.251,3241.9910,N,11718.0066,W,3,05,1.5,017.2,M,036.2,M,,*7C
$GPGXP,052448,3241.9910,N,11718.0066,W*59
$GPVTG,030.3,T,017.1,M,001.4,N,002.6,K*48
$GPGGA,052503.251,3241.9900,N,11718.0045,W,3,05,1.5,018.9,M,036.2,M,,*76
$GPGXP,052503,3241.9900,N,11718.0045,W*57
$GPVTG,026.7,T,013.5,M,000.6,N,001.1,K*4C
$GPGGA,052518.251,3241.9900,N,11718.0018,W,3,05,1.5,019.2,M,036.2,M,,*7E
$GPGXP,052518,3241.9900,N,11718.0018,W*55
$GPVTG,041.2,T,028.0,M,001.7,N,003.1,K*47
$GPGGA,052533.251,3241.9906,N,11717.9994,W,3,05,1.5,018.9,M,036.2,M,,*70
$GPGXP,052533,3241.9906,N,11717.9994,W*51
$GPVTG,054.8,T,041.6,M,000.0,N,000.0,K*44
$GPGGA,052548.251,3241.9905,N,11717.9977,W,3,05,1.5,018.0,M,036.2,M,,*7B
$GPGXP,052548,3241.9905,N,11717.9977,W*53
$GPVTG,054.8,T,041.6,M,000.0,N,000.0,K*44
$GPGGA,052603.250,3241.9906,N,11717.9956,W,3,05,1.5,017.3,M,036.2,M,,*7A
$GPGXP,052603,3241.9906,N,11717.9956,W*5F
$GPVTG,054.8,T,041.6,M,000.6,N,001.2,K*41
$GPGGA,052618.250,3241.9910,N,11717.9924,W,3,05,1.5,018.6,M,036.2,M,,*78
$GPGXP,052618,3241.9910,N,11717.9924,W*57
$GPVTG,054.8,T,041.6,M,001.1,N,002.0,K*46
$GPGGA,052633.250,3241.9911,N,11717.9896,W,3,05,1.5,018.2,M,036.2,M,,*7C
$GPGXP,052633,3241.9911,N,11717.9896,W*57
$GPVTG,040.8,T,027.6,M,000.7,N,001.2,K*45
$GPGGA,052648.250,3241.9913,N,11717.9870,W,3,05,1.5,018.4,M,036.2,M,,*7C
$GPGXP,052648,3241.9913,N,11717.9870,W*51
$GPVTG,033.8,T,020.6,M,000.9,N,001.7,K*4D
$GPGGA,052703.250,3241.9913,N,11717.9847,W,3,05,1.5,018.4,M,036.2,M,,*76
$GPGXP,052703,3241.9913,N,11717.9847,W*5B
$GPVTG,063.0,T,049.8,M,000.5,N,000.9,K*42
$GPGGA,052718.250,3241.9909,N,11717.9824,W,3,05,1.5,020.3,M,036.2,M,,*7E
$GPGXP,052718,3241.9909,N,11717.9824,W*5F
$GPVTG,063.0,T,049.8,M,000.7,N,001.2,K*4A
$GPGGA,052733.250,3241.9914,N,11717.9800,W,3,05,1.5,020.5,M,036.2,M,,*7B
$GPGXP,052733,3241.9914,N,11717.9800,W*5C
$GPVTG,055.7,T,042.5,M,000.9,N,001.6,K*44
$GPGGA,052748.250,3241.9918,N,11717.9782,W,3,05,1.5,019.6,M,036.2,M,,*77
$GPGXP,052748,3241.9918,N,11717.9782,W*59
$GPVTG,054.0,T,040.7,M,000.9,N,001.6,K*42
$GPGGA,052803.250,3241.9924,N,11717.9762,W,3,05,1.5,018.7,M,036.2,M,,*76
$GPGXP,052803,3241.9924,N,11717.9762,W*58
$GPVTG,054.0,T,040.7,M,000.4,N,000.7,K*4F
$GPGGA,052818.250,3241.9927,N,11717.9739,W,3,05,1.5,019.8,M,036.2,M,,*7F
$GPGXP,052818,3241.9927,N,11717.9739,W*5F
$GPVTG,042.0,T,028.8,M,000.0,N,000.0,K*4A
$GPGGA,052833.250,3241.9930,N,11717.9719,W,3,05,1.5,020.2,M,036.2,M,,*72
$GPGXP,052833,3241.9930,N,11717.9719,W*52
$GPVTG,048.3,T,035.0,M,000.9,N,001.7,K*48
$GPGGA,052848.250,3241.9936,N,11717.9700,W,3,05,1.5,018.8,M,036.2,M,,*71
$GPGXP,052848,3241.9936,N,11717.9700,W*50
$GPVTG,048.3,T,035.0,M,000.0,N,000.0,K*47
$GPGGA,052903.250,3241.9941,N,11717.9678,W,3,05,1.4,018.3,M,036.2,M,,*7B
$GPGXP,052903,3241.9941,N,11717.9678,W*50
$GPVTG,046.3,T,033.0,M,001.3,N,002.3,K*4C
$GPGGA,052918.250,3241.9940,N,11717.9666,W,3,05,1.4,018.7,M,036.2,M,,*7B
$GPGXP,052918,3241.9940,N,11717.9666,W*54
$GPVTG,028.4,T,015.2,M,001.0,N,001.9,K*4F
$GPGGA,052933.250,3241.9938,N,11717.9649,W,3,05,1.4,019.2,M,036.2,M,,*74
$GPGXP,052933,3241.9938,N,11717.9649,W*5F
$GPVTG,044.0,T,030.8,M,000.0,N,000.0,K*45
$GPGGA,052948.250,3241.9946,N,11717.9626,W,3,05,1.4,018.4,M,036.2,M,,*7F
$GPGXP,052948,3241.9946,N,11717.9626,W*53
$GPVTG,044.0,T,030.8,M,000.8,N,001.4,K*48
$GPGGA,053003.250,3241.9952,N,11717.9606,W,3,05,1.4,018.9,M,036.2,M,,*72
$GPGXP,053003,3241.9952,N,11717.9606,W*53
$GPVTG,044.0,T,030.8,M,000.4,N,000.8,K*49
$GPGGA,053018.250,3241.9949,N,11717.9591,W,3,05,1.4,019.0,M,036.2,M,,*77
$GPGXP,053018,3241.9949,N,11717.9591,W*5E
$GPVTG,044.0,T,030.8,M,000.6,N,001.1,K*43
$GPGGA,053033.250,3241.9958,N,11717.9567,W,3,05,1.4,018.0,M,036.2,M,,*76
$GPGXP,053033,3241.9958,N,11717.9567,W*5E
$GPVTG,044.0,T,030.8,M,000.6,N,001.1,K*43
$GPGGA,053048.250,3241.9956,N,11717.9547,W,3,05,1.4,018.5,M,036.2,M,,*73
$GPGXP,053048,3241.9956,N,11717.9547,W*5E
$GPVTG,037.1,T,023.9,M,000.0,N,000.0,K*43
$GPGGA,053103.250,3241.9959,N,11717.9527,W,3,05,1.4,017.8,M,036.2,M,,*76
$GPGXP,053103,3241.9959,N,11717.9527,W*59
$GPVTG,037.1,T,023.9,M,001.0,N,001.8,K*4B
$GPGGA,053118.250,3241.9961,N,11717.9506,W,3,05,1.4,019.1,M,036.2,M,,*73
$GPGXP,053118,3241.9961,N,11717.9506,W*5B
$GPVTG,051.1,T,037.9,M,000.0,N,000.0,K*46
$GPGGA,053133.250,3241.9967,N,11717.9484,W,3,05,1.4,018.3,M,036.2,M,,*74
$GPGXP,053133,3241.9967,N,11717.9484,W*5F
$GPVTG,069.3,T,056.0,M,000.9,N,001.7,K*4E
$GPGGA,053148.250,3241.9970,N,11717.9463,W,3,05,1.4,018.6,M,036.2,M,,*72
$GPGXP,053148,3241.9970,N,11717.9463,W*5C
$GPVTG,045.0,T,031.8,M,001.3,N,002.5,K*40
$GPGGA,053203.250,3241.9971,N,11717.9441,W,3,05,1.4,019.6,M,036.2,M,,*7E
$GPGXP,053203,3241.9971,N,11717.9441,W*51
$GPVTG,057.2,T,044.0,M,001.0,N,001.9,K*47
$GPGGA,053218.250,3241.9968,N,11717.9423,W,3,05,1.4,020.4,M,036.2,M,,*70
$GPGXP,053218,3241.9968,N,11717.9423,W*57
$GPVTG,057.2,T,044.0,M,000.8,N,001.5,K*42
$GPGGA,053233.250,3241.9968,N,11717.9403,W,3,05,1.4,020.4,M,036.2,M,,*7B
$GPGXP,053233,3241.9968,N,11717.9403,W*5C
$GPVTG,057.2,T,044.0,M,000.0,N,000.0,K*4E
$GPGGA,053248.250,3241.9969,N,11717.9385,W,3,05,1.4,019.2,M,036.2,M,,*73
$GPGXP,053248,3241.9969,N,11717.9385,W*58
$GPVTG,057.2,T,044.0,M,000.5,N,001.0,K*4A
$GPGGA,053303.250,3241.9977,N,11717.9368,W,3,05,1.4,018.4,M,036.2,M,,*76
$GPGXP,053303,3241.9977,N,11717.9368,W*5A
$GPVTG,033.7,T,020.5,M,000.8,N,001.4,K*43
$GPGGA,053318.250,3241.9982,N,11717.9352,W,3,05,1.4,018.0,M,036.2,M,,*7B
$GPGXP,053318,3241.9982,N,11717.9352,W*53
$GPVTG,033.7,T,020.5,M,000.6,N,001.1,K*48
$GPGGA,053333.250,3241.9983,N,11717.9351,W,3,05,1.4,017.9,M,036.2,M,,*76
$GPGXP,053333,3241.9983,N,11717.9351,W*58
$GPVTG,033.7,T,020.5,M,000.0,N,000.0,K*4E
$GPGGA,053348.250,3241.9983,N,11717.9346,W,3,05,1.4,018.3,M,036.2,M,,*79
$GPGXP,053348,3241.9983,N,11717.9346,W*52
$GPVTG,033.7,T,020.5,M,000.0,N,000.0,K*4E
$GPGGA,053403.250,3242.0006,N,11717.9326,W,3,05,1.4,038.6,M,036.2,M,,*7E
$GPGXP,053403,3242.0006,N,11717.9326,W*52
$GPVTG,033.7,T,020.5,M,000.4,N,000.8,K*42
$GPGGA,053418.250,3241.9986,N,11717.9375,W,3,05,1.4,020.0,M,036.2,M,,*76
$GPGXP,053418,3241.9986,N,11717.9375,W*55
$GPVTG,033.7,T,020.5,M,000.6,N,001.0,K*49
$GPGGA,053433.250,3242.0004,N,11717.9381,W,3,05,1.4,039.5,M,036.2,M,,*70
$GPGXP,053433,3242.0004,N,11717.9381,W*5E
$GPVTG,225.8,T,212.6,M,001.2,N,002.3,K*46
$GPGGA,053448.250,3242.0001,N,11717.9412,W,3,05,1.4,039.1,M,036.2,M,,*70
$GPGXP,053448,3242.0001,N,11717.9412,W*5A
$GPVTG,225.8,T,212.6,M,000.8,N,001.6,K*4B
$GPGGA,053503.250,3241.9992,N,11717.9447,W,3,05,1.4,037.3,M,036.2,M,,*7B
$GPGXP,053503,3241.9992,N,11717.9447,W*5D
$GPVTG,254.4,T,241.2,M,000.5,N,000.9,K*40
$GPGGA,053518.250,3241.9986,N,11717.9492,W,3,05,1.4,035.7,M,036.2,M,,*7A
$GPGXP,053518,3241.9986,N,11717.9492,W*5A
$GPVTG,224.4,T,211.2,M,000.9,N,001.7,K*41
$GPGGA,053533.250,3241.9973,N,11717.9539,W,3,05,1.4,034.8,M,036.2,M,,*77
$GPGXP,053533,3241.9973,N,11717.9539,W*59
$GPVTG,225.7,T,212.5,M,001.7,N,003.2,K*4F
$GPGGA,053548.250,3241.9962,N,11717.9584,W,3,05,1.4,035.4,M,036.2,M,,*70
$GPGXP,053548,3241.9962,N,11717.9584,W*53
$GPVTG,221.8,T,208.6,M,001.7,N,003.1,K*4F
$GPGGA,053603.250,3241.9951,N,11717.9635,W,3,05,1.4,034.7,M,036.2,M,,*77
$GPGXP,053603,3241.9951,N,11717.9635,W*56
$GPVTG,279.6,T,266.4,M,001.5,N,002.7,K*43
$GPGGA,053618.250,3241.9934,N,11717.9684,W,3,05,1.4,036.2,M,036.2,M,,*73
$GPGXP,053618,3241.9934,N,11717.9684,W*55
$GPVTG,247.2,T,234.0,M,001.2,N,002.2,K*4B
$GPGGA,053633.250,3241.9920,N,11717.9737,W,3,05,1.4,036.2,M,036.2,M,,*76
$GPGXP,053633,3241.9920,N,11717.9737,W*50
$GPVTG,284.1,T,270.9,M,000.8,N,001.5,K*41
$GPGGA,053648.250,3241.9889,N,11717.9790,W,3,05,1.4,034.9,M,036.2,M,,*7C
$GPGXP,053648,3241.9889,N,11717.9790,W*53
$GPVTG,273.9,T,260.7,M,001.3,N,002.5,K*47
$GPGGA,053703.250,3241.9870,N,11717.9849,W,3,05,1.4,036.0,M,036.2,M,,*74
$GPGXP,053703,3241.9870,N,11717.9849,W*50
$GPVTG,244.7,T,231.5,M,001.4,N,002.5,K*4C
$GPGGA,053718.250,3241.9846,N,11717.9913,W,3,05,1.4,035.8,M,036.2,M,,*7E
$GPGXP,053718,3241.9846,N,11717.9913,W*51
$GPVTG,253.9,T,240.7,M,001.1,N,002.0,K*40
$GPGGA,053733.250,3241.9811,N,11718.0002,W,3,05,1.4,013.9,M,036.2,M,,*7F
$GPGXP,053733,3241.9811,N,11718.0002,W*55
$GPVTG,289.9,T,276.7,M,001.9,N,003.6,K*4D
$GPGGA,053748.250,3241.9785,N,11718.0065,W,3,05,1.4,014.1,M,036.2,M,,*7F
$GPGXP,053748,3241.9785,N,11718.0065,W*5A
$GPVTG,227.7,T,214.5,M,001.8,N,003.4,K*42
$GPGGA,053803.250,3241.9766,N,11718.0141,W,3,05,1.4,012.4,M,036.2,M,,*76
$GPGXP,053803,3241.9766,N,11718.0141,W*50
$GPVTG,224.8,T,211.6,M,002.2,N,004.0,K*42
$GPGGA,053818.250,3241.9743,N,11718.0217,W,3,05,1.4,012.4,M,036.2,M,,*7B
$GPGXP,053818,3241.9743,N,11718.0217,W*5D
$GPVTG,258.6,T,245.4,M,001.6,N,003.0,K*44
$GPGGA,053833.250,3241.9733,N,11718.0281,W,3,05,1.4,012.6,M,036.2,M,,*78
$GPGXP,053833,3241.9733,N,11718.0281,W*5C
$GPVTG,261.4,T,248.2,M,001.5,N,002.8,K*4D
$GPGGA,053848.250,3241.9721,N,11718.0356,W,3,05,1.4,013.5,M,036.2,M,,*7E
$GPGXP,053848,3241.9721,N,11718.0356,W*58
$GPVTG,251.6,T,238.4,M,001.6,N,003.0,K*47
$GPGGA,053903.250,3241.9708,N,11718.0436,W,3,05,1.4,013.4,M,036.2,M,,*7B
$GPGXP,053903,3241.9708,N,11718.0436,W*5C
$GPVTG,260.1,T,246.9,M,001.2,N,002.2,K*41
$GPGGA,053918.250,3241.9702,N,11718.0511,W,3,05,1.4,014.8,M,036.2,M,,*74
$GPGXP,053918,3241.9702,N,11718.0511,W*58
$GPVTG,264.7,T,251.5,M,001.7,N,003.1,K*4E
$GPGGA,053933.250,3241.9700,N,11718.0586,W,3,05,1.4,015.3,M,036.2,M,,*7B
$GPGXP,053933,3241.9700,N,11718.0586,W*5D
$GPVTG,261.0,T,247.8,M,001.3,N,002.4,K*46
$GPGGA,053948.250,3241.9701,N,11718.0672,W,3,05,1.4,015.0,M,036.2,M,,*7D
$GPGXP,053948,3241.9701,N,11718.0672,W*58
$GPVTG,276.2,T,263.0,M,002.2,N,004.0,K*4C
$GPGGA,054003.250,3241.9696,N,11718.0768,W,3,05,1.4,015.7,M,036.2,M,,*7E
$GPGXP,054003,3241.9696,N,11718.0768,W*5C
$GPVTG,277.9,T,264.7,M,002.4,N,004.4,K*44
$GPGGA,054018.250,3241.9693,N,11718.0871,W,3,05,1.4,014.8,M,036.2,M,,*78
$GPGXP,054018,3241.9693,N,11718.0871,W*54
$GPVTG,272.8,T,259.6,M,002.1,N,003.9,K*40
$GPGGA,054033.250,3241.9690,N,11718.0980,W,3,05,1.4,014.7,M,036.2,M,,*72
$GPGXP,054033,3241.9690,N,11718.0980,W*51
$GPVTG,283.8,T,270.6,M,003.0,N,005.6,K*4C
$GPGGA,054048.250,3241.9688,N,11718.1091,W,3,05,1.4,014.8,M,036.2,M,,*70
$GPGXP,054048,3241.9688,N,11718.1091,W*5C
$GPVTG,284.1,T,270.8,M,002.3,N,004.2,K*4B
$GPGGA,054103.250,3241.9679,N,11718.1197,W,3,05,1.4,015.4,M,036.2,M,,*7A
$GPGXP,054103,3241.9679,N,11718.1197,W*5B
$GPVTG,259.8,T,246.6,M,002.3,N,004.3,K*48
$GPGGA,054118.250,3241.9678,N,11718.1313,W,3,05,1.4,014.5,M,036.2,M,,*7F
$GPGXP,054118,3241.9678,N,11718.1313,W*5E
$GPVTG,264.9,T,251.7,M,002.7,N,005.1,K*47
$GPGGA,054133.250,3241.9669,N,11718.1424,W,3,05,1.4,015.0,M,036.2,M,,*71
$GPGXP,054133,3241.9669,N,11718.1424,W*54
$GPVTG,269.6,T,256.4,M,002.4,N,004.4,K*46
$GPGGA,054148.250,3241.9654,N,11718.1539,W,3,05,1.4,015.4,M,036.2,M,,*7A
$GPGXP,054148,3241.9654,N,11718.1539,W*5B
$GPVTG,267.8,T,254.6,M,002.4,N,004.5,K*47
$GPGGA,054203.250,3241.9643,N,11718.1663,W,3,05,1.4,014.9,M,036.2,M,,*70
$GPGXP,054203,3241.9643,N,11718.1663,W*5D
$GPVTG,254.4,T,241.2,M,002.5,N,004.6,K*49
$GPGGA,054218.250,3241.9636,N,11718.1778,W,3,05,1.4,014.5,M,036.2,M,,*7F
$GPGXP,054218,3241.9636,N,11718.1778,W*5E
$GPVTG,270.1,T,256.9,M,002.2,N,004.1,K*47
$GPGGA,054233.250,3241.9630,N,11718.1896,W,3,05,1.4,015.3,M,036.2,M,,*78
$GPGXP,054233,3241.9630,N,11718.1896,W*5E
$GPVTG,286.3,T,273.1,M,002.1,N,003.8,K*4E
$GPGGA,054248.250,3241.9627,N,11718.2014,W,3,05,1.4,016.1,M,036.2,M,,*72
$GPGXP,054248,3241.9627,N,11718.2014,W*55
$GPVTG,271.8,T,258.6,M,003.1,N,005.8,K*44
$GPGGA,054303.250,3241.9629,N,11718.2135,W,3,05,1.3,015.6,M,036.2,M,,*73
$GPGXP,054303,3241.9629,N,11718.2135,W*57
$GPVTG,270.4,T,257.2,M,002.1,N,003.8,K*45
$GPGGA,054318.250,3241.9639,N,11718.2247,W,3,05,1.3,017.3,M,036.2,M,,*79
$GPGXP,054318,3241.9639,N,11718.2247,W*5A
$GPVTG,263.9,T,250.7,M,002.4,N,004.4,K*46
$GPGGA,054333.250,3241.9650,N,11718.2367,W,3,05,1.3,016.8,M,036.2,M,,*76
$GPGXP,054333,3241.9650,N,11718.2367,W*5F
$GPVTG,278.5,T,265.2,M,002.7,N,005.0,K*45
$GPGGA,054348.250,3241.9657,N,11718.2493,W,3,05,1.3,016.0,M,036.2,M,,*79
$GPGXP,054348,3241.9657,N,11718.2493,W*58
$GPVTG,289.1,T,275.9,M,002.8,N,005.3,K*49
$GPGGA,054403.250,3241.9676,N,11718.2625,W,3,05,1.3,012.5,M,036.2,M,,*7C
$GPGXP,054403,3241.9676,N,11718.2625,W*5C
$GPVTG,282.7,T,269.5,M,002.5,N,004.6,K*4C
$GPGGA,054418.250,3241.9691,N,11718.2735,W,3,05,1.3,013.9,M,036.2,M,,*72
$GPGXP,054418,3241.9691,N,11718.2735,W*5F
$GPVTG,283.4,T,270.1,M,002.2,N,004.0,K*43
$GPGGA,054433.250,3241.9701,N,11718.2860,W,3,05,1.3,014.3,M,036.2,M,,*71
$GPGXP,054433,3241.9701,N,11718.2860,W*51
$GPVTG,280.5,T,267.3,M,002.5,N,004.7,K*45
$GPGGA,054448.250,3241.9717,N,11718.2986,W,3,05,1.3,014.8,M,036.2,M,,*78
$GPGXP,054448,3241.9717,N,11718.2986,W*53
$GPVTG,265.2,T,252.0,M,002.6,N,004.8,K*40
$GPGGA,054503.250,3241.9730,N,11718.3098,W,3,05,1.3,017.0,M,036.2,M,,*7F
$GPGXP,054503,3241.9730,N,11718.3098,W*5F
$GPVTG,267.2,T,254.0,M,002.3,N,004.3,K*4A
$GPGGA,054518.250,3241.9733,N,11718.3205,W,3,05,1.3,016.1,M,036.2,M,,*70
$GPGXP,054518,3241.9733,N,11718.3205,W*50
$GPVTG,298.8,T,285.5,M,001.5,N,002.9,K*40
$GPGGA,054533.250,3241.9721,N,11718.3301,W,3,05,1.3,016.6,M,036.2,M,,*78
$GPGXP,054533,3241.9721,N,11718.3301,W*5F
$GPVTG,271.4,T,258.1,M,002.4,N,004.4,K*46
$GPGGA,054548.250,3241.9700,N,11718.3379,W,3,05,1.3,016.6,M,036.2,M,,*78
$GPGXP,054548,3241.9700,N,11718.3379,W*5F
$GPVTG,223.5,T,210.3,M,001.7,N,003.2,K*4F
$GPGGA,054603.250,3241.9684,N,11718.3451,W,3,05,1.3,016.7,M,036.2,M,,*75
$GPGXP,054603,3241.9684,N,11718.3451,W*53
$GPVTG,249.0,T,235.8,M,001.2,N,002.3,K*4F
$GPGGA,054618.250,3241.9662,N,11718.3508,W,3,05,1.3,016.0,M,036.2,M,,*7D
$GPGXP,054618,3241.9662,N,11718.3508,W*5C
$GPVTG,247.5,T,234.2,M,001.7,N,003.1,K*49
$GPGGA,054633.250,3241.9635,N,11718.3554,W,3,05,1.3,015.4,M,036.2,M,,*78
$GPGXP,054633,3241.9635,N,11718.3554,W*5E
$GPVTG,259.1,T,245.8,M,001.2,N,002.3,K*48
$GPGGA,054648.250,3241.9617,N,11718.3596,W,3,05,1.3,014.5,M,036.2,M,,*7A
$GPGXP,054648,3241.9617,N,11718.3596,W*5C
$GPVTG,245.4,T,232.2,M,001.0,N,001.9,K*41
$GPGGA,054703.250,3241.9589,N,11718.3633,W,3,05,1.3,014.3,M,036.2,M,,*7A
$GPGXP,054703,3241.9589,N,11718.3633,W*5A
$GPVTG,295.1,T,281.9,M,000.8,N,001.4,K*4E
$GPGGA,054718.250,3241.9564,N,11718.3659,W,3,05,1.3,014.3,M,036.2,M,,*7F
$GPGXP,054718,3241.9564,N,11718.3659,W*5F
$GPVTG,187.5,T,174.3,M,000.8,N,001.5,K*48
$GPGGA,054733.249,3241.9533,N,11718.3687,W,3,05,1.3,014.2,M,036.2,M,,*7E
$GPGXP,054733,3241.9533,N,11718.3687,W*57
$GPVTG,193.9,T,180.7,M,001.0,N,001.8,K*4A
$GPGGA,054748.249,3241.9511,N,11718.3709,W,3,05,1.3,013.7,M,036.2,M,,*77
$GPGXP,054748,3241.9511,N,11718.3709,W*5C
$GPVTG,192.8,T,179.6,M,000.6,N,001.0,K*42
$GPGGA,054803.249,3241.9494,N,11718.3732,W,3,05,1.3,013.9,M,036.2,M,,*7D
$GPGXP,054803,3241.9494,N,11718.3732,W*58
$GPVTG,201.7,T,188.5,M,000.9,N,001.6,K*40
$GPGGA,054818.249,3241.9474,N,11718.3748,W,3,05,1.3,014.4,M,036.2,M,,*7E
$GPGXP,054818,3241.9474,N,11718.3748,W*51
$GPVTG,180.4,T,167.2,M,000.5,N,000.9,K*4D
$GPGGA,054833.249,3241.9447,N,11718.3769,W,3,05,1.3,013.1,M,036.2,M,,*76
$GPGXP,054833,3241.9447,N,11718.3769,W*5B
$GPVTG,273.5,T,260.3,M,001.2,N,002.1,K*4A
$GPGGA,054848.249,3241.9428,N,11718.3779,W,3,05,1.3,013.2,M,036.2,M,,*71
$GPGXP,054848,3241.9428,N,11718.3779,W*5F
$GPVTG,173.9,T,160.6,M,000.0,N,000.0,K*43
$GPGGA,054903.249,3241.9405,N,11718.3788,W,3,05,1.3,013.7,M,036.2,M,,*7B
$GPGXP,054903,3241.9405,N,11718.3788,W*50
$GPVTG,156.4,T,143.2,M,001.5,N,002.7,K*4D
$GPGGA,054918.249,3241.9391,N,11718.3798,W,3,05,1.3,013.8,M,036.2,M,,*75
$GPGXP,054918,3241.9391,N,11718.3798,W*51
$GPVTG,168.4,T,155.2,M,001.0,N,001.9,K*4F
$GPGGA,054933.249,3241.9372,N,11718.3807,W,3,05,1.3,013.0,M,036.2,M,,*70
$GPGXP,054933,3241.9372,N,11718.3807,W*5C
$GPVTG,168.4,T,155.2,M,000.8,N,001.4,K*4B
$GPGGA,054948.249,3241.9355,N,11718.3809,W,3,05,1.3,012.9,M,036.2,M,,*7F
$GPGXP,054948,3241.9355,N,11718.3809,W*5B
$GPVTG,164.0,T,150.8,M,001.1,N,002.0,K*43
$GPGGA,055003.249,3241.9341,N,11718.3814,W,3,05,1.3,013.4,M,036.2,M,,*7D
$GPGXP,055003,3241.9341,N,11718.3814,W*55
$GPVTG,167.5,T,154.3,M,001.0,N,001.9,K*41
$GPGGA,055018.249,3241.9328,N,11718.3816,W,3,05,1.3,013.7,M,036.2,M,,*79
$GPGXP,055018,3241.9328,N,11718.3816,W*52
$GPVTG,152.1,T,138.9,M,000.9,N,001.6,K*44
$GPGGA,055033.249,3241.9314,N,11718.3821,W,3,05,1.3,013.1,M,036.2,M,,*7D
$GPGXP,055033,3241.9314,N,11718.3821,W*50
$GPVTG,152.1,T,138.9,M,000.7,N,001.3,K*4F
$GPGGA,055048.249,3241.9298,N,11718.3817,W,3,05,1.3,012.8,M,036.2,M,,*79
$GPGXP,055048,3241.9298,N,11718.3817,W*5C
$GPVTG,152.1,T,138.9,M,000.0,N,000.0,K*4A
$GPGGA,055103.249,3241.9288,N,11718.3817,W,3,05,1.3,012.4,M,036.2,M,,*7A
$GPGXP,055103,3241.9288,N,11718.3817,W*53
$GPVTG,152.1,T,138.9,M,000.7,N,001.3,K*4F
$GPGGA,055118.249,3241.9280,N,11718.3817,W,3,05,1.3,013.3,M,036.2,M,,*7E
$GPGXP,055118,3241.9280,N,11718.3817,W*51
$GPVTG,172.7,T,159.5,M,000.0,N,000.0,K*45
$GPGGA,055133.249,3241.9273,N,11718.3813,W,3,05,1.3,014.1,M,036.2,M,,*7A
$GPGXP,055133,3241.9273,N,11718.3813,W*50
$GPVTG,172.7,T,159.5,M,000.0,N,000.0,K*45
$GPGGA,055148.249,3241.9266,N,11718.3809,W,3,05,1.3,015.3,M,036.2,M,,*7A
$GPGXP,055148,3241.9266,N,11718.3809,W*53
$GPVTG,172.7,T,159.5,M,000.0,N,000.0,K*45
$GPGGA,055203.249,3241.9263,N,11718.3805,W,3,05,1.3,014.6,M,036.2,M,,*7B
$GPGXP,055203,3241.9263,N,11718.3805,W*56
$GPVTG,172.7,T,159.5,M,000.0,N,000.0,K*45
$GPGGA,055218.249,3241.9262,N,11718.3806,W,3,05,1.3,014.8,M,036.2,M,,*7D
$GPGXP,055218,3241.9262,N,11718.3806,W*5E
$GPVTG,172.7,T,159.5,M,000.5,N,001.0,K*41
$GPGGA,055233.249,3241.9261,N,11718.3800,W,3,05,1.3,015.6,M,036.2,M,,*7E
$GPGXP,055233,3241.9261,N,11718.3800,W*52
$GPVTG,172.7,T,159.5,M,000.9,N,001.6,K*4B
$GPGGA,055248.249,3241.9259,N,11718.3799,W,3,05,1.3,014.6,M,036.2,M,,*77
$GPGXP,055248,3241.9259,N,11718.3799,W*5A
$GPVTG,172.7,T,159.5,M,000.0,N,000.0,K*45
$GPGGA,055303.249,3241.9260,N,11718.3795,W,3,05,1.3,014.7,M,036.2,M,,*7E
$GPGXP,055303,3241.9260,N,11718.3795,W*52
$GPVTG,172.7,T,159.5,M,000.4,N,000.7,K*46
$GPGGA,055318.249,3241.9254,N,11718.3784,W,3,05,1.3,014.5,M,036.2,M,,*71
$GPGXP,055318,3241.9254,N,11718.3784,W*5F
$GPVTG,162.5,T,149.3,M,001.0,N,001.8,K*49
$GPGGA,055333.249,3241.9256,N,11718.3774,W,3,05,1.3,015.1,M,036.2,M,,*70
$GPGXP,055333,3241.9256,N,11718.3774,W*5B
$GPVTG,162.5,T,149.3,M,000.9,N,001.7,K*4E
$GPGGA,055348.249,3241.9265,N,11718.3760,W,3,05,1.3,015.1,M,036.2,M,,*79
$GPGXP,055348,3241.9265,N,11718.3760,W*52
$GPVTG,162.5,T,149.3,M,000.6,N,001.0,K*46
$GPGGA,055403.249,3241.9257,N,11718.3751,W,3,05,1.3,014.8,M,036.2,M,,*7A
$GPGXP,055403,3241.9257,N,11718.3751,W*59
$GPVTG,162.5,T,149.3,M,000.0,N,000.0,K*41
$GPGGA,055418.249,3241.9259,N,11718.3740,W,3,05,1.3,014.3,M,036.2,M,,*75
$GPGXP,055418,3241.9259,N,11718.3740,W*5D
$GPVTG,151.5,T,138.3,M,000.5,N,001.0,K*43
$GPGGA,055433.249,3241.9261,N,11718.3724,W,3,05,1.3,014.8,M,036.2,M,,*7E
$GPGXP,055433,3241.9261,N,11718.3724,W*5D
$GPVTG,045.9,T,032.7,M,001.2,N,002.2,K*43
$GPGGA,055448.249,3241.9261,N,11718.3702,W,3,05,1.3,015.0,M,036.2,M,,*7F
$GPGXP,055448,3241.9261,N,11718.3702,W*55
$GPVTG,131.6,T,118.4,M,000.8,N,001.5,K*4B
$GPGGA,055503.249,3241.9261,N,11718.3691,W,3,05,1.3,015.4,M,036.2,M,,*7E
$GPGXP,055503,3241.9261,N,11718.3691,W*50
$GPVTG,131.6,T,118.4,M,000.7,N,001.3,K*42
$GPGGA,055518.249,3241.9267,N,11718.3671,W,3,05,1.3,014.8,M,036.2,M,,*71
$GPGXP,055518,3241.9267,N,11718.3671,W*52
$GPVTG,131.6,T,118.4,M,000.4,N,000.8,K*4B
$GPGGA,055533.249,3241.9253,N,11718.3660,W,3,05,1.3,014.3,M,036.2,M,,*74
$GPGXP,055533,3241.9253,N,11718.3660,W*5C
$GPVTG,131.6,T,118.4,M,000.5,N,000.8,K*4A
$GPGGA,055548.249,3241.9267,N,11718.3635,W,3,05,1.3,014.5,M,036.2,M,,*79
$GPGXP,055548,3241.9267,N,11718.3635,W*57
$GPVTG,131.6,T,118.4,M,000.0,N,000.0,K*47
$GPGGA,055603.249,3241.9274,N,11718.3613,W,3,05,1.3,015.3,M,036.2,M,,*74
$GPGXP,055603,3241.9274,N,11718.3613,W*5D
$GPVTG,131.6,T,118.4,M,000.5,N,000.9,K*4B
$GPGGA,055618.249,3241.9283,N,11718.3595,W,3,05,1.3,014.3,M,036.2,M,,*7A
$GPGXP,055618,3241.9283,N,11718.3595,W*52
$GPVTG,022.3,T,009.1,M,000.8,N,001.4,K*48
$GPGGA,055633.249,3241.9286,N,11718.3577,W,3,05,1.3,014.7,M,036.2,M,,*7E
$GPGXP,055633,3241.9286,N,11718.3577,W*52
$GPVTG,016.7,T,003.5,M,001.6,N,003.0,K*4C
$GPGGA,055648.249,3241.9294,N,11718.3555,W,3,05,1.3,013.6,M,036.2,M,,*77
$GPGXP,055648,3241.9294,N,11718.3555,W*5D
$GPVTG,125.6,T,112.3,M,000.7,N,001.3,K*4A
$GPGGA,055703.249,3241.9305,N,11718.3529,W,3,05,1.3,014.3,M,036.2,M,,*79
$GPGXP,055703,3241.9305,N,11718.3529,W*51
$GPVTG,134.9,T,121.7,M,000.5,N,000.9,K*48
$GPGGA,055718.249,3241.9310,N,11718.3503,W,3,05,1.3,012.4,M,036.2,M,,*7E
$GPGXP,055718,3241.9310,N,11718.3503,W*57
$GPVTG,134.9,T,121.7,M,000.5,N,001.0,K*40
$GPGGA,055733.249,3241.9310,N,11718.3472,W,3,05,1.3,014.0,M,036.2,M,,*72
$GPGXP,055733,3241.9310,N,11718.3472,W*59
$GPVTG,047.3,T,034.0,M,000.8,N,001.4,K*44
$GPGGA,055748.249,3241.9305,N,11718.3448,W,3,05,1.3,014.6,M,036.2,M,,*75
$GPGXP,055748,3241.9305,N,11718.3448,W*58
$GPVTG,047.3,T,034.0,M,000.5,N,000.9,K*45
$GPGGA,055803.249,3241.9312,N,11718.3421,W,3,05,1.3,015.4,M,036.2,M,,*7F
$GPGXP,055803,3241.9312,N,11718.3421,W*51
$GPVTG,082.5,T,069.3,M,001.3,N,002.4,K*49
$GPGGA,055818.249,3241.9315,N,11718.3388,W,3,05,1.3,016.4,M,036.2,M,,*75
$GPGXP,055818,3241.9315,N,11718.3388,W*58
$GPVTG,060.6,T,047.4,M,000.9,N,001.7,K*46
$GPGGA,055833.249,3241.9321,N,11718.3369,W,3,05,1.3,014.2,M,036.2,M,,*70
$GPGXP,055833,3241.9321,N,11718.3369,W*59
$GPVTG,060.4,T,047.1,M,000.7,N,001.3,K*4B
$GPGGA,055848.249,3241.9316,N,11718.3342,W,3,05,1.3,016.0,M,036.2,M,,*71
$GPGXP,055848,3241.9316,N,11718.3342,W*58
$GPVTG,060.4,T,047.1,M,000.4,N,000.8,K*42
$GPGGA,055903.249,3241.9316,N,11718.3315,W,3,05,1.3,015.9,M,036.2,M,,*77
$GPGXP,055903,3241.9316,N,11718.3315,W*54
$GPVTG,060.4,T,047.1,M,000.7,N,001.3,K*4B
$GPGGA,055918.249,3241.9321,N,11718.3285,W,3,05,1.3,015.9,M,036.2,M,,*71
$GPGXP,055918,3241.9321,N,11718.3285,W*52
$GPVTG,060.4,T,047.1,M,000.8,N,001.4,K*43
$GPGGA,055933.249,3241.9321,N,11718.3258,W,3,05,1.3,016.5,M,036.2,M,,*77
$GPGXP,055933,3241.9321,N,11718.3258,W*5B
$GPVTG,059.7,T,046.5,M,000.5,N,000.9,K*4E
$GPGGA,055948.249,3241.9322,N,11718.3229,W,3,05,1.3,015.8,M,036.2,M,,*70
$GPGXP,055948,3241.9322,N,11718.3229,W*52
$GPVTG,059.7,T,046.5,M,000.8,N,001.4,K*4F
$GPGGA,060003.249,3241.9326,N,11718.3199,W,3,05,1.3,015.6,M,036.2,M,,*72
$GPGXP,060003,3241.9326,N,11718.3199,W*5E
$GPVTG,080.6,T,067.4,M,000.0,N,000.0,K*45
$GPGGA,060018.249,3241.9321,N,11718.3172,W,3,05,1.3,015.5,M,036.2,M,,*79
$GPGXP,060018,3241.9321,N,11718.3172,W*56
$GPVTG,059.5,T,046.3,M,001.6,N,002.9,K*4A
$GPGGA,060033.249,3241.9325,N,11718.3139,W,3,05,1.3,016.8,M,036.2,M,,*75
$GPGXP,060033,3241.9325,N,11718.3139,W*54
$GPVTG,074.1,T,060.8,M,000.0,N,000.0,K*42
$GPGGA,060048.249,3241.9324,N,11718.3108,W,3,05,1.3,016.5,M,036.2,M,,*77
$GPGXP,060048,3241.9324,N,11718.3108,W*5B
$GPVTG,074.1,T,060.8,M,000.6,N,001.1,K*44
$GPGGA,060103.249,3241.9319,N,11718.3083,W,3,05,1.3,017.1,M,036.2,M,,*70
$GPGXP,060103,3241.9319,N,11718.3083,W*59
$GPVTG,059.9,T,046.7,M,000.6,N,001.1,K*48
$GPGGA,060118.249,3241.9327,N,11718.3055,W,3,05,1.3,016.1,M,036.2,M,,*7D
$GPGXP,060118,3241.9327,N,11718.3055,W*55
$GPVTG,060.3,T,047.1,M,000.5,N,001.0,K*4D
$GPGGA,060133.249,3241.9320,N,11718.3028,W,3,05,1.3,016.7,M,036.2,M,,*7F
$GPGXP,060133,3241.9320,N,11718.3028,W*51
$GPVTG,070.4,T,057.1,M,002.2,N,004.0,K*4A
$GPGGA,060148.249,3241.9315,N,11718.3007,W,3,05,1.3,016.0,M,036.2,M,,*7F
$GPGXP,060148,3241.9315,N,11718.3007,W*56
$GPVTG,068.0,T,054.8,M,000.9,N,001.7,K*46
$GPGGA,060203.249,3241.9317,N,11718.2971,W,3,05,1.3,016.6,M,036.2,M,,*7E
$GPGXP,060203,3241.9317,N,11718.2971,W*51
$GPVTG,065.1,T,051.8,M,000.9,N,001.7,K*4F
$GPGGA,060218.249,3241.9321,N,11718.2940,W,3,05,1.3,016.5,M,036.2,M,,*70
$GPGXP,060218,3241.9321,N,11718.2940,W*5C
$GPVTG,056.0,T,042.8,M,000.0,N,000.0,K*43
$GPGGA,060233.249,3241.9315,N,11718.2922,W,3,05,1.3,016.0,M,036.2,M,,*7F
$GPGXP,060233,3241.9315,N,11718.2922,W*56
$GPVTG,069.5,T,056.3,M,001.9,N,003.5,K*4A
$GPGGA,060248.249,3241.9314,N,11718.2891,W,3,05,1.3,015.8,M,036.2,M,,*70
$GPGXP,060248,3241.9314,N,11718.2891,W*52
$GPVTG,075.7,T,062.5,M,000.0,N,000.0,K*4A
$GPGGA,060303.249,3241.9310,N,11718.2866,W,3,05,1.3,016.1,M,036.2,M,,*78
$GPGXP,060303,3241.9310,N,11718.2866,W*50
$GPVTG,072.8,T,059.6,M,001.0,N,001.8,K*41
$GPGGA,060318.249,3241.9310,N,11718.2839,W,3,05,1.3,017.5,M,036.2,M,,*7D
$GPGXP,060318,3241.9310,N,11718.2839,W*50
$GPVTG,072.8,T,059.6,M,000.4,N,000.8,K*45
$GPGGA,060333.249,3241.9309,N,11718.2811,W,3,05,1.3,015.9,M,036.2,M,,*78
$GPGXP,060333,3241.9309,N,11718.2811,W*5B
$GPVTG,059.5,T,046.3,M,001.3,N,002.4,K*42
$GPGGA,060348.249,3241.9310,N,11718.2784,W,3,05,1.3,015.6,M,036.2,M,,*70
$GPGXP,060348,3241.9310,N,11718.2784,W*5C
$GPVTG,049.9,T,036.6,M,001.7,N,003.2,K*4E
$GPGGA,060403.249,3241.9306,N,11718.2758,W,3,05,1.3,015.1,M,036.2,M,,*79
$GPGXP,060403,3241.9306,N,11718.2758,W*52
$GPVTG,071.8,T,058.5,M,001.4,N,002.6,K*49
$GPGGA,060418.249,3241.9305,N,11718.2732,W,3,05,1.3,014.9,M,036.2,M,,*75
$GPGXP,060418,3241.9305,N,11718.2732,W*57
$GPVTG,063.3,T,050.1,M,000.5,N,000.9,K*40
$GPGGA,060433.249,3241.9303,N,11718.2700,W,3,05,1.3,014.9,M,036.2,M,,*7B
$GPGXP,060433,3241.9303,N,11718.2700,W*59
$GPVTG,084.2,T,070.9,M,000.0,N,000.0,K*4E
$GPGGA,060448.249,3241.9303,N,11718.2669,W,3,05,1.3,014.4,M,036.2,M,,*74
$GPGXP,060448,3241.9303,N,11718.2669,W*5B
$GPVTG,063.2,T,050.0,M,000.6,N,001.1,K*4A
$GPGGA,060503.249,3241.9303,N,11718.2642,W,3,05,1.3,014.3,M,036.2,M,,*74
$GPGXP,060503,3241.9303,N,11718.2642,W*5C
$GPVTG,062.8,T,049.6,M,000.9,N,001.7,K*46
$GPGGA,060518.249,3241.9300,N,11718.2612,W,3,05,1.3,014.0,M,036.2,M,,*7B
$GPGXP,060518,3241.9300,N,11718.2612,W*50
$GPVTG,062.8,T,049.6,M,001.1,N,002.1,K*4A
$GPGGA,060533.249,3241.9301,N,11718.2585,W,3,05,1.3,014.4,M,036.2,M,,*7A
$GPGXP,060533,3241.9301,N,11718.2585,W*55
$GPVTG,080.3,T,067.1,M,000.9,N,001.7,K*4A
$GPGGA,060548.249,3241.9297,N,11718.2551,W,3,05,1.3,013.4,M,036.2,M,,*76
$GPGXP,060548,3241.9297,N,11718.2551,W*5E
$GPVTG,080.3,T,067.1,M,000.7,N,001.2,K*41
$GPGGA,060603.249,3241.9297,N,11718.2522,W,3,05,1.3,013.8,M,036.2,M,,*72
$GPGXP,060603,3241.9297,N,11718.2522,W*56
$GPVTG,067.7,T,054.5,M,000.8,N,001.4,K*41
$GPGGA,060618.249,3241.9292,N,11718.2499,W,3,05,1.3,012.9,M,036.2,M,,*7C
$GPGXP,060618,3241.9292,N,11718.2499,W*58
$GPVTG,067.7,T,054.5,M,000.4,N,000.7,K*4F
$GPGGA,060633.249,3241.9291,N,11718.2468,W,3,05,1.3,013.6,M,036.2,M,,*76
$GPGXP,060633,3241.9291,N,11718.2468,W*5C
$GPVTG,046.8,T,033.6,M,000.9,N,001.6,K*4C
$GPGGA,060648.249,3241.9286,N,11718.2420,W,3,05,1.7,022.2,M,036.2,M,,*72
$GPGXP,060648,3241.9286,N,11718.2420,W*5A
$GPVTG,062.5,T,049.3,M,000.5,N,000.9,K*4D
$GPGGA,060703.249,3241.9268,N,11718.2380,W,3,05,1.7,038.2,M,036.2,M,,*7A
$GPGXP,060703,3241.9268,N,11718.2380,W*59
$GPVTG,070.7,T,057.4,M,001.8,N,003.4,K*46
$GPGGA,060718.249,3241.9284,N,11718.2362,W,3,05,1.7,022.0,M,036.2,M,,*77
$GPGXP,060718,3241.9284,N,11718.2362,W*5D
$GPVTG,083.7,T,070.4,M,001.6,N,003.0,K*45
$GPGGA,060733.249,3241.9258,N,11718.2318,W,3,05,1.2,020.2,M,036.2,M,,*77
$GPGXP,060733,3241.9258,N,11718.2318,W*58
$GPVTG,058.2,T,045.0,M,000.7,N,001.3,K*45
$GPGGA,060748.249,3241.9259,N,11718.2288,W,3,05,1.2,015.0,M,036.2,M,,*76
$GPGXP,060748,3241.9259,N,11718.2288,W*5D
$GPVTG,070.1,T,056.9,M,000.6,N,001.1,K*44
$GPGGA,060803.249,3241.9257,N,11718.2263,W,3,05,1.2,014.9,M,036.2,M,,*75
$GPGXP,060803,3241.9257,N,11718.2263,W*56
$GPVTG,069.9,T,056.7,M,000.5,N,001.0,K*48
$GPGGA,060818.249,3241.9258,N,11718.2236,W,3,05,1.2,013.8,M,036.2,M,,*76
$GPGXP,060818,3241.9258,N,11718.2236,W*53
$GPVTG,069.9,T,056.7,M,000.8,N,001.5,K*40
$GPGGA,060833.249,3241.9253,N,11718.2211,W,3,05,1.2,014.7,M,036.2,M,,*79
$GPGXP,060833,3241.9253,N,11718.2211,W*54
$GPVTG,069.9,T,056.7,M,000.5,N,000.9,K*40
$GPGGA,060848.249,3241.9251,N,11718.2185,W,3,05,1.2,016.7,M,036.2,M,,*7B
$GPGXP,060848,3241.9251,N,11718.2185,W*54
$GPVTG,049.2,T,036.0,M,000.7,N,001.3,K*41
$GPGGA,060903.249,3241.9252,N,11718.2154,W,3,05,1.2,015.9,M,036.2,M,,*77
$GPGXP,060903,3241.9252,N,11718.2154,W*55
$GPVTG,071.3,T,058.0,M,000.8,N,001.5,K*4A
$GPGGA,060918.248,3241.9247,N,11718.2131,W,3,05,1.2,014.6,M,036.2,M,,*75
$GPGXP,060918,3241.9247,N,11718.2131,W*58
$GPVTG,069.5,T,056.3,M,000.9,N,001.7,K*4B
$GPGGA,060933.248,3241.9248,N,11718.2107,W,3,05,1.2,016.8,M,036.2,M,,*7A
$GPGXP,060933,3241.9248,N,11718.2107,W*5B
$GPVTG,069.5,T,056.3,M,000.8,N,001.5,K*48
$GPGGA,060948.248,3241.9250,N,11718.2095,W,3,05,1.2,014.5,M,036.2,M,,*7A
$GPGXP,060948,3241.9250,N,11718.2095,W*54
$GPVTG,069.5,T,056.3,M,000.5,N,000.9,K*48
$GPGGA,061003.248,3241.9260,N,11718.2084,W,3,05,1.2,015.2,M,036.2,M,,*78
$GPGXP,061003,3241.9260,N,11718.2084,W*50
$GPVTG,069.5,T,056.3,M,000.0,N,000.0,K*44
$GPGGA,061018.248,3241.9264,N,11718.2099,W,3,05,1.2,015.8,M,036.2,M,,*70
$GPGXP,061018,3241.9264,N,11718.2099,W*52
$GPVTG,069.5,T,056.3,M,000.0,N,000.0,K*44
$GPGGA,061033.248,3241.9279,N,11718.2107,W,3,05,1.2,015.1,M,036.2,M,,*7A
$GPGXP,061033,3241.9279,N,11718.2107,W*51
$GPVTG,014.8,T,001.6,M,000.0,N,000.0,K*44
$GPGGA,061048.248,3241.9280,N,11718.2120,W,3,05,1.2,015.0,M,036.2,M,,*74
$GPGXP,061048,3241.9280,N,11718.2120,W*5E
$GPVTG,350.7,T,337.5,M,000.6,N,001.0,K*4A
$GPGGA,061103.248,3241.9279,N,11718.2144,W,3,05,1.2,015.8,M,036.2,M,,*76
$GPGXP,061103,3241.9279,N,11718.2144,W*54
$GPVTG,240.5,T,227.3,M,000.4,N,000.8,K*45
$GPGGA,061118.248,3241.9281,N,11718.2183,W,3,05,1.2,015.6,M,036.2,M,,*7E
$GPGXP,061118,3241.9281,N,11718.2183,W*52
$GPVTG,240.5,T,227.3,M,000.8,N,001.5,K*45
$GPGGA,061133.248,3241.9282,N,11718.2219,W,3,05,1.2,015.6,M,036.2,M,,*74
$GPGXP,061133,3241.9282,N,11718.2219,W*58
$GPVTG,240.5,T,227.3,M,000.8,N,001.5,K*45
$GPGGA,061148.248,3241.9303,N,11718.2243,W,3,05,1.2,018.3,M,036.2,M,,*77
$GPGXP,061148,3241.9303,N,11718.2243,W*53
$GPVTG,209.4,T,196.2,M,000.7,N,001.4,K*4F
$GPGGA,061203.248,3241.9285,N,11718.2290,W,3,05,1.2,017.0,M,036.2,M,,*76
$GPGXP,061203,3241.9285,N,11718.2290,W*5E
$GPVTG,233.2,T,220.0,M,000.9,N,001.7,K*41
$GPGGA,061218.248,3241.9276,N,11718.2339,W,3,05,1.2,016.2,M,036.2,M,,*71
$GPGXP,061218,3241.9276,N,11718.2339,W*5A
$GPVTG,269.0,T,255.8,M,001.0,N,001.8,K*41
$GPGGA,061233.248,3241.9269,N,11718.2387,W,3,05,1.2,017.0,M,036.2,M,,*70
$GPGXP,061233,3241.9269,N,11718.2387,W*58
$GPVTG,248.2,T,235.0,M,001.1,N,002.0,K*44
$GPGGA,061248.248,3241.9260,N,11718.2440,W,3,05,1.2,017.5,M,036.2,M,,*7C
$GPGXP,061248,3241.9260,N,11718.2440,W*51
$GPVTG,260.4,T,247.2,M,001.0,N,001.9,K*44
$GPGGA,061303.248,3241.9242,N,11718.2500,W,3,05,1.2,016.8,M,036.2,M,,*7B
$GPGXP,061303,3241.9242,N,11718.2500,W*5A
$GPVTG,256.0,T,242.8,M,001.2,N,002.2,K*40
$GPGGA,061318.248,3241.9254,N,11718.2560,W,3,05,1.2,024.1,M,036.2,M,,*78
$GPGXP,061318,3241.9254,N,11718.2560,W*51
$GPVTG,293.2,T,280.0,M,001.3,N,002.5,K*4B
$GPGGA,061333.248,3241.9247,N,11718.2624,W,3,05,1.2,025.3,M,036.2,M,,*73
$GPGXP,061333,3241.9247,N,11718.2624,W*59
$GPVTG,273.1,T,259.9,M,001.3,N,002.4,K*4A
$GPGGA,061348.248,3241.9258,N,11718.2686,W,3,05,1.2,029.4,M,036.2,M,,*72
$GPGXP,061348,3241.9258,N,11718.2686,W*53
$GPVTG,284.1,T,270.9,M,001.4,N,002.5,K*4F
$GPGGA,061403.248,3241.9225,N,11718.2759,W,3,05,1.2,023.8,M,036.2,M,,*75
$GPGXP,061403,3241.9225,N,11718.2759,W*52
$GPVTG,294.5,T,281.2,M,001.7,N,003.1,K*49
$GPGGA,061418.248,3241.9206,N,11718.2827,W,3,05,1.2,022.1,M,036.2,M,,*70
$GPGXP,061418,3241.9206,N,11718.2827,W*5F
$GPVTG,290.1,T,276.9,M,001.6,N,002.9,K*42
$GPGGA,061433.248,3241.9185,N,11718.2899,W,3,05,1.2,017.8,M,036.2,M,,*7B
$GPGXP,061433,3241.9185,N,11718.2899,W*5B
$GPVTG,295.5,T,282.3,M,001.2,N,002.3,K*4C
$GPGGA,061448.248,3241.9188,N,11718.2971,W,3,05,1.2,018.8,M,036.2,M,,*72
$GPGXP,061448,3241.9188,N,11718.2971,W*5D
$GPVTG,272.0,T,258.8,M,001.6,N,002.9,K*42
$GPGGA,061503.248,3241.9196,N,11718.3042,W,3,05,1.2,020.0,M,036.2,M,,*78
$GPGXP,061503,3241.9196,N,11718.3042,W*54
$GPVTG,248.1,T,234.9,M,001.5,N,002.9,K*42
$GPGGA,061518.248,3241.9198,N,11718.3115,W,3,05,1.2,019.8,M,036.2,M,,*7D
$GPGXP,061518,3241.9198,N,11718.3115,W*53
$GPVTG,275.6,T,262.4,M,001.4,N,002.5,K*48
$GPGGA,061533.248,3241.9205,N,11718.3189,W,3,05,1.2,023.1,M,036.2,M,,*76
$GPGXP,061533,3241.9205,N,11718.3189,W*58
$GPVTG,285.2,T,272.0,M,001.7,N,003.2,K*43
$GPGGA,061548.248,3241.9210,N,11718.3261,W,3,05,1.2,024.1,M,036.2,M,,*7C
$GPGXP,061548,3241.9210,N,11718.3261,W*55
$GPVTG,281.3,T,268.1,M,001.2,N,002.3,K*49
$GPGGA,061603.248,3241.9219,N,11718.3335,W,3,05,1.2,024.4,M,036.2,M,,*7C
$GPGXP,061603,3241.9219,N,11718.3335,W*50
$GPVTG,263.0,T,249.8,M,001.6,N,003.0,K*4A
$GPGGA,061618.248,3241.9230,N,11718.3410,W,3,05,1.2,023.3,M,036.2,M,,*7D
$GPGXP,061618,3241.9230,N,11718.3410,W*51
$GPVTG,299.9,T,286.7,M,001.8,N,003.3,K*47
$GPGGA,061633.248,3241.9240,N,11718.3487,W,3,05,1.2,024.6,M,036.2,M,,*7F
$GPGXP,061633,3241.9240,N,11718.3487,W*51
$GPVTG,290.0,T,276.8,M,001.8,N,003.4,K*40
$GPGGA,061648.248,3241.9252,N,11718.3564,W,3,05,1.2,024.4,M,036.2,M,,*7E
$GPGXP,061648,3241.9252,N,11718.3564,W*52
$GPVTG,250.6,T,237.4,M,001.4,N,002.5,K*4F
$GPGGA,061703.248,3241.9267,N,11718.3634,W,3,05,1.2,026.7,M,036.2,M,,*71
$GPGXP,061703,3241.9267,N,11718.3634,W*5C
$GPVTG,250.0,T,236.8,M,001.3,N,002.3,K*45
$GPGGA,061718.248,3241.9284,N,11718.3706,W,3,05,1.2,026.5,M,036.2,M,,*74
$GPGXP,061718,3241.9284,N,11718.3706,W*5B
$GPVTG,280.6,T,267.3,M,001.4,N,002.7,K*42
$GPGGA,061733.248,3241.9299,N,11718.3782,W,3,05,1.2,025.6,M,036.2,M,,*7D
$GPGXP,061733,3241.9299,N,11718.3782,W*52
$GPVTG,273.5,T,260.3,M,001.3,N,002.4,K*4E
$GPGGA,061748.248,3241.9313,N,11718.3859,W,3,05,1.2,025.4,M,036.2,M,,*79
$GPGXP,061748,3241.9313,N,11718.3859,W*54
$GPVTG,239.5,T,226.2,M,001.9,N,003.6,K*4A
$GPGGA,061803.248,3241.9332,N,11718.3932,W,3,05,1.2,026.1,M,036.2,M,,*70
$GPGXP,061803,3241.9332,N,11718.3932,W*5B
$GPVTG,274.4,T,261.2,M,001.9,N,003.4,K*43
$GPGGA,061818.248,3241.9342,N,11718.4004,W,3,05,1.2,023.6,M,036.2,M,,*74
$GPGXP,061818,3241.9342,N,11718.4004,W*5D
$GPVTG,266.5,T,253.3,M,001.1,N,002.0,K*4C
$GPGGA,061833.248,3241.9358,N,11718.4078,W,3,05,1.2,023.3,M,036.2,M,,*78
$GPGXP,061833,3241.9358,N,11718.4078,W*54
$GPVTG,273.5,T,260.3,M,002.1,N,003.9,K*43
$GPGGA,061848.248,3241.9367,N,11718.4154,W,3,05,1.2,019.1,M,036.2,M,,*7C
$GPGXP,061848,3241.9367,N,11718.4154,W*5B
$GPVTG,281.7,T,268.5,M,001.9,N,003.5,K*45
$GPGGA,061903.248,3241.9377,N,11718.4226,W,3,05,1.2,021.7,M,036.2,M,,*78
$GPGXP,061903,3241.9377,N,11718.4226,W*52
$GPVTG,268.6,T,255.4,M,001.5,N,002.8,K*4C
$GPGGA,061918.248,3241.9383,N,11718.4290,W,3,05,1.2,022.0,M,036.2,M,,*70
$GPGXP,061918,3241.9383,N,11718.4290,W*5E
$GPVTG,290.8,T,277.6,M,001.4,N,002.5,K*4B
$GPGGA,061933.248,3241.9384,N,11718.4347,W,3,05,1.2,021.5,M,036.2,M,,*73
$GPGXP,061933,3241.9384,N,11718.4347,W*5B
$GPVTG,289.3,T,276.1,M,001.2,N,002.3,K*4E
$GPGGA,061948.248,3241.9389,N,11718.4398,W,3,05,1.2,023.9,M,036.2,M,,*7E
$GPGXP,061948,3241.9389,N,11718.4398,W*58
$GPVTG,242.0,T,228.8,M,001.0,N,001.9,K*43
$GPGGA,062003.248,3241.9406,N,11718.4433,W,3,05,1.2,051.4,M,036.2,M,,*75
$GPGXP,062003,3241.9406,N,11718.4433,W*5B
$GPVTG,238.1,T,224.9,M,000.8,N,001.4,K*46
$GPGGA,062018.248,3241.9372,N,11718.4473,W,3,05,1.2,034.1,M,036.2,M,,*79
$GPGXP,062018,3241.9372,N,11718.4473,W*51
$GPVTG,216.0,T,202.8,M,000.9,N,001.7,K*4C
$GPGGA,062033.248,3241.9357,N,11718.4505,W,3,05,1.2,024.9,M,036.2,M,,*7E
$GPGXP,062033,3241.9357,N,11718.4505,W*5F
$GPVTG,218.3,T,205.1,M,000.7,N,001.2,K*44
$GPGGA,062048.248,3241.9340,N,11718.4540,W,3,05,1.2,026.0,M,036.2,M,,*7E
$GPGXP,062048,3241.9340,N,11718.4540,W*54
$GPVTG,218.3,T,205.1,M,000.0,N,000.0,K*40
$GPGGA,062103.248,3241.9323,N,11718.4566,W,3,05,1.2,033.3,M,036.2,M,,*76
$GPGXP,062103,3241.9323,N,11718.4566,W*5B
$GPVTG,192.0,T,178.8,M,000.7,N,001.3,K*47
$GPGGA,062118.248,3241.9310,N,11718.4591,W,3,05,1.2,033.3,M,036.2,M,,*74
$GPGXP,062118,3241.9310,N,11718.4591,W*59
$GPVTG,217.0,T,203.8,M,000.7,N,001.3,K*46
$GPGGA,062133.248,3241.9292,N,11718.4610,W,3,05,1.2,030.1,M,036.2,M,,*7D
$GPGXP,062133,3241.9292,N,11718.4610,W*51
$GPVTG,280.7,T,267.5,M,000.6,N,001.2,K*40
$GPGGA,062148.248,3241.9274,N,11718.4624,W,3,05,1.2,032.4,M,036.2,M,,*79
$GPGXP,062148,3241.9274,N,11718.4624,W*52
$GPVTG,280.7,T,267.5,M,000.5,N,001.0,K*41
$GPGGA,062203.248,3241.9265,N,11718.4633,W,3,05,1.2,029.2,M,036.2,M,,*7F
$GPGXP,062203,3241.9265,N,11718.4633,W*58
$GPVTG,280.7,T,267.5,M,000.4,N,000.7,K*46
$GPGGA,062218.248,3241.9247,N,11718.4638,W,3,05,1.2,035.7,M,036.2,M,,*76
$GPGXP,062218,3241.9247,N,11718.4638,W*59
$GPVTG,280.7,T,267.5,M,000.0,N,000.0,K*45
$GPGGA,062233.248,3241.9228,N,11718.4645,W,3,05,1.2,037.2,M,036.2,M,,*7B
$GPGXP,062233,3241.9228,N,11718.4645,W*53
$GPVTG,154.1,T,140.9,M,001.6,N,003.0,K*47
$GPGGA,062248.248,3241.9211,N,11718.4651,W,3,05,1.2,032.8,M,036.2,M,,*77
$GPGXP,062248,3241.9211,N,11718.4651,W*50
$GPVTG,146.8,T,133.6,M,000.9,N,001.7,K*4D
$GPGGA,062303.248,3241.9193,N,11718.4652,W,3,05,1.2,034.5,M,036.2,M,,*78
$GPGXP,062303,3241.9193,N,11718.4652,W*54
$GPVTG,146.8,T,133.6,M,000.6,N,001.2,K*47
$GPGGA,062318.248,3241.9180,N,11718.4655,W,3,05,1.2,032.6,M,036.2,M,,*72
$GPGXP,062318,3241.9180,N,11718.4655,W*5B
$GPVTG,146.8,T,133.6,M,000.7,N,001.3,K*47
$GPGGA,062333.248,3241.9152,N,11718.4653,W,3,05,1.2,030.5,M,036.2,M,,*73
$GPGXP,062333,3241.9152,N,11718.4653,W*5B
$GPVTG,155.7,T,142.5,M,000.8,N,001.5,K*46
$GPGGA,062348.248,3241.9134,N,11718.4656,W,3,05,1.2,030.7,M,036.2,M,,*78
$GPGXP,062348,3241.9134,N,11718.4656,W*52
$GPVTG,155.7,T,142.5,M,000.0,N,000.0,K*4A
$GPGGA,062403.248,3241.9116,N,11718.4650,W,3,05,1.2,028.1,M,036.2,M,,*79
$GPGXP,062403,3241.9116,N,11718.4650,W*5C
$GPVTG,154.0,T,140.8,M,000.8,N,001.6,K*4C
$GPGGA,062418.248,3241.9109,N,11718.4646,W,3,05,1.2,030.3,M,036.2,M,,*71
$GPGXP,062418,3241.9109,N,11718.4646,W*5F
$GPVTG,152.6,T,139.4,M,000.4,N,000.8,K*4D
$GPGGA,062433.248,3241.9094,N,11718.4638,W,3,05,1.2,032.4,M,036.2,M,,*71
$GPGXP,062433,3241.9094,N,11718.4638,W*5A
$GPVTG,141.1,T,127.9,M,000.8,N,001.5,K*4A
$GPGGA,062448.248,3241.9085,N,11718.4631,W,3,05,1.2,032.6,M,036.2,M,,*76
$GPGXP,062448,3241.9085,N,11718.4631,W*5F
$GPVTG,141.1,T,127.9,M,000.5,N,000.9,K*4A
$GPGGA,062503.248,3241.9075,N,11718.4623,W,3,05,1.2,034.8,M,036.2,M,,*7C
$GPGXP,062503,3241.9075,N,11718.4623,W*5D
$GPVTG,141.1,T,127.9,M,000.5,N,000.9,K*4A
$GPGGA,062518.248,3241.9065,N,11718.4616,W,3,05,1.2,032.0,M,036.2,M,,*7F
$GPGXP,062518,3241.9065,N,11718.4616,W*50
$GPVTG,154.1,T,140.9,M,000.8,N,001.4,K*4E
$GPGGA,062533.248,3241.9055,N,11718.4611,W,3,05,1.2,025.2,M,036.2,M,,*76
$GPGXP,062533,3241.9055,N,11718.4611,W*5D
$GPVTG,148.5,T,135.3,M,000.9,N,001.7,K*4D
$GPGGA,062548.248,3241.9037,N,11718.4593,W,3,05,1.2,031.2,M,036.2,M,,*72
$GPGXP,062548,3241.9037,N,11718.4593,W*5C
$GPVTG,129.4,T,116.2,M,000.7,N,001.4,K*46
$GPGGA,062603.248,3241.9038,N,11718.4587,W,3,05,1.2,033.5,M,036.2,M,,*71
$GPGXP,062603,3241.9038,N,11718.4587,W*5A
$GPVTG,123.4,T,110.1,M,000.0,N,000.0,K*4B
$GPGGA,062618.248,3241.9026,N,11718.4575,W,3,05,1.2,032.4,M,036.2,M,,*79
$GPGXP,062618,3241.9026,N,11718.4575,W*52
$GPVTG,144.5,T,131.3,M,000.4,N,000.8,K*46
$GPGGA,062633.248,3241.9011,N,11718.4566,W,3,05,1.2,030.0,M,036.2,M,,*70
$GPGXP,062633,3241.9011,N,11718.4566,W*5D
$GPVTG,144.5,T,131.3,M,000.8,N,001.5,K*46
$GPGGA,062648.248,3241.9013,N,11718.4552,W,3,05,1.2,036.6,M,036.2,M,,*79
$GPGXP,062648,3241.9013,N,11718.4552,W*54
$GPVTG,144.5,T,131.3,M,000.6,N,001.1,K*4C
$GPGGA,062703.248,3241.8997,N,11718.4542,W,3,05,1.2,031.1,M,036.2,M,,*72
$GPGXP,062703,3241.8997,N,11718.4542,W*5F
$GPVTG,145.0,T,131.8,M,000.6,N,001.1,K*43
$GPGGA,062718.248,3241.8992,N,11718.4537,W,3,05,1.2,029.2,M,036.2,M,,*75
$GPGXP,062718,3241.8992,N,11718.4537,W*52
$GPVTG,145.0,T,131.8,M,000.0,N,000.0,K*45
$GPGGA,062733.248,3241.8986,N,11718.4531,W,3,05,1.2,025.1,M,036.2,M,,*70
$GPGXP,062733,3241.8986,N,11718.4531,W*58
$GPVTG,145.0,T,131.8,M,000.9,N,001.7,K*4A
$GPGGA,062748.248,3241.8955,N,11718.4523,W,3,05,1.2,013.9,M,036.2,M,,*7C
$GPGXP,062748,3241.8955,N,11718.4523,W*59
$GPVTG,148.9,T,135.7,M,000.6,N,001.2,K*4F
$GPGGA,062803.248,3241.8967,N,11718.4505,W,3,05,1.2,025.8,M,036.2,M,,*7D
$GPGXP,062803,3241.8967,N,11718.4505,W*5C
$GPVTG,148.9,T,135.7,M,000.7,N,001.3,K*4F
$GPGGA,062818.248,3241.8960,N,11718.4490,W,3,05,1.2,026.4,M,036.2,M,,*72
$GPGXP,062818,3241.8960,N,11718.4490,W*5C
$GPVTG,128.5,T,115.3,M,000.0,N,000.0,K*46
$GPGGA,062833.248,3241.8953,N,11718.4479,W,3,05,1.2,027.9,M,036.2,M,,*70
$GPGXP,062833,3241.8953,N,11718.4479,W*52
$GPVTG,128.5,T,115.3,M,000.0,N,000.0,K*46
$GPGGA,062848.248,3241.8949,N,11718.4472,W,3,05,1.2,025.5,M,036.2,M,,*72
$GPGXP,062848,3241.8949,N,11718.4472,W*5E
$GPVTG,111.2,T,098.0,M,000.0,N,000.0,K*4C
