$GPGGA,232028.202,3240.7901,N,11721.9177,W,3,05,2.1,014.6,M,036.3,M,,*70
$GPGXP,232028,3240.7901,N,11721.9177,W*52
$GPVTG,239.3,T,226.1,M,001.3,N,002.4,K*46
$GPGGA,232043.201,3240.7907,N,11721.9210,W,3,05,2.1,013.1,M,036.3,M,,*7A
$GPGXP,232043,3240.7907,N,11721.9210,W*5B
$GPVTG,353.1,T,339.9,M,001.1,N,002.1,K*49
$GPGGA,232058.201,3240.7910,N,11721.9245,W,3,05,2.1,013.8,M,036.3,M,,*7F
$GPGXP,232058,3240.7910,N,11721.9245,W*57
$GPVTG,319.2,T,305.9,M,000.9,N,001.7,K*47
$GPGGA,232113.201,3240.7915,N,11721.9280,W,3,05,2.1,014.5,M,036.3,M,,*77
$GPGXP,232113,3240.7915,N,11721.9280,W*55
$GPVTG,293.1,T,279.9,M,001.4,N,002.7,K*42
$GPGGA,232128.201,3240.7925,N,11721.9346,W,3,05,2.1,014.2,M,036.3,M,,*70
$GPGXP,232128,3240.7925,N,11721.9346,W*55
$GPVTG,319.7,T,306.5,M,002.1,N,003.9,K*4B
$GPGGA,232143.201,3240.7938,N,11721.9458,W,3,05,2.1,013.8,M,036.3,M,,*74
$GPGXP,232143,3240.7938,N,11721.9458,W*5C
$GPVTG,274.4,T,261.2,M,003.1,N,005.7,K*4C
$GPGGA,232158.201,3240.7963,N,11721.9611,W,3,05,2.0,013.2,M,036.3,M,,*74
$GPGXP,232158,3240.7963,N,11721.9611,W*57
$GPVTG,266.9,T,253.7,M,003.3,N,006.2,K*42
$GPGGA,232213.201,3240.7990,N,11721.9781,W,3,05,2.0,013.1,M,036.3,M,,*7F
$GPGXP,232213,3240.7990,N,11721.9781,W*5F
$GPVTG,277.0,T,263.8,M,003.0,N,005.5,K*40
$GPGGA,232228.201,3240.8015,N,11721.9980,W,3,05,2.0,012.6,M,036.3,M,,*75
$GPGXP,232228,3240.8015,N,11721.9980,W*53
$GPVTG,286.7,T,273.4,M,004.4,N,008.1,K*4E
$GPGGA,232243.201,3240.8052,N,11722.0183,W,3,05,2.0,012.7,M,036.3,M,,*7B
$GPGXP,232243,3240.8052,N,11722.0183,W*5C
$GPVTG,281.2,T,267.9,M,004.6,N,008.6,K*41
$GPGGA,232258.201,3240.8093,N,11722.0397,W,3,05,2.0,012.8,M,036.3,M,,*74
$GPGXP,232258,3240.8093,N,11722.0397,W*5C
$GPVTG,299.3,T,286.1,M,004.6,N,008.5,K*4D
$GPGGA,232313.201,3240.8133,N,11722.0610,W,3,05,2.0,013.3,M,036.3,M,,*71
$GPGXP,232313,3240.8133,N,11722.0610,W*53
$GPVTG,285.2,T,272.0,M,004.0,N,007.5,K*42
$GPGGA,232328.201,3240.8171,N,11722.0824,W,3,05,2.0,012.4,M,036.3,M,,*70
$GPGXP,232328,3240.8171,N,11722.0824,W*54
$GPVTG,269.9,T,256.7,M,003.8,N,007.1,K*41
$GPGGA,232343.201,3240.8203,N,11722.1043,W,3,05,2.0,011.2,M,036.3,M,,*76
$GPGXP,232343,3240.8203,N,11722.1043,W*57
$GPVTG,275.2,T,262.0,M,004.5,N,008.4,K*47
$GPGGA,232358.201,3240.8241,N,11722.1270,W,3,05,2.0,012.9,M,036.3,M,,*70
$GPGXP,232358,3240.8241,N,11722.1270,W*59
$GPVTG,283.1,T,269.9,M,005.6,N,010.3,K*43
$GPGGA,232413.201,3240.8282,N,11722.1502,W,3,05,2.0,012.6,M,036.3,M,,*7A
$GPGXP,232413,3240.8282,N,11722.1502,W*5C
$GPVTG,276.7,T,263.5,M,005.2,N,009.6,K*40
$GPGGA,232428.201,3240.8316,N,11722.1736,W,3,05,2.0,010.6,M,036.3,M,,*79
$GPGXP,232428,3240.8316,N,11722.1736,W*5D
$GPVTG,280.5,T,267.3,M,003.4,N,006.3,K*43
$GPGGA,232443.201,3240.8340,N,11722.1966,W,3,05,2.0,012.1,M,036.3,M,,*79
$GPGXP,232443,3240.8340,N,11722.1966,W*58
$GPVTG,282.2,T,269.0,M,005.0,N,009.2,K*47
$GPGGA,232458.201,3240.8349,N,11722.2204,W,3,05,2.0,013.3,M,036.3,M,,*75
$GPGXP,232458,3240.8349,N,11722.2204,W*57
$GPVTG,262.9,T,249.7,M,005.1,N,009.4,K*40
$GPGGA,232513.201,3240.8354,N,11722.2449,W,3,05,2.0,010.6,M,036.3,M,,*7E
$GPGXP,232513,3240.8354,N,11722.2449,W*5A
$GPVTG,267.9,T,254.7,M,004.9,N,009.0,K*44
$GPGGA,232528.201,3240.8344,N,11722.2700,W,3,05,2.0,011.1,M,036.3,M,,*7F
$GPGXP,232528,3240.8344,N,11722.2700,W*5D
$GPVTG,264.8,T,251.5,M,003.5,N,006.5,K*40
$GPGGA,232543.201,3240.8306,N,11722.2944,W,3,05,2.0,012.5,M,036.3,M,,*7D
$GPGXP,232543,3240.8306,N,11722.2944,W*58
$GPVTG,259.5,T,246.3,M,005.6,N,010.4,K*40
$GPGGA,232558.201,3240.8261,N,11722.3187,W,3,05,2.0,012.6,M,036.3,M,,*72
$GPGXP,232558,3240.8261,N,11722.3187,W*54
$GPVTG,264.9,T,251.7,M,005.2,N,009.6,K*4E
$GPGGA,232613.201,3240.8201,N,11722.3420,W,3,05,1.9,015.1,M,036.3,M,,*7A
$GPGXP,232613,3240.8201,N,11722.3420,W*56
$GPVTG,262.0,T,248.8,M,004.8,N,008.8,K*42
$GPGGA,232628.201,3240.8125,N,11722.3664,W,3,05,1.9,013.7,M,036.3,M,,*75
$GPGXP,232628,3240.8125,N,11722.3664,W*59
$GPVTG,256.7,T,243.5,M,005.3,N,009.9,K*4E
$GPGGA,232643.201,3240.8036,N,11722.3889,W,3,05,1.9,014.9,M,036.3,M,,*7F
$GPGXP,232643,3240.8036,N,11722.3889,W*5A
$GPVTG,244.6,T,231.4,M,004.9,N,009.1,K*4B
$GPGGA,232658.201,3240.7931,N,11722.4114,W,3,05,1.9,014.8,M,036.3,M,,*7F
$GPGXP,232658,3240.7931,N,11722.4114,W*5B
$GPVTG,237.9,T,224.7,M,005.6,N,010.3,K*43
$GPGGA,232713.201,3240.7807,N,11722.4328,W,3,05,1.9,013.8,M,036.3,M,,*7F
$GPGXP,232713,3240.7807,N,11722.4328,W*5C
$GPVTG,237.3,T,224.1,M,005.6,N,010.5,K*49
$GPGGA,232728.201,3240.7672,N,11722.4534,W,3,05,1.9,012.9,M,036.3,M,,*70
$GPGXP,232728,3240.7672,N,11722.4534,W*53
$GPVTG,224.3,T,211.1,M,005.5,N,010.1,K*4A
$GPGGA,232743.201,3240.7520,N,11722.4730,W,3,05,1.9,014.0,M,036.3,M,,*70
$GPGXP,232743,3240.7520,N,11722.4730,W*5C
$GPVTG,221.1,T,207.9,M,005.8,N,010.8,K*46
$GPGGA,232758.201,3240.7354,N,11722.4913,W,3,05,1.9,016.5,M,036.3,M,,*77
$GPGXP,232758,3240.7354,N,11722.4913,W*5C
$GPVTG,224.5,T,211.3,M,006.0,N,011.0,K*48
$GPGGA,232813.201,3240.7177,N,11722.5085,W,3,05,1.9,017.0,M,036.3,M,,*77
$GPGXP,232813,3240.7177,N,11722.5085,W*58
$GPVTG,214.1,T,200.8,M,005.4,N,010.0,K*42
$GPGGA,232828.201,3240.6985,N,11722.5247,W,3,05,1.9,015.9,M,036.3,M,,*7C
$GPGXP,232828,3240.6985,N,11722.5247,W*58
$GPVTG,225.3,T,212.1,M,004.8,N,008.8,K*44
$GPGGA,232843.201,3240.6782,N,11722.5388,W,3,05,1.9,015.1,M,036.3,M,,*72
$GPGXP,232843,3240.6782,N,11722.5388,W*5E
$GPVTG,216.6,T,203.4,M,005.5,N,010.3,K*4A
$GPGGA,232858.201,3240.6578,N,11722.5523,W,3,05,1.9,014.9,M,036.3,M,,*71
$GPGXP,232858,3240.6578,N,11722.5523,W*54
$GPVTG,195.7,T,182.5,M,005.9,N,010.9,K*4E
$GPGGA,232913.201,3240.6368,N,11722.5639,W,3,05,1.9,017.1,M,036.3,M,,*7B
$GPGXP,232913,3240.6368,N,11722.5639,W*55
$GPVTG,195.7,T,182.5,M,005.5,N,010.1,K*4A
$GPGGA,232928.201,3240.6144,N,11722.5728,W,3,05,1.9,018.4,M,036.3,M,,*74
$GPGXP,232928,3240.6144,N,11722.5728,W*50
$GPVTG,198.0,T,184.8,M,005.7,N,010.6,K*4E
$GPGGA,232943.201,3240.5907,N,11722.5793,W,3,05,1.9,017.9,M,036.3,M,,*77
$GPGXP,232943,3240.5907,N,11722.5793,W*51
$GPVTG,198.4,T,185.2,M,005.9,N,010.9,K*40
$GPGGA,232958.201,3240.5672,N,11722.5842,W,3,05,1.9,017.9,M,036.3,M,,*73
$GPGXP,232958,3240.5672,N,11722.5842,W*55
$GPVTG,169.2,T,156.0,M,006.4,N,011.8,K*4A
$GPGGA,233013.201,3240.5433,N,11722.5881,W,3,05,1.9,017.0,M,036.3,M,,*75
$GPGXP,233013,3240.5433,N,11722.5881,W*5A
$GPVTG,167.3,T,154.1,M,005.6,N,010.4,K*4A
$GPGGA,233028.201,3240.5188,N,11722.5887,W,3,05,1.9,016.9,M,036.3,M,,*76
$GPGXP,233028,3240.5188,N,11722.5887,W*51
$GPVTG,192.0,T,178.8,M,005.8,N,010.8,K*46
$GPGGA,233043.201,3240.4939,N,11722.5878,W,3,05,1.9,018.0,M,036.3,M,,*7F
$GPGXP,233043,3240.4939,N,11722.5878,W*5F
$GPVTG,180.8,T,167.5,M,005.9,N,011.0,K*46
$GPGGA,233058.201,3240.4686,N,11722.5841,W,3,05,1.9,016.0,M,036.3,M,,*7A
$GPGXP,233058,3240.4686,N,11722.5841,W*54
$GPVTG,163.9,T,150.7,M,005.9,N,010.9,K*44
$GPGGA,233113.201,3240.4450,N,11722.5780,W,3,05,1.8,014.4,M,036.3,M,,*78
$GPGXP,233113,3240.4450,N,11722.5780,W*51
$GPVTG,153.1,T,139.9,M,006.0,N,011.1,K*4D
$GPGGA,233128.201,3240.4212,N,11722.5688,W,3,05,1.8,014.1,M,036.3,M,,*7C
$GPGXP,233128,3240.4212,N,11722.5688,W*50
$GPVTG,161.0,T,147.8,M,006.0,N,011.2,K*46
$GPGGA,233143.201,3240.3978,N,11722.5571,W,3,05,1.8,013.4,M,036.3,M,,*76
$GPGXP,233143,3240.3978,N,11722.5571,W*58
$GPVTG,172.7,T,159.5,M,006.5,N,012.0,K*45
$GPGGA,233158.201,3240.3755,N,11722.5447,W,3,05,1.8,013.4,M,036.3,M,,*79
$GPGXP,233158,3240.3755,N,11722.5447,W*57
$GPVTG,163.8,T,150.5,M,006.0,N,011.1,K*44
$GPGGA,233213.201,3240.3529,N,11722.5318,W,3,05,1.8,014.4,M,036.3,M,,*76
$GPGXP,233213,3240.3529,N,11722.5318,W*5F
$GPVTG,148.5,T,135.2,M,006.3,N,011.6,K*40
$GPGGA,233228.201,3240.3303,N,11722.5189,W,3,05,1.8,014.7,M,036.3,M,,*79
$GPGXP,233228,3240.3303,N,11722.5189,W*53
$GPVTG,150.4,T,137.2,M,006.1,N,011.4,K*4A
$GPGGA,233243.201,3240.3076,N,11722.5058,W,3,05,1.8,013.0,M,036.3,M,,*78
$GPGXP,233243,3240.3076,N,11722.5058,W*52
$GPVTG,153.1,T,139.9,M,006.1,N,011.4,K*49
$GPGGA,233258.201,3240.2846,N,11722.4928,W,3,05,1.8,014.8,M,036.3,M,,*78
$GPGXP,233258,3240.2846,N,11722.4928,W*5D
$GPVTG,156.2,T,143.0,M,006.1,N,011.2,K*4D
$GPGGA,233313.201,3240.2620,N,11722.4789,W,3,05,1.8,014.5,M,036.3,M,,*70
$GPGXP,233313,3240.2620,N,11722.4789,W*58
$GPVTG,146.6,T,133.4,M,005.9,N,011.0,K*42
$GPGGA,233328.201,3240.2390,N,11722.4650,W,3,05,1.8,014.0,M,036.3,M,,*76
$GPGXP,233328,3240.2390,N,11722.4650,W*5B
$GPVTG,144.2,T,131.0,M,006.1,N,011.2,K*4B
$GPGGA,233343.201,3240.2165,N,11722.4508,W,3,05,1.8,014.4,M,036.3,M,,*79
$GPGXP,233343,3240.2165,N,11722.4508,W*50
$GPVTG,155.1,T,141.8,M,006.2,N,011.4,K*42
$GPGGA,233358.201,3240.1939,N,11722.4372,W,3,05,1.8,014.5,M,036.3,M,,*7B
$GPGXP,233358,3240.1939,N,11722.4372,W*53
$GPVTG,154.7,T,141.5,M,006.1,N,011.3,K*4C
$GPGGA,233413.201,3240.1712,N,11722.4235,W,3,05,1.8,014.0,M,036.3,M,,*73
$GPGXP,233413,3240.1712,N,11722.4235,W*5E
$GPVTG,145.9,T,132.6,M,006.0,N,011.1,K*46
$GPGGA,233428.201,3240.1488,N,11722.4099,W,3,05,1.8,014.8,M,036.3,M,,*77
$GPGXP,233428,3240.1488,N,11722.4099,W*52
$GPVTG,144.2,T,131.0,M,006.0,N,011.1,K*49
$GPGGA,233443.201,3240.1265,N,11722.3959,W,3,05,1.8,013.5,M,036.3,M,,*77
$GPGXP,233443,3240.1265,N,11722.3959,W*58
$GPVTG,145.4,T,132.2,M,006.2,N,011.5,K*49
$GPGGA,233458.201,3240.1048,N,11722.3812,W,3,05,1.8,014.6,M,036.3,M,,*7A
$GPGXP,233458,3240.1048,N,11722.3812,W*51
$GPVTG,155.2,T,141.9,M,005.8,N,010.7,K*4B
$GPGGA,233513.201,3240.0829,N,11722.3669,W,3,05,1.8,013.6,M,036.3,M,,*7F
$GPGXP,233513,3240.0829,N,11722.3669,W*53
$GPVTG,151.0,T,137.8,M,005.9,N,010.9,K*42
$GPGGA,233528.201,3240.0604,N,11722.3560,W,3,05,1.8,014.6,M,036.3,M,,*7B
$GPGXP,233528,3240.0604,N,11722.3560,W*50
$GPVTG,157.0,T,143.8,M,005.9,N,010.9,K*47
$GPGGA,233543.201,3240.0375,N,11722.3517,W,3,05,1.8,015.7,M,036.3,M,,*75
$GPGXP,233543,3240.0375,N,11722.3517,W*5E
$GPVTG,179.9,T,166.7,M,004.8,N,008.9,K*43
$GPGGA,233558.201,3240.0149,N,11722.3478,W,3,05,1.8,014.7,M,036.3,M,,*7B
$GPGXP,233558,3240.0149,N,11722.3478,W*51
$GPVTG,173.7,T,160.5,M,005.4,N,0010.0,K*7E
$GPGGA,233613.201,3239.9936,N,11722.3401,W,3,05,1.8,012.8,M,036.3,M,,*77
$GPGXP,233613,3239.9936,N,11722.3401,W*54
$GPVTG,159.0,T,145.8,M,005.4,N,010.0,K*4B
$GPGGA,233628.201,3239.9715,N,11722.3299,W,3,05,1.8,012.4,M,036.3,M,,*7B
$GPGXP,233628,3239.9715,N,11722.3299,W*54
$GPVTG,155.3,T,142.1,M,005.7,N,010.6,K*4F
$GPGGA,233643.201,3239.9494,N,11722.3192,W,3,05,1.8,013.7,M,036.3,M,,*76
$GPGXP,233643,3239.9494,N,11722.3192,W*5B
$GPVTG,163.9,T,150.7,M,005.6,N,010.5,K*47
$GPGGA,233658.201,3239.9266,N,11722.3092,W,3,05,1.7,013.5,M,036.3,M,,*7B
$GPGXP,233658,3239.9266,N,11722.3092,W*5B
$GPVTG,168.0,T,154.7,M,005.8,N,010.7,K*4D
$GPGGA,233713.201,3239.9031,N,11722.2996,W,3,05,1.7,012.9,M,036.3,M,,*74
$GPGXP,233713,3239.9031,N,11722.2996,W*59
$GPVTG,165.9,T,152.6,M,005.9,N,011.0,K*49
$GPGGA,233728.201,3239.8796,N,11722.2902,W,3,05,1.7,013.7,M,036.3,M,,*75
$GPGXP,233728,3239.8796,N,11722.2902,W*57
$GPVTG,153.4,T,140.2,M,006.2,N,011.4,K*4A
$GPGGA,233743.201,3239.8558,N,11722.2801,W,3,05,1.7,013.3,M,036.3,M,,*7E
$GPGXP,233743,3239.8558,N,11722.2801,W*58
$GPVTG,160.1,T,146.9,M,005.8,N,010.8,K*46
$GPGGA,233758.201,3239.8324,N,11722.2696,W,3,05,1.7,013.0,M,036.3,M,,*7A
$GPGXP,233758,3239.8324,N,11722.2696,W*5F
$GPVTG,152.6,T,139.4,M,006.0,N,011.0,K*47
$GPGGA,233813.201,3239.8088,N,11722.2594,W,3,05,1.7,013.3,M,036.3,M,,*7D
$GPGXP,233813,3239.8088,N,11722.2594,W*5B
$GPVTG,165.1,T,151.8,M,006.0,N,011.2,K*44
$GPGGA,233828.201,3239.7852,N,11722.2485,W,3,05,1.7,012.9,M,036.3,M,,*7F
$GPGXP,233828,3239.7852,N,11722.2485,W*52
$GPVTG,158.2,T,145.0,M,006.0,N,011.1,K*47
$GPGGA,233843.201,3239.7619,N,11722.2379,W,3,05,1.7,013.0,M,036.3,M,,*7F
$GPGXP,233843,3239.7619,N,11722.2379,W*5A
$GPVTG,169.8,T,156.5,M,006.0,N,011.2,K*4B
$GPGGA,233858.201,3239.7383,N,11722.2274,W,3,05,1.7,012.9,M,036.3,M,,*77
$GPGXP,233858,3239.7383,N,11722.2274,W*5A
$GPVTG,155.1,T,141.8,M,006.3,N,011.6,K*41
$GPGGA,233913.201,3239.7147,N,11722.2181,W,3,05,1.7,013.3,M,036.3,M,,*71
$GPGXP,233913,3239.7147,N,11722.2181,W*57
$GPVTG,161.2,T,148.0,M,006.2,N,011.5,K*46
$GPGGA,233928.201,3239.6909,N,11722.2088,W,3,05,1.7,012.7,M,036.3,M,,*77
$GPGXP,233928,3239.6909,N,11722.2088,W*54
$GPVTG,158.2,T,145.0,M,005.9,N,011.0,K*4C
$GPGGA,233943.201,3239.6666,N,11722.1991,W,3,05,1.7,018.0,M,036.3,M,,*73
$GPGXP,233943,3239.6666,N,11722.1991,W*5D
$GPVTG,176.8,T,163.6,M,006.1,N,011.2,K*41
$GPGGA,233958.201,3239.6430,N,11722.1936,W,3,05,1.7,019.7,M,036.3,M,,*73
$GPGXP,233958,3239.6430,N,11722.1936,W*5B
$GPVTG,164.6,T,151.4,M,006.0,N,011.1,K*4D
$GPGGA,234013.201,3239.6214,N,11722.1930,W,3,05,1.3,016.6,M,036.3,M,,*7E
$GPGXP,234013,3239.6214,N,11722.1930,W*5C
$GPVTG,173.7,T,160.5,M,005.9,N,010.9,K*4A
$GPGGA,234028.201,3239.5965,N,11722.1910,W,3,05,1.3,017.1,M,036.3,M,,*7C
$GPGXP,234028,3239.5965,N,11722.1910,W*58
$GPVTG,178.6,T,165.4,M,005.8,N,010.8,K*44
$GPGGA,234043.201,3239.5714,N,11722.1898,W,3,05,1.3,019.0,M,036.3,M,,*77
$GPGXP,234043,3239.5714,N,11722.1898,W*5C
$GPVTG,177.9,T,164.7,M,006.0,N,011.1,K*45
$GPGGA,234058.201,3239.5479,N,11722.1906,W,3,05,1.3,016.9,M,036.3,M,,*75
$GPGXP,234058,3239.5479,N,11722.1906,W*58
$GPVTG,179.4,T,166.2,M,005.7,N,010.6,K*43
$GPGGA,234113.201,3239.5224,N,11722.1917,W,3,05,1.3,018.5,M,036.3,M,,*77
$GPGXP,234113,3239.5224,N,11722.1917,W*58
$GPVTG,182.9,T,169.7,M,005.6,N,010.3,K*44
$GPGGA,234128.201,3239.4980,N,11722.1950,W,3,05,1.3,019.3,M,036.4,M,,*78
$GPGXP,234128,3239.4980,N,11722.1950,W*57
$GPVTG,185.9,T,172.7,M,006.0,N,011.1,K*4F
$GPGGA,234143.201,3239.4744,N,11722.1992,W,3,05,1.3,019.1,M,036.4,M,,*7F
$GPGXP,234143,3239.4744,N,11722.1992,W*52
$GPVTG,195.3,T,182.0,M,006.0,N,011.2,K*4F
$GPGGA,234158.201,3239.4506,N,11722.2061,W,3,05,1.3,019.4,M,036.4,M,,*72
$GPGXP,234158,3239.4506,N,11722.2061,W*5A
$GPVTG,193.5,T,180.3,M,006.3,N,011.7,K*48
$GPGGA,234213.201,3239.4292,N,11722.2155,W,3,05,1.3,018.1,M,036.4,M,,*76
$GPGXP,234213,3239.4292,N,11722.2155,W*5A
$GPVTG,204.9,T,191.7,M,005.0,N,009.2,K*41
$GPGGA,234228.201,3239.4081,N,11722.2266,W,3,05,1.3,015.2,M,036.4,M,,*73
$GPGXP,234228,3239.4081,N,11722.2266,W*51
$GPVTG,205.1,T,191.9,M,006.0,N,011.1,K*4F
$GPGGA,234243.201,3239.3857,N,11722.2367,W,3,05,1.3,018.4,M,036.4,M,,*71
$GPGXP,234243,3239.3857,N,11722.2367,W*58
$GPVTG,217.1,T,203.9,M,005.7,N,010.6,K*46
$GPGGA,234258.201,3239.3641,N,11722.2486,W,3,05,1.3,018.1,M,036.4,M,,*7F
$GPGXP,234258,3239.3641,N,11722.2486,W*53
$GPVTG,191.5,T,178.3,M,006.8,N,012.6,K*44
$GPGGA,234313.201,3239.3435,N,11722.2607,W,3,05,1.3,016.6,M,036.4,M,,*72
$GPGXP,234313,3239.3435,N,11722.2607,W*57
$GPVTG,198.9,T,185.6,M,005.4,N,0010.0,K*7D
$GPGGA,234328.201,3239.3232,N,11722.2748,W,3,05,1.3,018.1,M,036.4,M,,*78
$GPGXP,234328,3239.3232,N,11722.2748,W*54
$GPVTG,199.1,T,185.9,M,005.9,N,010.9,K*4F
$GPGGA,234343.201,3239.3042,N,11722.2892,W,3,05,1.3,017.6,M,036.4,M,,*70
$GPGXP,234343,3239.3042,N,11722.2892,W*54
$GPVTG,231.1,T,217.9,M,005.3,N,009.7,K*4A
$GPGGA,234358.200,3239.2862,N,11722.3051,W,3,05,1.3,017.6,M,036.4,M,,*76
$GPGXP,234358,3239.2862,N,11722.3051,W*53
$GPVTG,228.8,T,215.6,M,005.2,N,009.6,K*46
$GPGGA,234413.200,3239.2682,N,11722.3216,W,3,05,1.3,017.7,M,036.4,M,,*7E
$GPGXP,234413,3239.2682,N,11722.3216,W*5A
$GPVTG,231.1,T,217.9,M,005.6,N,010.3,K*43
$GPGGA,234428.200,3239.2517,N,11722.3392,W,3,05,1.3,017.7,M,036.4,M,,*74
$GPGXP,234428,3239.2517,N,11722.3392,W*50
$GPVTG,225.4,T,212.2,M,004.8,N,008.9,K*41
$GPGGA,234443.200,3239.2353,N,11722.3566,W,3,05,1.3,018.5,M,036.4,M,,*7F
$GPGXP,234443,3239.2353,N,11722.3566,W*56
$GPVTG,235.7,T,222.5,M,005.4,N,0010.0,K*7A
$GPGGA,234458.200,3239.2190,N,11722.3750,W,3,05,1.3,018.4,M,036.4,M,,*7E
$GPGXP,234458,3239.2190,N,11722.3750,W*56
$GPVTG,226.2,T,213.0,M,005.2,N,009.6,K*42
$GPGGA,234513.200,3239.2032,N,11722.3935,W,3,05,1.3,017.3,M,036.4,M,,*7C
$GPGXP,234513,3239.2032,N,11722.3935,W*5C
$GPVTG,239.7,T,226.5,M,005.7,N,010.6,K*47
$GPGGA,234528.200,3239.1859,N,11722.4112,W,3,05,1.3,017.8,M,036.4,M,,*73
$GPGXP,234528,3239.1859,N,11722.4112,W*58
$GPVTG,226.2,T,213.0,M,005.6,N,010.4,K*4C
$GPGGA,234543.200,3239.1698,N,11722.4296,W,3,05,1.3,017.9,M,036.4,M,,*73
$GPGXP,234543,3239.1698,N,11722.4296,W*59
$GPVTG,216.0,T,202.8,M,005.7,N,010.6,K*46
$GPGGA,234558.200,3239.1541,N,11722.4485,W,3,05,1.3,016.9,M,036.4,M,,*7B
$GPGXP,234558,3239.1541,N,11722.4485,W*50
$GPVTG,225.2,T,212.0,M,005.2,N,009.6,K*40
$GPGGA,234613.200,3239.1374,N,11722.4667,W,3,05,1.3,018.1,M,036.4,M,,*7F
$GPGXP,234613,3239.1374,N,11722.4667,W*52
$GPVTG,223.2,T,210.0,M,005.4,N,010.0,K*4C
$GPGGA,234628.200,3239.1208,N,11722.4847,W,3,05,1.3,017.8,M,036.4,M,,*77
$GPGXP,234628,3239.1208,N,11722.4847,W*5C
$GPVTG,219.2,T,206.0,M,005.8,N,010.7,K*49
$GPGGA,234643.200,3239.1054,N,11722.5042,W,3,05,1.3,016.5,M,036.4,M,,*71
$GPGXP,234643,3239.1054,N,11722.5042,W*56
$GPVTG,220.3,T,207.1,M,005.1,N,009.4,K*40
$GPGGA,234658.200,3239.0894,N,11722.5224,W,3,05,1.4,018.3,M,036.4,M,,*73
$GPGXP,234658,3239.0894,N,11722.5224,W*5B
$GPVTG,216.8,T,203.6,M,005.4,N,010.0,K*44
$GPGGA,234713.200,3239.0727,N,11722.5405,W,3,05,1.4,017.6,M,036.4,M,,*75
$GPGXP,234713,3239.0727,N,11722.5405,W*57
$GPVTG,205.0,T,191.8,M,005.6,N,010.3,K*49
$GPGGA,234728.200,3239.0555,N,11722.5584,W,3,05,1.4,018.7,M,036.4,M,,*7C
$GPGXP,234728,3239.0555,N,11722.5584,W*50
$GPVTG,224.7,T,211.5,M,005.4,N,010.1,K*4B
$GPGGA,234743.200,3239.0395,N,11722.5767,W,3,05,1.4,019.1,M,036.4,M,,*73
$GPGXP,234743,3239.0395,N,11722.5767,W*58
$GPVTG,218.9,T,205.7,M,005.4,N,0010.0,K*7C
$GPGGA,234758.200,3239.0223,N,11722.5948,W,3,05,1.4,019.1,M,036.4,M,,*76
$GPGXP,234758,3239.0223,N,11722.5948,W*5D
$GPVTG,227.6,T,214.4,M,005.7,N,010.6,K*49
$GPGGA,234813.200,3239.0059,N,11722.6129,W,3,05,1.4,019.3,M,036.4,M,,*77
$GPGXP,234813,3239.0059,N,11722.6129,W*5E
$GPVTG,216.4,T,203.2,M,005.9,N,010.9,K*48
$GPGGA,234828.200,3238.9889,N,11722.6315,W,3,05,1.4,018.0,M,036.4,M,,*7D
$GPGXP,234828,3238.9889,N,11722.6315,W*56
$GPVTG,240.5,T,227.2,M,006.2,N,011.5,K*49
$GPGGA,234843.200,3238.9730,N,11722.6500,W,3,05,1.4,016.7,M,036.4,M,,*76
$GPGXP,234843,3238.9730,N,11722.6500,W*54
$GPVTG,237.6,T,224.4,M,005.1,N,009.4,K*47
$GPGGA,234858.200,3238.9566,N,11722.6678,W,3,05,1.4,018.2,M,036.4,M,,*7A
$GPGXP,234858,3238.9566,N,11722.6678,W*53
$GPVTG,218.9,T,205.7,M,005.5,N,010.3,K*4E
$GPGGA,234913.200,3238.9400,N,11722.6857,W,3,05,1.4,019.3,M,036.4,M,,*76
$GPGXP,234913,3238.9400,N,11722.6857,W*5F
$GPVTG,224.7,T,211.4,M,005.3,N,009.8,K*4C
$GPGGA,234928.200,3238.9237,N,11722.7038,W,3,05,1.4,019.3,M,036.4,M,,*7C
$GPGXP,234928,3238.9237,N,11722.7038,W*55
$GPVTG,212.0,T,198.7,M,005.7,N,010.6,K*4D
$GPGGA,234943.200,3238.9073,N,11722.7220,W,3,05,1.4,018.2,M,036.4,M,,*78
$GPGXP,234943,3238.9073,N,11722.7220,W*51
$GPVTG,208.4,T,195.2,M,005.9,N,010.9,K*4B
$GPGGA,234958.200,3238.8913,N,11722.7397,W,3,05,1.4,018.3,M,036.4,M,,*70
$GPGXP,234958,3238.8913,N,11722.7397,W*58
$GPVTG,203.2,T,190.0,M,005.9,N,010.9,K*41
$GPGGA,235013.200,3238.8751,N,11722.7573,W,3,05,1.4,018.1,M,036.4,M,,*71
$GPGXP,235013,3238.8751,N,11722.7573,W*5B
$GPVTG,226.1,T,212.9,M,005.3,N,009.7,K*49
$GPGGA,235028.200,3238.8588,N,11722.7753,W,3,05,1.4,018.9,M,036.4,M,,*77
$GPGXP,235028,3238.8588,N,11722.7753,W*55
$GPVTG,216.6,T,203.3,M,005.9,N,010.9,K*4B
$GPGGA,235043.200,3238.8432,N,11722.7941,W,3,05,1.4,018.4,M,036.4,M,,*7A
$GPGXP,235043,3238.8432,N,11722.7941,W*55
$GPVTG,230.4,T,217.2,M,005.1,N,009.4,K*44
$GPGGA,235058.200,3238.8264,N,11722.8116,W,3,05,1.4,018.8,M,036.4,M,,*7C
$GPGXP,235058,3238.8264,N,11722.8116,W*5F
$GPVTG,228.7,T,215.5,M,005.4,N,010.1,K*43
$GPGGA,235113.200,3238.8105,N,11722.8307,W,3,05,1.4,017.6,M,036.4,M,,*75
$GPGXP,235113,3238.8105,N,11722.8307,W*57
$GPVTG,211.3,T,198.1,M,004.9,N,009.2,K*48
$GPGGA,235128.200,3238.7935,N,11722.8488,W,3,05,1.4,017.6,M,036.4,M,,*79
$GPGXP,235128,3238.7935,N,11722.8488,W*5B
$GPVTG,237.8,T,224.6,M,005.6,N,010.4,K*44
$GPGGA,235143.200,3238.7766,N,11722.8658,W,3,05,1.4,018.1,M,036.4,M,,*7B
$GPGXP,235143,3238.7766,N,11722.8658,W*51
$GPVTG,223.1,T,209.9,M,005.4,N,009.9,K*4F
$GPGGA,235158.200,3238.7604,N,11722.8843,W,3,05,1.4,018.0,M,036.4,M,,*71
$GPGXP,235158,3238.7604,N,11722.8843,W*5A
$GPVTG,221.5,T,208.3,M,005.3,N,009.8,K*44
$GPGGA,235213.200,3238.7437,N,11722.9026,W,3,05,1.4,017.7,M,036.4,M,,*7D
$GPGXP,235213,3238.7437,N,11722.9026,W*5E
$GPVTG,209.8,T,196.6,M,006.2,N,011.5,K*44
$GPGGA,235228.200,3238.7277,N,11722.9211,W,3,05,1.4,017.8,M,036.4,M,,*7E
$GPGXP,235228,3238.7277,N,11722.9211,W*52
$GPVTG,221.6,T,208.4,M,005.6,N,010.4,K*41
$GPGGA,235243.200,3238.7115,N,11722.9395,W,3,05,1.4,017.6,M,036.4,M,,*77
$GPGXP,235243,3238.7115,N,11722.9395,W*55
$GPVTG,240.2,T,227.0,M,006.0,N,011.1,K*4A
$GPGGA,235258.200,3238.6953,N,11722.9573,W,3,05,1.4,017.5,M,036.4,M,,*7B
$GPGXP,235258,3238.6953,N,11722.9573,W*5A
$GPVTG,226.6,T,213.4,M,005.4,N,010.1,K*4B
$GPGGA,235313.200,3238.6786,N,11722.9751,W,3,05,1.4,018.8,M,036.4,M,,*73
$GPGXP,235313,3238.6786,N,11722.9751,W*50
$GPVTG,222.0,T,208.7,M,005.5,N,010.3,K*43
$GPGGA,235328.200,3238.6626,N,11722.9937,W,3,05,1.4,017.6,M,036.4,M,,*7F
$GPGXP,235328,3238.6626,N,11722.9937,W*5D
$GPVTG,228.1,T,214.8,M,005.2,N,009.7,K*41
$GPGGA,235343.200,3238.6457,N,11723.0118,W,3,05,1.4,018.0,M,036.4,M,,*72
$GPGXP,235343,3238.6457,N,11723.0118,W*59
$GPVTG,220.3,T,207.1,M,005.7,N,010.5,K*4F
$GPGGA,235358.200,3238.6285,N,11723.0297,W,3,05,1.4,017.0,M,036.4,M,,*7A
$GPGXP,235358,3238.6285,N,11723.0297,W*5E
$GPVTG,221.1,T,207.9,M,005.9,N,011.0,K*4E
$GPGGA,235413.200,3238.6117,N,11723.0468,W,3,05,1.4,017.0,M,036.4,M,,*7C
$GPGXP,235413,3238.6117,N,11723.0468,W*58
$GPVTG,233.0,T,219.8,M,005.3,N,009.7,K*46
$GPGGA,235428.200,3238.5951,N,11723.0641,W,3,05,1.4,018.2,M,036.4,M,,*79
$GPGXP,235428,3238.5951,N,11723.0641,W*50
$GPVTG,212.5,T,199.3,M,005.3,N,009.8,K*4F
$GPGGA,235443.200,3238.5792,N,11723.0825,W,3,05,1.4,018.2,M,036.4,M,,*79
$GPGXP,235443,3238.5792,N,11723.0825,W*50
$GPVTG,228.1,T,214.9,M,004.9,N,009.1,K*4C
$GPGGA,235458.200,3238.5627,N,11723.1006,W,3,05,1.4,017.1,M,036.4,M,,*78
$GPGXP,235458,3238.5627,N,11723.1006,W*5D
$GPVTG,224.9,T,211.7,M,004.9,N,009.1,K*43
$GPGGA,235513.200,3238.5463,N,11723.1184,W,3,05,1.4,017.3,M,036.4,M,,*7D
$GPGXP,235513,3238.5463,N,11723.1184,W*5A
$GPVTG,220.7,T,207.5,M,005.4,N,010.0,K*49
$GPGGA,235528.200,3238.5300,N,11723.1361,W,3,05,1.4,018.2,M,036.4,M,,*70
$GPGXP,235528,3238.5300,N,11723.1361,W*59
$GPVTG,223.1,T,209.9,M,005.5,N,010.2,K*4D
$GPGGA,235543.200,3238.5130,N,11723.1535,W,3,05,1.4,017.9,M,036.4,M,,*7F
$GPGXP,235543,3238.5130,N,11723.1535,W*52
$GPVTG,228.2,T,215.0,M,005.4,N,009.9,K*43
$GPGGA,235558.200,3238.4961,N,11723.1712,W,3,05,1.4,018.5,M,036.4,M,,*7C
$GPGXP,235558,3238.4961,N,11723.1712,W*52
$GPVTG,216.7,T,203.5,M,005.3,N,009.9,K*4E
$GPGGA,235613.200,3238.4800,N,11723.1892,W,3,05,1.4,018.3,M,036.4,M,,*77
$GPGXP,235613,3238.4800,N,11723.1892,W*5F
$GPVTG,217.6,T,204.4,M,005.1,N,009.4,K*47
$GPGGA,235628.200,3238.4632,N,11723.2072,W,3,05,1.4,017.6,M,036.4,M,,*7F
$GPGXP,235628,3238.4632,N,11723.2072,W*5D
$GPVTG,220.0,T,206.8,M,005.2,N,009.7,K*4B
$GPGGA,235643.200,3238.4466,N,11723.2251,W,3,05,1.4,017.2,M,036.4,M,,*76
$GPGXP,235643,3238.4466,N,11723.2251,W*50
$GPVTG,234.1,T,220.9,M,004.8,N,008.8,K*4F
$GPGGA,235658.200,3238.4302,N,11723.2429,W,3,05,1.4,017.8,M,036.4,M,,*7A
$GPGXP,235658,3238.4302,N,11723.2429,W*56
$GPVTG,220.3,T,207.1,M,005.2,N,009.7,K*40
$GPGGA,235713.200,3238.4141,N,11723.2613,W,3,05,1.4,017.3,M,036.4,M,,*71
$GPGXP,235713,3238.4141,N,11723.2613,W*56
$GPVTG,217.4,T,204.2,M,005.5,N,010.2,K*49
$GPGGA,235728.200,3238.3978,N,11723.2791,W,3,05,1.4,017.0,M,036.4,M,,*74
$GPGXP,235728,3238.3978,N,11723.2791,W*50
$GPVTG,219.4,T,206.1,M,005.6,N,010.4,K*43
$GPGGA,235743.200,3238.3821,N,11723.2979,W,3,05,1.4,017.0,M,036.4,M,,*7C
$GPGXP,235743,3238.3821,N,11723.2979,W*58
$GPVTG,218.9,T,205.6,M,005.6,N,010.4,K*4B
$GPGGA,235758.200,3238.3670,N,11723.3169,W,3,05,1.4,016.8,M,036.4,M,,*7D
$GPGXP,235758,3238.3670,N,11723.3169,W*50
$GPVTG,217.4,T,204.2,M,005.5,N,010.1,K*4A
$GPGGA,235813.200,3238.3506,N,11723.3357,W,3,05,1.4,018.2,M,036.4,M,,*74
$GPGXP,235813,3238.3506,N,11723.3357,W*5D
$GPVTG,223.0,T,209.8,M,005.2,N,009.6,K*46
$GPGGA,235828.200,3238.3350,N,11723.3548,W,3,05,1.4,016.6,M,036.4,M,,*7B
$GPGXP,235828,3238.3350,N,11723.3548,W*58
$GPVTG,214.2,T,201.0,M,005.8,N,010.7,K*43
$GPGGA,235843.200,3238.3191,N,11723.3739,W,3,05,1.4,016.8,M,036.4,M,,*73
$GPGXP,235843,3238.3191,N,11723.3739,W*5E
$GPVTG,236.7,T,223.5,M,005.8,N,010.8,K*4C
$GPGGA,235858.200,3238.3032,N,11723.3923,W,3,05,1.4,015.9,M,036.4,M,,*76
$GPGXP,235858,3238.3032,N,11723.3923,W*59
$GPVTG,234.4,T,221.1,M,005.4,N,009.9,K*4E
$GPGGA,235913.200,3238.2878,N,11723.4114,W,3,05,1.4,016.7,M,036.4,M,,*79
$GPGXP,235913,3238.2878,N,11723.4114,W*5B
$GPVTG,215.6,T,202.4,M,005.2,N,009.7,K*43
$GPGGA,235928.200,3238.2726,N,11723.4316,W,3,05,1.4,017.0,M,036.4,M,,*73
$GPGXP,235928,3238.2726,N,11723.4316,W*57
$GPVTG,222.8,T,209.6,M,005.3,N,009.8,K*4E
$GPGGA,235943.200,3238.2569,N,11723.4509,W,3,05,1.4,017.2,M,036.4,M,,*7D
$GPGXP,235943,3238.2569,N,11723.4509,W*5B
$GPVTG,232.9,T,219.7,M,006.1,N,011.4,K*4A
$GPGGA,235958.200,3238.2417,N,11723.4699,W,3,05,1.4,016.5,M,036.4,M,,*73
$GPGXP,235958,3238.2417,N,11723.4699,W*53
$GPVTG,216.0,T,202.8,M,005.4,N,010.0,K*43
$GPGGA,000013.200,3238.2264,N,11723.4887,W,3,05,1.4,017.0,M,036.4,M,,*76
$GPGXP,000013,3238.2264,N,11723.4887,W*52
$GPVTG,239.7,T,226.5,M,005.6,N,010.4,K*44
$GPGGA,000028.200,3238.2094,N,11723.5071,W,3,05,1.4,012.5,M,036.4,M,,*73
$GPGXP,000028,3238.2094,N,11723.5071,W*57
$GPVTG,239.7,T,226.5,M,005.6,N,010.5,K*45
$GPGGA,000043.200,3238.1939,N,11723.5259,W,3,05,1.4,012.2,M,036.4,M,,*7C
$GPGXP,000043,3238.1939,N,11723.5259,W*5F
$GPVTG,221.8,T,208.6,M,005.4,N,010.0,K*4B
$GPGGA,000058.200,3238.1789,N,11723.5452,W,3,05,1.4,011.7,M,036.4,M,,*78
$GPGXP,000058,3238.1789,N,11723.5452,W*5D
$GPVTG,219.9,T,206.7,M,005.3,N,009.9,K*48
$GPGGA,000113.200,3238.1638,N,11723.5644,W,3,05,1.4,011.7,M,036.4,M,,*78
$GPGXP,000113,3238.1638,N,11723.5644,W*5D
$GPVTG,224.9,T,211.7,M,005.1,N,009.4,K*4F
$GPGGA,000128.200,3238.1475,N,11723.5833,W,3,05,1.4,012.5,M,036.4,M,,*74
$GPGXP,000128,3238.1475,N,11723.5833,W*50
$GPVTG,221.5,T,208.3,M,005.3,N,009.7,K*4B
$GPGGA,000143.200,3238.1313,N,11723.6027,W,3,05,1.4,013.5,M,036.4,M,,*71
$GPGXP,000143,3238.1313,N,11723.6027,W*54
$GPVTG,227.3,T,214.1,M,005.6,N,010.4,K*4A
$GPGGA,000158.200,3238.1158,N,11723.6219,W,3,05,1.4,013.1,M,036.4,M,,*7D
$GPGXP,000158,3238.1158,N,11723.6219,W*5C
$GPVTG,224.2,T,211.0,M,005.2,N,009.7,K*43
$GPGGA,000213.200,3238.1005,N,11723.6420,W,3,05,1.4,013.4,M,036.4,M,,*71
$GPGXP,000213,3238.1005,N,11723.6420,W*55
$GPVTG,234.9,T,221.7,M,004.8,N,008.9,K*49
$GPGGA,000228.200,3238.0858,N,11723.6620,W,3,05,1.4,013.4,M,036.4,M,,*7A
$GPGXP,000228,3238.0858,N,11723.6620,W*5E
$GPVTG,232.0,T,218.8,M,005.1,N,009.4,K*47
$GPGGA,000243.200,3238.0717,N,11723.6822,W,3,05,1.4,013.5,M,036.4,M,,*7E
$GPGXP,000243,3238.0717,N,11723.6822,W*5B
$GPVTG,225.1,T,211.9,M,005.4,N,0010.0,K*71
$GPGGA,000258.200,3238.0579,N,11723.7024,W,3,05,1.4,012.8,M,036.4,M,,*7D
$GPGXP,000258,3238.0579,N,11723.7024,W*54
$GPVTG,238.7,T,225.4,M,005.4,N,0010.0,K*71
$GPGGA,000313.200,3238.0439,N,11723.7227,W,3,05,1.4,012.0,M,036.4,M,,*7F
$GPGXP,000313,3238.0439,N,11723.7227,W*5E
$GPVTG,231.2,T,218.0,M,005.6,N,010.4,K*41
$GPGGA,000328.200,3238.0294,N,11723.7412,W,3,05,1.4,019.3,M,036.4,M,,*7E
$GPGXP,000328,3238.0294,N,11723.7412,W*57
$GPVTG,229.6,T,216.4,M,004.9,N,009.2,K*46
$GPGGA,000343.200,3238.0149,N,11723.7613,W,3,05,1.4,018.3,M,036.4,M,,*72
$GPGXP,000343,3238.0149,N,11723.7613,W*5A
$GPVTG,234.5,T,221.3,M,005.6,N,010.4,K*4A
$GPGGA,000358.200,3238.0008,N,11723.7813,W,3,05,1.4,018.8,M,036.4,M,,*79
$GPGXP,000358,3238.0008,N,11723.7813,W*5A
$GPVTG,235.1,T,221.9,M,005.0,N,009.2,K*4D
$GPGGA,000413.200,3237.9866,N,11723.8009,W,3,05,1.4,018.0,M,036.4,M,,*73
$GPGXP,000413,3237.9866,N,11723.8009,W*58
$GPVTG,235.7,T,222.5,M,005.3,N,009.7,K*42
$GPGGA,000428.200,3237.9718,N,11723.8206,W,3,05,1.4,019.2,M,036.4,M,,*73
$GPGXP,000428,3237.9718,N,11723.8206,W*5B
$GPVTG,212.8,T,199.5,M,005.1,N,009.4,K*4A
$GPGGA,000443.200,3237.9576,N,11723.8399,W,3,05,1.4,018.2,M,036.4,M,,*72
$GPGXP,000443,3237.9576,N,11723.8399,W*5B
$GPVTG,228.9,T,215.7,M,005.2,N,009.7,K*47
$GPGGA,000458.200,3237.9429,N,11723.8594,W,3,05,1.4,018.5,M,036.4,M,,*7F
$GPGXP,000458,3237.9429,N,11723.8594,W*51
$GPVTG,212.1,T,198.9,M,005.5,N,010.1,K*47
$GPGGA,000513.200,3237.9294,N,11723.8793,W,3,05,1.4,018.3,M,036.4,M,,*72
$GPGXP,000513,3237.9294,N,11723.8793,W*5A
$GPVTG,222.5,T,209.3,M,005.1,N,009.4,K*48
$GPGGA,000528.200,3237.9154,N,11723.8991,W,3,05,1.4,017.3,M,036.4,M,,*76
$GPGXP,000528,3237.9154,N,11723.8991,W*51
$GPVTG,239.5,T,226.3,M,004.9,N,009.1,K*43
$GPGGA,000543.200,3237.9019,N,11723.9185,W,3,05,1.4,017.0,M,036.5,M,,*7D
$GPGXP,000543,3237.9019,N,11723.9185,W*58
$GPVTG,234.3,T,221.1,M,004.7,N,008.7,K*44
$GPGGA,000558.200,3237.8876,N,11723.9381,W,3,05,1.4,017.7,M,036.5,M,,*76
$GPGXP,000558,3237.8876,N,11723.9381,W*54
$GPVTG,237.8,T,224.6,M,005.2,N,009.6,K*4A
$GPGGA,000613.200,3237.8733,N,11723.9576,W,3,05,1.4,018.6,M,036.5,M,,*74
$GPGXP,000613,3237.8733,N,11723.9576,W*58
$GPVTG,227.9,T,214.7,M,004.8,N,008.8,K*4C
$GPGGA,000628.200,3237.8594,N,11723.9774,W,3,05,1.4,017.6,M,036.5,M,,*7C
$GPGXP,000628,3237.8594,N,11723.9774,W*5F
$GPVTG,219.6,T,206.3,M,005.3,N,009.8,K*42
$GPGGA,000643.200,3237.8453,N,11723.9979,W,3,05,1.4,017.1,M,036.5,M,,*7F
$GPGXP,000643,3237.8453,N,11723.9979,W*5B
$GPVTG,228.1,T,214.8,M,005.4,N,010.0,K*48
$GPGGA,000658.200,3237.8313,N,11724.0180,W,3,05,1.4,017.0,M,036.5,M,,*77
$GPGXP,000658,3237.8313,N,11724.0180,W*52
$GPVTG,226.4,T,213.2,M,005.3,N,009.8,K*49
$GPGGA,000713.199,3237.8172,N,11724.0385,W,3,05,1.4,017.1,M,036.5,M,,*79
$GPGXP,000713,3237.8172,N,11724.0385,W*5E
$GPVTG,236.0,T,222.7,M,005.3,N,009.9,K*4A
$GPGGA,000728.199,3237.8031,N,11724.0589,W,3,05,1.4,017.8,M,036.5,M,,*74
$GPGXP,000728,3237.8031,N,11724.0589,W*5A
$GPVTG,219.9,T,206.7,M,005.6,N,010.3,K*4F
$GPGGA,000743.199,3237.7895,N,11724.0796,W,3,05,1.4,017.9,M,036.5,M,,*7D
$GPGXP,000743,3237.7895,N,11724.0796,W*52
$GPVTG,233.3,T,220.1,M,005.1,N,009.4,K*47
$GPGGA,000758.199,3237.7752,N,11724.0992,W,3,05,1.4,018.1,M,036.5,M,,*7E
$GPGXP,000758,3237.7752,N,11724.0992,W*56
$GPVTG,227.1,T,213.8,M,006.0,N,011.0,K*46
$GPGGA,000813.199,3237.7612,N,11724.1193,W,3,05,1.4,017.6,M,036.5,M,,*7B
$GPGXP,000813,3237.7612,N,11724.1193,W*5B
$GPVTG,216.2,T,203.0,M,005.0,N,009.2,K*46
$GPGGA,000828.199,3237.7471,N,11724.1390,W,3,05,1.4,017.7,M,036.5,M,,*74
$GPGXP,000828,3237.7471,N,11724.1390,W*55
$GPVTG,230.3,T,217.1,M,005.4,N,010.0,K*49
$GPGGA,000843.199,3237.7341,N,11724.1594,W,3,05,1.4,016.4,M,036.5,M,,*7D
$GPGXP,000843,3237.7341,N,11724.1594,W*5E
$GPVTG,233.3,T,220.1,M,005.5,N,010.2,K*4D
$GPGGA,000858.199,3237.7200,N,11724.1794,W,3,05,1.4,017.2,M,036.5,M,,*76
$GPGXP,000858,3237.7200,N,11724.1794,W*52
$GPVTG,241.2,T,228.0,M,005.2,N,009.6,K*4B
$GPGGA,000913.199,3237.7063,N,11724.1991,W,3,05,1.4,018.7,M,036.5,M,,*7E
$GPGXP,000913,3237.7063,N,11724.1991,W*50
$GPVTG,222.3,T,209.1,M,006.2,N,011.4,K*45
$GPGGA,000928.199,3237.6930,N,11724.2194,W,3,05,1.4,017.7,M,036.5,M,,*79
$GPGXP,000928,3237.6930,N,11724.2194,W*58
$GPVTG,232.0,T,218.8,M,005.4,N,010.0,K*4E
$GPGGA,000943.199,3237.6788,N,11724.2374,W,3,05,1.4,030.5,M,036.5,M,,*72
$GPGXP,000943,3237.6788,N,11724.2374,W*54
$GPVTG,225.3,T,212.1,M,005.5,N,010.1,K*48
$GPGGA,000958.199,3237.6647,N,11724.2573,W,3,05,1.4,030.6,M,036.5,M,,*78
$GPGXP,000958,3237.6647,N,11724.2573,W*5D
$GPVTG,228.4,T,215.1,M,005.1,N,009.4,K*4C
$GPGGA,001013.199,3237.6503,N,11724.2769,W,3,05,1.4,032.1,M,036.5,M,,*70
$GPGXP,001013,3237.6503,N,11724.2769,W*50
$GPVTG,233.3,T,220.1,M,005.4,N,0010.0,K*7E
$GPGGA,001028.199,3237.6358,N,11724.2970,W,3,05,1.4,031.3,M,036.5,M,,*77
$GPGXP,001028,3237.6358,N,11724.2970,W*56
$GPVTG,222.3,T,209.1,M,005.6,N,010.3,K*44
$GPGGA,001043.199,3237.6220,N,11724.3172,W,3,05,1.4,033.5,M,036.5,M,,*7B
$GPGXP,001043,3237.6220,N,11724.3172,W*5E
$GPVTG,223.4,T,210.2,M,004.8,N,009.0,K*4D
$GPGGA,001058.199,3237.6069,N,11724.3375,W,3,05,1.4,029.4,M,036.5,M,,*71
$GPGXP,001058,3237.6069,N,11724.3375,W*5E
$GPVTG,231.2,T,217.9,M,005.3,N,009.7,K*49
$GPGGA,001113.199,3237.5928,N,11724.3572,W,3,05,1.4,030.5,M,036.5,M,,*78
$GPGXP,001113,3237.5928,N,11724.3572,W*5E
$GPVTG,234.6,T,221.4,M,005.4,N,010.0,K*48
$GPGGA,001128.199,3237.5787,N,11724.3770,W,3,05,1.4,030.1,M,036.5,M,,*7F
$GPGXP,001128,3237.5787,N,11724.3770,W*5D
$GPVTG,229.2,T,216.0,M,005.5,N,010.2,K*43
$GPGGA,001143.199,3237.5660,N,11724.3972,W,3,05,1.4,033.0,M,036.5,M,,*74
$GPGXP,001143,3237.5660,N,11724.3972,W*54
$GPVTG,230.4,T,217.2,M,004.8,N,009.0,K*48
$GPGGA,001158.199,3237.5531,N,11724.4180,W,3,05,1.4,032.1,M,036.5,M,,*7B
$GPGXP,001158,3237.5531,N,11724.4180,W*5B
$GPVTG,240.5,T,227.3,M,005.4,N,0010.0,K*79
$GPGGA,001213.199,3237.5391,N,11724.4383,W,3,05,1.4,031.6,M,036.5,M,,*7E
$GPGXP,001213,3237.5391,N,11724.4383,W*5A
$GPVTG,236.3,T,223.0,M,005.3,N,009.7,K*41
$GPGGA,001228.199,3237.5256,N,11724.4585,W,3,05,1.4,029.9,M,036.5,M,,*7A
$GPGXP,001228,3237.5256,N,11724.4585,W*58
$GPVTG,231.6,T,218.3,M,005.5,N,010.1,K*40
$GPGGA,001243.199,3237.5109,N,11724.4774,W,3,05,1.4,030.2,M,036.5,M,,*71
$GPGXP,001243,3237.5109,N,11724.4774,W*50
$GPVTG,244.8,T,231.6,M,005.0,N,009.2,K*4C
$GPGGA,001258.199,3237.4965,N,11724.4961,W,3,05,1.4,030.9,M,036.5,M,,*79
$GPGXP,001258,3237.4965,N,11724.4961,W*53
$GPVTG,218.1,T,204.9,M,005.5,N,010.2,K*48
$GPGGA,001313.199,3237.4826,N,11724.5148,W,3,05,1.4,032.3,M,036.5,M,,*7B
$GPGXP,001313,3237.4826,N,11724.5148,W*59
$GPVTG,244.3,T,231.1,M,005.0,N,009.2,K*40
$GPGGA,001328.199,3237.4675,N,11724.5344,W,3,05,1.4,027.1,M,036.5,M,,*73
$GPGXP,001328,3237.4675,N,11724.5344,W*57
$GPVTG,236.8,T,223.6,M,005.2,N,009.6,K*4C
$GPGGA,001343.199,3237.4538,N,11724.5524,W,3,05,1.4,034.7,M,036.5,M,,*70
$GPGXP,001343,3237.4538,N,11724.5524,W*50
$GPVTG,226.5,T,213.3,M,005.0,N,009.2,K*40
$GPGGA,001358.199,3237.4403,N,11724.5724,W,3,05,1.4,032.1,M,036.5,M,,*71
$GPGXP,001358,3237.4403,N,11724.5724,W*51
$GPVTG,237.4,T,224.2,M,004.3,N,008.1,K*44
$GPGGA,001413.199,3237.4260,N,11724.5913,W,3,05,1.4,033.6,M,036.5,M,,*76
$GPGXP,001413,3237.4260,N,11724.5913,W*50
$GPVTG,240.0,T,226.8,M,004.7,N,008.7,K*4A
$GPGGA,001428.199,3237.4119,N,11724.6108,W,3,05,1.4,029.0,M,036.5,M,,*7F
$GPGXP,001428,3237.4119,N,11724.6108,W*54
$GPVTG,221.8,T,208.6,M,006.0,N,011.0,K*4D
$GPGGA,001443.199,3237.3989,N,11724.6298,W,3,05,1.4,030.6,M,036.5,M,,*70
$GPGXP,001443,3237.3989,N,11724.6298,W*55
$GPVTG,218.8,T,205.6,M,005.4,N,0010.0,K*7C
$GPGGA,001458.199,3237.3850,N,11724.6493,W,3,05,1.4,030.7,M,036.5,M,,*73
$GPGXP,001458,3237.3850,N,11724.6493,W*57
$GPVTG,237.1,T,223.9,M,005.6,N,010.4,K*45
$GPGGA,001513.199,3237.3703,N,11724.6682,W,3,05,1.4,030.6,M,036.5,M,,*77
$GPGXP,001513,3237.3703,N,11724.6682,W*52
$GPVTG,226.4,T,213.2,M,005.4,N,009.9,K*4F
$GPGGA,001528.199,3237.3567,N,11724.6874,W,3,05,1.4,031.9,M,036.5,M,,*76
$GPGXP,001528,3237.3567,N,11724.6874,W*5D
$GPVTG,232.7,T,219.5,M,004.8,N,008.9,K*48
$GPGGA,001543.199,3237.3428,N,11724.7078,W,3,05,1.4,028.8,M,036.5,M,,*7D
$GPGXP,001543,3237.3428,N,11724.7078,W*5F
$GPVTG,235.5,T,222.3,M,005.2,N,009.7,K*47
$GPGGA,001558.199,3237.3282,N,11724.7289,W,3,05,1.4,022.3,M,036.5,M,,*7C
$GPGXP,001558,3237.3282,N,11724.7289,W*5F
$GPVTG,236.6,T,223.3,M,005.0,N,009.2,K*41
$GPGGA,001613.199,3237.3139,N,11724.7476,W,3,05,1.4,024.7,M,036.5,M,,*77
$GPGXP,001613,3237.3139,N,11724.7476,W*56
$GPVTG,245.0,T,231.7,M,005.6,N,010.4,K*4C
$GPGGA,001628.199,3237.3000,N,11724.7660,W,3,05,1.4,031.8,M,036.5,M,,*7A
$GPGXP,001628,3237.3000,N,11724.7660,W*50
$GPVTG,232.3,T,219.1,M,005.8,N,010.7,K*4E
$GPGGA,001643.199,3237.2866,N,11724.7852,W,3,05,1.4,033.6,M,036.5,M,,*7D
$GPGXP,001643,3237.2866,N,11724.7852,W*5B
$GPVTG,226.4,T,213.2,M,005.3,N,009.8,K*49
$GPGGA,001658.199,3237.2729,N,11724.8051,W,3,05,1.4,030.6,M,036.5,M,,*74
$GPGXP,001658,3237.2729,N,11724.8051,W*51
$GPVTG,230.1,T,216.9,M,005.0,N,009.3,K*4D
$GPGGA,001713.199,3237.2589,N,11724.8249,W,3,05,1.4,029.5,M,036.5,M,,*72
$GPGXP,001713,3237.2589,N,11724.8249,W*5C
$GPVTG,237.7,T,224.5,M,005.1,N,009.5,K*46
$GPGGA,001728.199,3237.2444,N,11724.8450,W,3,05,1.4,029.3,M,036.5,M,,*72
$GPGXP,001728,3237.2444,N,11724.8450,W*5A
$GPVTG,240.5,T,227.3,M,005.2,N,009.6,K*41
$GPGGA,001743.199,3237.2302,N,11724.8646,W,3,05,1.4,028.4,M,036.5,M,,*79
$GPGXP,001743,3237.2302,N,11724.8646,W*57
$GPVTG,227.0,T,213.8,M,005.6,N,010.4,K*47
$GPGGA,001758.199,3237.2160,N,11724.8839,W,3,05,1.4,028.9,M,036.5,M,,*7E
$GPGXP,001758,3237.2160,N,11724.8839,W*5D
$GPVTG,228.5,T,215.3,M,005.3,N,009.8,K*41
$GPGGA,001813.199,3237.2016,N,11724.9033,W,3,05,1.4,029.2,M,036.5,M,,*77
$GPGXP,001813,3237.2016,N,11724.9033,W*5E
$GPVTG,235.7,T,222.5,M,004.9,N,009.1,K*4F
$GPGGA,001828.199,3237.1871,N,11724.9224,W,3,05,1.4,030.4,M,036.5,M,,*7F
$GPGXP,001828,3237.1871,N,11724.9224,W*58
$GPVTG,227.9,T,214.7,M,005.6,N,010.3,K*41
$GPGGA,001843.199,3237.1726,N,11724.9414,W,3,05,1.4,029.4,M,036.5,M,,*72
$GPGXP,001843,3237.1726,N,11724.9414,W*5D
$GPVTG,226.5,T,213.3,M,005.5,N,010.2,K*4D
$GPGGA,001858.199,3237.1585,N,11724.9604,W,3,05,1.4,031.3,M,036.5,M,,*7E
$GPGXP,001858,3237.1585,N,11724.9604,W*5F
$GPVTG,239.2,T,226.0,M,004.8,N,008.9,K*4F
$GPGGA,001913.199,3237.1443,N,11724.9808,W,3,05,1.4,026.5,M,036.5,M,,*79
$GPGXP,001913,3237.1443,N,11724.9808,W*58
$GPVTG,231.9,T,218.7,M,005.1,N,009.5,K*43
$GPGGA,001928.199,3237.1307,N,11725.0001,W,3,05,1.4,028.5,M,036.5,M,,*71
$GPGXP,001928,3237.1307,N,11725.0001,W*5E
$GPVTG,226.3,T,213.1,M,005.3,N,009.9,K*4C
$GPGGA,001943.199,3237.1169,N,11725.0199,W,3,05,1.4,027.9,M,036.5,M,,*75
$GPGXP,001943,3237.1169,N,11725.0199,W*59
$GPVTG,225.2,T,211.9,M,005.4,N,009.9,K*43
$GPGGA,001958.199,3237.1033,N,11725.0400,W,3,05,1.4,027.3,M,036.5,M,,*7E
$GPGXP,001958,3237.1033,N,11725.0400,W*58
$GPVTG,223.4,T,210.2,M,005.9,N,010.9,K*4C
$GPGGA,002013.199,3237.0891,N,11725.0595,W,3,05,1.4,028.5,M,036.5,M,,*7E
$GPGXP,002013,3237.0891,N,11725.0595,W*51
$GPVTG,249.3,T,236.1,M,005.0,N,009.3,K*4B
$GPGGA,002028.199,3237.0752,N,11725.0789,W,3,05,1.4,027.1,M,036.5,M,,*72
$GPGXP,002028,3237.0752,N,11725.0789,W*56
$GPVTG,233.5,T,220.2,M,004.7,N,008.7,K*47
$GPGGA,002043.199,3237.0606,N,11725.0978,W,3,05,1.4,027.5,M,036.5,M,,*7B
$GPGXP,002043,3237.0606,N,11725.0978,W*5B
$GPVTG,234.6,T,221.3,M,005.5,N,010.2,K*4C
$GPGGA,002058.199,3237.0468,N,11725.1173,W,3,05,1.4,027.6,M,036.5,M,,*7A
$GPGXP,002058,3237.0468,N,11725.1173,W*59
$GPVTG,228.2,T,215.0,M,005.4,N,010.0,K*42
$GPGGA,002113.199,3237.0324,N,11725.1366,W,3,05,1.4,026.8,M,036.5,M,,*72
$GPGXP,002113,3237.0324,N,11725.1366,W*5E
$GPVTG,221.1,T,207.9,M,005.9,N,010.9,K*46
$GPGGA,002128.199,3237.0193,N,11725.1557,W,3,05,1.4,029.5,M,036.5,M,,*72
$GPGXP,002128,3237.0193,N,11725.1557,W*5C
$GPVTG,212.1,T,198.8,M,005.4,N,009.9,K*47
$GPGGA,002143.199,3237.0044,N,11725.1749,W,3,05,1.4,026.6,M,036.5,M,,*75
$GPGXP,002143,3237.0044,N,11725.1749,W*57
$GPVTG,231.7,T,218.5,M,005.0,N,009.2,K*49
$GPGGA,002158.199,3236.9883,N,11725.1931,W,3,05,1.4,025.7,M,036.5,M,,*77
$GPGXP,002158,3236.9883,N,11725.1931,W*57
$GPVTG,202.4,T,189.2,M,005.7,N,010.5,K*4E
$GPGGA,002213.199,3236.9714,N,11725.2104,W,3,05,1.4,023.2,M,036.5,M,,*74
$GPGXP,002213,3236.9714,N,11725.2104,W*57
$GPVTG,226.5,T,213.2,M,005.2,N,009.7,K*46
$GPGGA,002228.199,3236.9525,N,11725.2246,W,3,05,1.4,026.0,M,036.5,M,,*7E
$GPGXP,002228,3236.9525,N,11725.2246,W*5A
$GPVTG,209.3,T,196.1,M,005.6,N,010.4,K*4F
$GPGGA,002243.199,3236.9336,N,11725.2382,W,3,05,1.4,026.4,M,036.5,M,,*7A
$GPGXP,002243,3236.9336,N,11725.2382,W*5A
$GPVTG,221.7,T,208.5,M,005.5,N,010.1,K*47
$GPGGA,002258.199,3236.9134,N,11725.2501,W,3,05,1.4,027.5,M,036.5,M,,*7D
$GPGXP,002258,3236.9134,N,11725.2501,W*5D
$GPVTG,227.0,T,213.8,M,005.7,N,010.5,K*47
$GPGGA,002313.199,3236.8927,N,11725.2620,W,3,05,1.4,026.5,M,036.5,M,,*79
$GPGXP,002313,3236.8927,N,11725.2620,W*58
$GPVTG,196.8,T,183.6,M,005.8,N,010.8,K*40
$GPGGA,002328.199,3236.8716,N,11725.2734,W,3,05,1.4,025.0,M,036.5,M,,*7F
$GPGXP,002328,3236.8716,N,11725.2734,W*58
$GPVTG,198.4,T,185.2,M,005.4,N,010.1,K*45
$GPGGA,002343.199,3236.8497,N,11725.2820,W,3,05,1.4,027.8,M,036.5,M,,*78
$GPGXP,002343,3236.8497,N,11725.2820,W*55
$GPVTG,203.4,T,190.2,M,005.8,N,010.7,K*4A
$GPGGA,002358.199,3236.8273,N,11725.2901,W,3,05,1.4,028.8,M,036.5,M,,*73
$GPGXP,002358,3236.8273,N,11725.2901,W*51
$GPVTG,203.4,T,190.2,M,005.8,N,010.8,K*45
$GPGGA,002413.199,3236.8049,N,11725.2966,W,3,05,1.4,033.0,M,036.5,M,,*73
$GPGXP,002413,3236.8049,N,11725.2966,W*53
$GPVTG,197.9,T,184.7,M,005.6,N,010.4,K*44
$GPGGA,002428.199,3236.7824,N,11725.3040,W,3,05,1.4,028.3,M,036.5,M,,*72
$GPGXP,002428,3236.7824,N,11725.3040,W*5B
$GPVTG,181.4,T,168.2,M,006.0,N,011.0,K*49
$GPGGA,002443.199,3236.7608,N,11725.3131,W,3,05,1.4,013.4,M,036.5,M,,*77
$GPGXP,002443,3236.7608,N,11725.3131,W*51
$GPVTG,197.7,T,184.4,M,005.7,N,010.5,K*49
$GPGGA,002458.199,3236.7375,N,11725.3157,W,3,05,1.4,018.1,M,036.5,M,,*7C
$GPGXP,002458,3236.7375,N,11725.3157,W*54
$GPVTG,192.6,T,179.4,M,005.6,N,010.4,K*4F
$GPGGA,002513.199,3236.7139,N,11725.3181,W,3,05,1.4,020.4,M,036.5,M,,*7D
$GPGXP,002513,3236.7139,N,11725.3181,W*5B
$GPVTG,192.6,T,179.4,M,005.7,N,010.6,K*4C
$GPGGA,002528.199,3236.6899,N,11725.3198,W,3,05,1.4,021.1,M,036.5,M,,*7B
$GPGXP,002528,3236.6899,N,11725.3198,W*59
$GPVTG,198.4,T,185.2,M,006.2,N,011.5,K*45
$GPGGA,002543.199,3236.6666,N,11725.3196,W,3,05,1.4,022.2,M,036.5,M,,*76
$GPGXP,002543,3236.6666,N,11725.3196,W*54
$GPVTG,182.3,T,169.1,M,005.7,N,010.5,K*4F
$GPGGA,002558.199,3236.6435,N,11725.3192,W,3,05,1.4,022.9,M,036.5,M,,*77
$GPGXP,002558,3236.6435,N,11725.3192,W*5E
$GPVTG,178.0,T,164.8,M,006.0,N,011.2,K*4F
$GPGGA,002613.199,3236.6194,N,11725.3169,W,3,05,1.4,024.1,M,036.5,M,,*7F
$GPGXP,002613,3236.6194,N,11725.3169,W*58
$GPVTG,166.8,T,153.6,M,006.1,N,011.2,K*43
$GPGGA,002628.199,3236.5965,N,11725.3161,W,3,05,1.4,017.2,M,036.5,M,,*79
$GPGXP,002628,3236.5965,N,11725.3161,W*5D
$GPVTG,176.1,T,162.9,M,005.8,N,010.7,K*48
$GPGGA,002643.199,3236.5736,N,11725.3113,W,3,05,1.2,017.1,M,036.5,M,,*7C
$GPGXP,002643,3236.5736,N,11725.3113,W*5D
$GPVTG,175.9,T,162.7,M,005.5,N,010.1,K*46
$GPGGA,002658.199,3236.5509,N,11725.3084,W,3,05,1.2,017.4,M,036.5,M,,*72
$GPGXP,002658,3236.5509,N,11725.3084,W*56
$GPVTG,155.0,T,141.8,M,005.8,N,010.8,K*47
$GPGGA,002713.199,3236.5268,N,11725.3024,W,3,05,1.2,016.0,M,036.5,M,,*73
$GPGXP,002713,3236.5268,N,11725.3024,W*52
$GPVTG,175.2,T,162.0,M,005.6,N,010.4,K*4C
$GPGGA,002728.199,3236.5031,N,11725.2954,W,3,05,1.2,014.5,M,036.5,M,,*7D
$GPGXP,002728,3236.5031,N,11725.2954,W*5B
$GPVTG,171.3,T,158.1,M,005.5,N,010.1,K*47
$GPGGA,002743.199,3236.4803,N,11725.2876,W,3,05,1.2,014.7,M,036.5,M,,*7B
$GPGXP,002743,3236.4803,N,11725.2876,W*5F
$GPVTG,160.6,T,147.4,M,005.6,N,010.4,K*4F
$GPGGA,002758.199,3236.4576,N,11725.2806,W,3,05,1.2,016.7,M,036.5,M,,*7B
$GPGXP,002758,3236.4576,N,11725.2806,W*5D
$GPVTG,149.0,T,135.8,M,006.0,N,011.1,K*4A
$GPGGA,002813.199,3236.4352,N,11725.2714,W,3,05,1.2,016.6,M,036.5,M,,*76
$GPGXP,002813,3236.4352,N,11725.2714,W*51
$GPVTG,156.9,T,143.7,M,005.5,N,010.2,K*47
$GPGGA,002828.199,3236.4125,N,11725.2618,W,3,05,1.2,016.9,M,036.5,M,,*7E
$GPGXP,002828,3236.4125,N,11725.2618,W*56
$GPVTG,167.9,T,154.7,M,005.9,N,011.0,K*4C
$GPGGA,002843.199,3236.3900,N,11725.2521,W,3,05,1.2,016.8,M,036.5,M,,*73
$GPGXP,002843,3236.3900,N,11725.2521,W*5A
$GPVTG,158.6,T,145.4,M,005.4,N,010.1,K*41
$GPGGA,002858.199,3236.3675,N,11725.2410,W,3,05,1.2,014.7,M,036.5,M,,*7A
$GPGXP,002858,3236.3675,N,11725.2410,W*5E
$GPVTG,146.6,T,133.4,M,005.7,N,010.6,K*4B
$GPGGA,002913.199,3236.3464,N,11725.2293,W,3,05,1.2,015.5,M,036.5,M,,*78
$GPGXP,002913,3236.3464,N,11725.2293,W*5F
$GPVTG,165.4,T,152.2,M,005.9,N,010.9,K*48
$GPGGA,002928.199,3236.3246,N,11725.2169,W,3,05,1.2,016.2,M,036.5,M,,*74
$GPGXP,002928,3236.3246,N,11725.2169,W*57
$GPVTG,150.4,T,137.2,M,006.0,N,011.1,K*4E
$GPGGA,002943.199,3236.3040,N,11725.2021,W,3,05,1.2,016.2,M,036.5,M,,*70
$GPGXP,002943,3236.3040,N,11725.2021,W*53
$GPVTG,145.2,T,132.0,M,005.8,N,010.8,K*48
$GPGGA,002958.199,3236.2833,N,11725.1871,W,3,05,1.2,017.5,M,036.5,M,,*7F
$GPGXP,002958,3236.2833,N,11725.1871,W*5A
$GPVTG,148.8,T,135.6,M,005.7,N,010.6,K*4F
$GPGGA,003013.199,3236.2630,N,11725.1719,W,3,05,1.2,016.5,M,036.5,M,,*75
$GPGXP,003013,3236.2630,N,11725.1719,W*51
$GPVTG,151.5,T,138.3,M,005.9,N,011.0,K*4B
$GPGGA,003028.199,3236.2441,N,11725.1552,W,3,05,1.2,018.2,M,036.5,M,,*7D
$GPGXP,003028,3236.2441,N,11725.1552,W*50
$GPVTG,145.4,T,132.2,M,005.8,N,010.7,K*43
$GPGGA,003043.199,3236.2253,N,11725.1361,W,3,05,1.2,018.0,M,036.5,M,,*71
$GPGXP,003043,3236.2253,N,11725.1361,W*5E
$GPVTG,134.9,T,121.6,M,006.0,N,011.0,K*43
$GPGGA,003058.198,3236.2069,N,11725.1184,W,3,05,1.2,018.2,M,036.5,M,,*7A
$GPGXP,003058,3236.2069,N,11725.1184,W*56
$GPVTG,133.5,T,120.3,M,005.8,N,010.7,K*41
$GPGGA,003113.198,3236.1891,N,11725.0986,W,3,05,1.2,017.5,M,036.5,M,,*7B
$GPGXP,003113,3236.1891,N,11725.0986,W*5F
$GPVTG,133.3,T,120.1,M,005.7,N,010.6,K*4B
$GPGGA,003128.198,3236.1724,N,11725.0790,W,3,05,1.2,016.8,M,036.5,M,,*77
$GPGXP,003128,3236.1724,N,11725.0790,W*5F
$GPVTG,138.8,T,125.6,M,005.8,N,010.7,K*47
$GPGGA,003143.198,3236.1556,N,11725.0602,W,3,05,1.2,018.4,M,036.5,M,,*75
$GPGXP,003143,3236.1556,N,11725.0602,W*5F
$GPVTG,130.4,T,117.2,M,006.0,N,011.1,K*4A
$GPGGA,003158.198,3236.1411,N,11725.0374,W,3,05,1.2,018.2,M,036.5,M,,*7F
$GPGXP,003158,3236.1411,N,11725.0374,W*53
$GPVTG,125.2,T,111.9,M,005.6,N,010.5,K*45
$GPGGA,003213.198,3236.1267,N,11725.0138,W,3,05,1.2,017.2,M,036.5,M,,*71
$GPGXP,003213,3236.1267,N,11725.0138,W*52
$GPVTG,130.5,T,117.3,M,005.6,N,010.3,K*4C
$GPGGA,003228.198,3236.1126,N,11724.9910,W,3,05,1.2,018.0,M,036.5,M,,*78
$GPGXP,003228,3236.1126,N,11724.9910,W*56
$GPVTG,126.5,T,113.3,M,005.7,N,010.6,K*4B
$GPGGA,003243.198,3236.0983,N,11724.9681,W,3,05,1.2,017.3,M,036.5,M,,*78
$GPGXP,003243,3236.0983,N,11724.9681,W*5A
$GPVTG,123.2,T,110.0,M,005.6,N,010.4,K*4A
$GPGGA,003258.198,3236.0848,N,11724.9444,W,3,05,1.2,017.2,M,036.5,M,,*7E
$GPGXP,003258,3236.0848,N,11724.9444,W*5D
$GPVTG,120.9,T,107.7,M,005.9,N,010.9,K*41
$GPGGA,003313.198,3236.0716,N,11724.9206,W,3,05,1.2,016.7,M,036.5,M,,*70
$GPGXP,003313,3236.0716,N,11724.9206,W*57
$GPVTG,119.3,T,106.1,M,006.0,N,011.0,K*44
$GPGGA,003328.198,3236.0592,N,11724.8964,W,3,05,1.2,016.8,M,036.5,M,,*77
$GPGXP,003328,3236.0592,N,11724.8964,W*5F
$GPVTG,123.5,T,110.3,M,005.7,N,010.6,K*4D
$GPGGA,003343.198,3236.0468,N,11724.8717,W,3,05,1.2,016.6,M,036.5,M,,*7A
$GPGXP,003343,3236.0468,N,11724.8717,W*5C
$GPVTG,122.5,T,109.3,M,005.9,N,011.0,K*4D
$GPGGA,003358.198,3236.0357,N,11724.8462,W,3,05,1.2,015.8,M,036.5,M,,*77
$GPGXP,003358,3236.0357,N,11724.8462,W*5C
$GPVTG,118.9,T,105.7,M,005.6,N,010.4,K*4A
$GPGGA,003413.198,3236.0246,N,11724.8212,W,3,05,1.2,017.0,M,036.5,M,,*75
$GPGXP,003413,3236.0246,N,11724.8212,W*54
$GPVTG,109.3,T,096.1,M,006.0,N,011.1,K*4C
$GPGGA,003428.198,3236.0140,N,11724.7959,W,3,05,1.2,017.3,M,036.5,M,,*70
$GPGXP,003428,3236.0140,N,11724.7959,W*52
$GPVTG,119.3,T,106.1,M,005.8,N,010.7,K*49
$GPGGA,003443.198,3236.0039,N,11724.7702,W,3,05,1.2,017.4,M,036.5,M,,*75
$GPGXP,003443,3236.0039,N,11724.7702,W*50
$GPVTG,115.4,T,102.2,M,005.9,N,010.9,K*4A
$GPGGA,003458.198,3235.9953,N,11724.7435,W,3,05,1.2,016.9,M,036.5,M,,*7B
$GPGXP,003458,3235.9953,N,11724.7435,W*52
$GPVTG,106.6,T,093.3,M,005.9,N,011.0,K*4A
$GPGGA,003513.198,3235.9869,N,11724.7172,W,3,05,1.2,017.5,M,036.5,M,,*76
$GPGXP,003513,3235.9869,N,11724.7172,W*52
$GPVTG,108.3,T,095.1,M,005.8,N,010.7,K*42
$GPGGA,003528.198,3235.9786,N,11724.6907,W,3,05,1.2,017.4,M,036.5,M,,*7A
$GPGXP,003528,3235.9786,N,11724.6907,W*5F
$GPVTG,112.3,T,099.1,M,005.8,N,010.7,K*45
$GPGGA,003543.198,3235.9717,N,11724.6620,W,3,05,1.5,015.2,M,036.5,M,,*76
$GPGXP,003543,3235.9717,N,11724.6620,W*50
$GPVTG,108.5,T,095.3,M,005.7,N,010.6,K*48
$GPGGA,003558.198,3235.9653,N,11724.6343,W,3,05,1.5,015.1,M,036.5,M,,*7E
$GPGXP,003558,3235.9653,N,11724.6343,W*5B
$GPVTG,100.9,T,087.7,M,005.8,N,010.8,K*4A
$GPGGA,003613.198,3235.9606,N,11724.6064,W,3,05,1.5,014.8,M,036.5,M,,*7C
$GPGXP,003613,3235.9606,N,11724.6064,W*51
$GPVTG,103.6,T,090.4,M,005.6,N,010.3,K*46
$GPGGA,003628.198,3235.9572,N,11724.5781,W,3,05,1.5,013.1,M,036.5,M,,*75
$GPGXP,003628,3235.9572,N,11724.5781,W*56
$GPVTG,101.6,T,088.4,M,005.8,N,010.8,K*48
$GPGGA,003643.198,3235.9547,N,11724.5503,W,3,05,1.5,012.2,M,036.5,M,,*74
$GPGXP,003643,3235.9547,N,11724.5503,W*55
$GPVTG,090.2,T,077.0,M,005.7,N,010.5,K*43
$GPGGA,003658.198,3235.9527,N,11724.5219,W,3,05,1.5,013.6,M,036.5,M,,*71
$GPGXP,003658,3235.9527,N,11724.5219,W*55
$GPVTG,090.5,T,077.3,M,005.7,N,010.6,K*44
$GPGGA,003713.198,3235.9540,N,11724.4942,W,3,05,1.5,014.7,M,036.5,M,,*7C
$GPGXP,003713,3235.9540,N,11724.4942,W*5E
$GPVTG,083.5,T,070.3,M,005.6,N,010.4,K*42
$GPGGA,003728.198,3235.9565,N,11724.4678,W,3,05,1.5,013.7,M,036.5,M,,*72
$GPGXP,003728,3235.9565,N,11724.4678,W*57
$GPVTG,074.1,T,060.9,M,005.4,N,009.9,K*42
$GPGGA,003743.198,3235.9610,N,11724.4404,W,3,05,1.5,013.4,M,036.5,M,,*74
$GPGXP,003743,3235.9610,N,11724.4404,W*52
$GPVTG,073.4,T,060.2,M,005.3,N,009.8,K*4D
$GPGGA,003758.198,3235.9666,N,11724.4133,W,3,05,1.5,012.6,M,036.5,M,,*7D
$GPGXP,003758,3235.9666,N,11724.4133,W*58
$GPVTG,074.1,T,060.9,M,005.4,N,0010.0,K*73
$GPGGA,003813.198,3235.9718,N,11724.3862,W,3,05,1.5,012.1,M,036.5,M,,*78
$GPGXP,003813,3235.9718,N,11724.3862,W*5A
$GPVTG,076.6,T,063.4,M,005.5,N,010.1,K*48
$GPGGA,003828.198,3235.9774,N,11724.3588,W,3,05,1.5,011.5,M,036.5,M,,*74
$GPGXP,003828,3235.9774,N,11724.3588,W*51
$GPVTG,077.7,T,064.5,M,005.8,N,010.7,K*45
$GPGGA,003843.198,3235.9833,N,11724.3318,W,3,05,1.5,012.5,M,036.5,M,,*79
$GPGXP,003843,3235.9833,N,11724.3318,W*5F
$GPVTG,073.9,T,060.7,M,005.8,N,010.8,K*46
$GPGGA,003858.198,3235.9889,N,11724.3044,W,3,05,1.5,012.4,M,036.5,M,,*79
$GPGXP,003858,3235.9889,N,11724.3044,W*5E
$GPVTG,077.8,T,064.6,M,005.9,N,010.8,K*47
$GPGGA,003913.198,3235.9949,N,11724.2765,W,3,05,1.5,011.4,M,036.5,M,,*7C
$GPGXP,003913,3235.9949,N,11724.2765,W*58
$GPVTG,071.2,T,058.0,M,005.6,N,010.4,K*41
$GPGGA,003928.198,3236.0007,N,11724.2490,W,3,05,1.5,010.4,M,036.5,M,,*75
$GPGXP,003928,3236.0007,N,11724.2490,W*50
$GPVTG,070.4,T,057.1,M,005.8,N,010.8,K*4A
$GPGGA,003943.198,3236.0066,N,11724.2211,W,3,05,1.5,012.1,M,036.5,M,,*77
$GPGXP,003943,3236.0066,N,11724.2211,W*55
$GPVTG,073.6,T,060.4,M,005.8,N,010.8,K*4A
$GPGGA,003958.198,3236.0126,N,11724.1936,W,3,05,1.5,012.2,M,036.5,M,,*76
$GPGXP,003958,3236.0126,N,11724.1936,W*57
$GPVTG,072.3,T,059.1,M,005.9,N,010.9,K*41
$GPGGA,004013.198,3236.0187,N,11724.1658,W,3,05,1.5,010.4,M,036.5,M,,*7F
$GPGXP,004013,3236.0187,N,11724.1658,W*5A
$GPVTG,069.4,T,056.2,M,006.0,N,011.1,K*43
$GPGGA,004028.198,3236.0251,N,11724.1379,W,3,05,1.5,011.7,M,036.5,M,,*7B
$GPGXP,004028,3236.0251,N,11724.1379,W*5C
$GPVTG,071.9,T,058.7,M,005.7,N,010.5,K*4D
$GPGGA,004043.198,3236.0310,N,11724.1100,W,3,05,1.5,011.7,M,036.5,M,,*7E
$GPGXP,004043,3236.0310,N,11724.1100,W*59
$GPVTG,072.8,T,059.6,M,005.9,N,011.0,K*45
$GPGGA,004058.198,3236.0371,N,11724.0828,W,3,05,1.5,009.3,M,036.5,M,,*7C
$GPGXP,004058,3236.0371,N,11724.0828,W*56
$GPVTG,073.9,T,060.7,M,005.7,N,010.5,K*44
$GPGGA,004113.198,3236.0437,N,11724.0549,W,3,05,1.5,011.6,M,036.5,M,,*71
$GPGXP,004113,3236.0437,N,11724.0549,W*57
$GPVTG,079.6,T,066.4,M,005.9,N,011.0,K*4E
$GPGGA,004128.198,3236.0502,N,11724.0271,W,3,05,1.5,010.6,M,036.5,M,,*73
$GPGXP,004128,3236.0502,N,11724.0271,W*54
$GPVTG,076.1,T,062.9,M,005.8,N,010.8,K*47
$GPGGA,004143.198,3236.0568,N,11724.0000,W,3,05,1.5,011.0,M,036.5,M,,*71
$GPGXP,004143,3236.0568,N,11724.0000,W*51
$GPVTG,074.0,T,060.8,M,005.8,N,010.7,K*48
$GPGGA,004158.198,3236.0635,N,11723.9722,W,3,05,1.5,010.6,M,036.5,M,,*7E
$GPGXP,004158,3236.0635,N,11723.9722,W*59
$GPVTG,065.2,T,052.0,M,005.5,N,010.3,K*4A
$GPGGA,004213.198,3236.0703,N,11723.9455,W,3,05,1.5,010.7,M,036.5,M,,*74
$GPGXP,004213,3236.0703,N,11723.9455,W*52
$GPVTG,077.8,T,064.6,M,005.8,N,010.7,K*49
$GPGGA,004228.198,3236.0770,N,11723.9183,W,3,05,1.5,010.3,M,036.5,M,,*72
$GPGXP,004228,3236.0770,N,11723.9183,W*50
$GPVTG,076.9,T,063.7,M,005.6,N,010.3,K*45
$GPGGA,004243.198,3236.0841,N,11723.8914,W,3,05,1.5,011.2,M,036.5,M,,*75
$GPGXP,004243,3236.0841,N,11723.8914,W*57
$GPVTG,072.8,T,059.6,M,005.8,N,010.8,K*4D
$GPGGA,004258.198,3236.0904,N,11723.8646,W,3,05,1.5,011.4,M,036.5,M,,*71
$GPGXP,004258,3236.0904,N,11723.8646,W*55
$GPVTG,067.2,T,054.0,M,005.7,N,010.6,K*49
$GPGGA,004313.198,3236.0969,N,11723.8385,W,3,05,1.5,010.2,M,036.5,M,,*79
$GPGXP,004313,3236.0969,N,11723.8385,W*5A
$GPVTG,070.1,T,056.9,M,005.5,N,010.1,K*42
$GPGGA,004328.198,3236.1040,N,11723.8124,W,3,05,1.5,011.1,M,036.5,M,,*79
$GPGXP,004328,3236.1040,N,11723.8124,W*58
$GPVTG,072.6,T,059.4,M,005.5,N,010.2,K*46
$GPGGA,004343.198,3236.1108,N,11723.7861,W,3,05,1.5,010.5,M,036.5,M,,*7B
$GPGXP,004343,3236.1108,N,11723.7861,W*5F
$GPVTG,073.0,T,059.8,M,005.4,N,010.1,K*4F
$GPGGA,004358.198,3236.1176,N,11723.7600,W,3,05,1.5,011.8,M,036.5,M,,*7D
$GPGXP,004358,3236.1176,N,11723.7600,W*55
$GPVTG,079.3,T,066.1,M,005.5,N,010.3,K*40
$GPGGA,004413.198,3236.1245,N,11723.7336,W,3,05,1.5,011.5,M,036.5,M,,*7B
$GPGXP,004413,3236.1245,N,11723.7336,W*5E
$GPVTG,075.4,T,062.2,M,005.9,N,010.9,K*4A
$GPGGA,004428.198,3236.1315,N,11723.7079,W,3,05,1.5,011.2,M,036.5,M,,*78
$GPGXP,004428,3236.1315,N,11723.7079,W*5A
$GPVTG,071.2,T,058.0,M,005.3,N,009.8,K*40
$GPGGA,004443.198,3236.1378,N,11723.6820,W,3,05,1.5,009.8,M,036.5,M,,*78
$GPGXP,004443,3236.1378,N,11723.6820,W*59
$GPVTG,074.6,T,061.4,M,005.7,N,010.5,K*4E
$GPGGA,004458.198,3236.1451,N,11723.6558,W,3,05,1.4,010.9,M,036.5,M,,*74
$GPGXP,004458,3236.1451,N,11723.6558,W*5D
$GPVTG,063.1,T,049.9,M,005.4,N,0010.0,K*7E
$GPGGA,004513.198,3236.1525,N,11723.6303,W,3,05,1.4,011.3,M,036.5,M,,*7B
$GPGXP,004513,3236.1525,N,11723.6303,W*59
$GPVTG,078.9,T,065.7,M,005.8,N,010.8,K*48
$GPGGA,004528.198,3236.1610,N,11723.6052,W,3,05,1.4,011.2,M,036.5,M,,*70
$GPGXP,004528,3236.1610,N,11723.6052,W*53
$GPVTG,066.2,T,053.0,M,005.2,N,009.6,K*42
$GPGGA,004543.198,3236.1697,N,11723.5818,W,3,05,1.4,018.5,M,036.5,M,,*79
$GPGXP,004543,3236.1697,N,11723.5818,W*54
$GPVTG,064.8,T,051.6,M,005.4,N,0010.0,K*76
$GPGGA,004558.198,3236.1780,N,11723.5567,W,3,05,1.4,018.2,M,036.5,M,,*76
$GPGXP,004558,3236.1780,N,11723.5567,W*5C
$GPVTG,067.7,T,054.5,M,005.6,N,010.3,K*4D
$GPGGA,004613.198,3236.1859,N,11723.5317,W,3,05,1.4,019.6,M,036.5,M,,*75
$GPGXP,004613,3236.1859,N,11723.5317,W*5A
$GPVTG,071.1,T,057.9,M,005.4,N,010.0,K*42
$GPGGA,004628.198,3236.1945,N,11723.5060,W,3,05,1.4,018.6,M,036.5,M,,*73
$GPGXP,004628,3236.1945,N,11723.5060,W*5D
$GPVTG,068.6,T,055.4,M,005.2,N,009.7,K*4B
$GPGGA,004643.198,3236.2024,N,11723.4807,W,3,05,1.4,019.5,M,036.5,M,,*79
$GPGXP,004643,3236.2024,N,11723.4807,W*55
$GPVTG,071.9,T,058.7,M,005.6,N,010.4,K*4D
$GPGGA,004658.198,3236.2113,N,11723.4553,W,3,05,1.4,018.0,M,036.5,M,,*7E
$GPGXP,004658,3236.2113,N,11723.4553,W*56
$GPVTG,063.4,T,050.2,M,005.3,N,009.9,K*4E
$GPGGA,004713.198,3236.2203,N,11723.4307,W,3,05,1.4,020.5,M,036.5,M,,*7B
$GPGXP,004713,3236.2203,N,11723.4307,W*5D
$GPVTG,065.4,T,052.2,M,005.4,N,010.1,K*4D
$GPGGA,004728.198,3236.2292,N,11723.4059,W,3,05,1.4,020.0,M,036.5,M,,*76
$GPGXP,004728,3236.2292,N,11723.4059,W*55
$GPVTG,063.2,T,050.0,M,005.2,N,009.5,K*47
$GPGGA,004743.198,3236.2384,N,11723.3813,W,3,05,1.4,019.7,M,036.5,M,,*71
$GPGXP,004743,3236.2384,N,11723.3813,W*5F
$GPVTG,063.6,T,050.4,M,005.6,N,010.3,K*4D
$GPGGA,004758.198,3236.2487,N,11723.3579,W,3,05,1.4,022.3,M,036.5,M,,*72
$GPGXP,004758,3236.2487,N,11723.3579,W*50
$GPVTG,062.1,T,048.9,M,005.9,N,010.9,K*4A
$GPGGA,004813.198,3236.2599,N,11723.3340,W,3,05,1.4,022.0,M,036.5,M,,*73
$GPGXP,004813,3236.2599,N,11723.3340,W*52
$GPVTG,058.9,T,045.7,M,005.6,N,010.3,K*4D
$GPGGA,004828.198,3236.2709,N,11723.3108,W,3,05,1.4,024.3,M,036.5,M,,*7B
$GPGXP,004828,3236.2709,N,11723.3108,W*5F
$GPVTG,057.7,T,044.5,M,005.8,N,010.7,K*45
$GPGGA,004843.198,3236.2822,N,11723.2861,W,3,05,1.4,024.6,M,036.5,M,,*72
$GPGXP,004843,3236.2822,N,11723.2861,W*53
$GPVTG,054.0,T,040.7,M,005.3,N,009.9,K*4A
$GPGGA,004858.198,3236.2924,N,11723.2629,W,3,05,1.4,027.2,M,036.5,M,,*7A
$GPGXP,004858,3236.2924,N,11723.2629,W*5C
$GPVTG,059.9,T,046.6,M,005.4,N,010.0,K*4F
$GPGGA,004913.198,3236.3042,N,11723.2388,W,3,05,1.4,032.1,M,036.5,M,,*75
$GPGXP,004913,3236.3042,N,11723.2388,W*54
$GPVTG,063.1,T,049.9,M,005.2,N,009.6,K*46
$GPGGA,004928.198,3236.3149,N,11723.2142,W,3,05,1.4,023.3,M,036.5,M,,*71
$GPGXP,004928,3236.3149,N,11723.2142,W*52
$GPVTG,068.3,T,055.1,M,005.7,N,010.5,K*44
$GPGGA,004943.198,3236.3253,N,11723.1908,W,3,05,1.4,021.0,M,036.5,M,,*70
$GPGXP,004943,3236.3253,N,11723.1908,W*52
$GPVTG,060.8,T,047.6,M,005.8,N,010.8,K*41
$GPGGA,004958.198,3236.3365,N,11723.1680,W,3,05,1.4,026.3,M,036.5,M,,*75
$GPGXP,004958,3236.3365,N,11723.1680,W*53
$GPVTG,055.1,T,041.9,M,005.4,N,010.1,K*42
$GPGGA,005013.198,3236.3492,N,11723.1444,W,3,05,1.4,029.3,M,036.5,M,,*78
$GPGXP,005013,3236.3492,N,11723.1444,W*51
$GPVTG,063.7,T,050.5,M,005.3,N,009.8,K*4B
$GPGGA,005028.198,3236.3607,N,11723.1215,W,3,05,1.4,030.1,M,036.5,M,,*76
$GPGXP,005028,3236.3607,N,11723.1215,W*55
$GPVTG,063.2,T,050.0,M,005.4,N,0010.0,K*7C
$GPGGA,005043.198,3236.3710,N,11723.0982,W,3,05,1.4,027.5,M,036.5,M,,*7A
$GPGXP,005043,3236.3710,N,11723.0982,W*5B
$GPVTG,062.7,T,049.5,M,005.3,N,009.8,K*42
$GPGGA,005058.198,3236.3821,N,11723.0743,W,3,05,1.4,026.6,M,036.5,M,,*7C
$GPGXP,005058,3236.3821,N,11723.0743,W*5F
$GPVTG,062.5,T,049.3,M,005.5,N,010.1,K*41
$GPGGA,005113.198,3236.3923,N,11723.0505,W,3,05,1.4,022.9,M,036.5,M,,*7A
$GPGXP,005113,3236.3923,N,11723.0505,W*52
$GPVTG,064.7,T,051.5,M,005.6,N,010.3,K*4B
$GPGGA,005128.198,3236.4035,N,11723.0277,W,3,05,1.4,024.0,M,036.5,M,,*76
$GPGXP,005128,3236.4035,N,11723.0277,W*51
$GPVTG,065.2,T,052.0,M,005.7,N,010.5,K*4E
$GPGGA,005143.198,3236.4147,N,11723.0042,W,3,05,1.4,022.4,M,036.5,M,,*79
$GPGXP,005143,3236.4147,N,11723.0042,W*5C
$GPVTG,061.6,T,048.4,M,005.4,N,0010.0,K*77
$GPGGA,005158.198,3236.4259,N,11722.9807,W,3,05,1.4,021.9,M,036.5,M,,*70
$GPGXP,005158,3236.4259,N,11722.9807,W*5B
$GPVTG,059.4,T,046.2,M,005.4,N,0010.0,K*76
$GPGGA,005213.198,3236.4374,N,11722.9580,W,3,05,1.4,024.3,M,036.5,M,,*7F
$GPGXP,005213,3236.4374,N,11722.9580,W*5B
$GPVTG,062.7,T,049.5,M,005.4,N,010.0,K*45
$GPGGA,005228.198,3236.4485,N,11722.9345,W,3,05,1.4,020.7,M,036.5,M,,*71
$GPGXP,005228,3236.4485,N,11722.9345,W*55
$GPVTG,063.5,T,050.3,M,005.6,N,010.3,K*49
$GPGGA,005243.198,3236.4582,N,11722.9127,W,3,05,1.4,012.5,M,036.5,M,,*7F
$GPGXP,005243,3236.4582,N,11722.9127,W*58
$GPVTG,054.5,T,041.3,M,005.2,N,009.7,K*45
$GPGGA,005258.198,3236.4690,N,11722.8904,W,3,05,1.4,018.9,M,036.5,M,,*7B
$GPGXP,005258,3236.4690,N,11722.8904,W*5A
$GPVTG,057.8,T,044.6,M,005.3,N,009.8,K*45
$GPGGA,005313.198,3236.4809,N,11722.8665,W,3,05,1.4,018.4,M,036.5,M,,*7E
$GPGXP,005313,3236.4809,N,11722.8665,W*52
$GPVTG,063.8,T,050.5,M,005.3,N,009.8,K*44
$GPGGA,005328.198,3236.4917,N,11722.8443,W,3,05,1.4,020.1,M,036.5,M,,*70
$GPGXP,005328,3236.4917,N,11722.8443,W*52
$GPVTG,064.6,T,051.4,M,005.3,N,009.9,K*4C
$GPGGA,005343.197,3236.5032,N,11722.8213,W,3,05,1.4,020.6,M,036.5,M,,*79
$GPGXP,005343,3236.5032,N,11722.8213,W*53
$GPVTG,053.7,T,040.5,M,005.4,N,010.0,K*4E
$GPGGA,005358.197,3236.5140,N,11722.7977,W,3,05,1.4,024.6,M,036.5,M,,*75
$GPGXP,005358,3236.5140,N,11722.7977,W*5B
$GPVTG,049.2,T,036.0,M,005.6,N,010.4,K*42
$GPGGA,005413.197,3236.5237,N,11722.7739,W,3,05,1.4,013.7,M,036.5,M,,*7F
$GPGXP,005413,3236.5237,N,11722.7739,W*54
$GPVTG,053.5,T,040.3,M,005.4,N,010.0,K*4A
$GPGGA,005428.197,3236.5349,N,11722.7508,W,3,05,1.4,017.1,M,036.5,M,,*7D
$GPGXP,005428,3236.5349,N,11722.7508,W*54
$GPVTG,069.3,T,056.1,M,005.5,N,010.2,K*43
$GPGGA,005443.197,3236.5458,N,11722.7272,W,3,05,1.4,016.1,M,036.5,M,,*7C
$GPGXP,005443,3236.5458,N,11722.7272,W*54
$GPVTG,067.4,T,054.2,M,005.6,N,010.4,K*4E
$GPGGA,005458.197,3236.5571,N,11722.7039,W,3,05,1.4,018.8,M,036.5,M,,*76
$GPGXP,005458,3236.5571,N,11722.7039,W*59
$GPVTG,062.6,T,049.4,M,005.4,N,010.0,K*45
$GPGGA,005513.197,3236.5677,N,11722.6807,W,3,05,1.4,018.6,M,036.5,M,,*77
$GPGXP,005513,3236.5677,N,11722.6807,W*56
$GPVTG,062.9,T,049.7,M,005.2,N,009.7,K*40
$GPGGA,005528.197,3236.5783,N,11722.6573,W,3,05,1.4,019.1,M,036.5,M,,*7D
$GPGXP,005528,3236.5783,N,11722.6573,W*5A
$GPVTG,065.7,T,052.5,M,005.5,N,010.1,K*48
$GPGGA,005543.197,3236.5881,N,11722.6333,W,3,05,1.4,013.8,M,036.5,M,,*7C
$GPGXP,005543,3236.5881,N,11722.6333,W*58
$GPVTG,061.6,T,048.4,M,005.5,N,010.3,K*45
